<Folder xmlns:atom="http://www.w3.org/2005/Atom" xmlns:gx="http://www.google.com/kml/ext/2.2" xmlns="http://www.opengis.net/kml/2.2">
  <Placemark>
    <name>五金工具</name>
    <Point>
      <coordinates>108.65410242008147,34.10974728839561,0</coordinates>
    </Point>
  </Placemark>
  <Placemark>
    <name>宜联生活超市</name>
    <Point>
      <coordinates>108.65424868414745,34.126334238982366,0</coordinates>
    </Point>
  </Placemark>
  <Placemark>
    <name>海华购物超市(五竹店)</name>
    <Point>
      <coordinates>108.6549212947461,34.10889264973553,0</coordinates>
    </Point>
  </Placemark>
  <Placemark>
    <name>太平电器</name>
    <Point>
      <coordinates>108.64632746745941,34.11893791491703,0</coordinates>
    </Point>
  </Placemark>
  <Placemark>
    <name>果优园水果超市</name>
    <Point>
      <coordinates>108.64194531706711,34.10260531983351,0</coordinates>
    </Point>
  </Placemark>
  <Placemark>
    <name>五金电动工具批发零售</name>
    <Point>
      <coordinates>108.6355125812301,34.1099536745542,0</coordinates>
    </Point>
  </Placemark>
  <Placemark>
    <name>品茗聚烟酒</name>
    <Point>
      <coordinates>108.62719696549011,34.10583466062407,0</coordinates>
    </Point>
  </Placemark>
  <Placemark>
    <name>中国电信天翼互联网手机卖场(许滨北路)</name>
    <Point>
      <coordinates>108.62430875018116,34.109449518404006,0</coordinates>
    </Point>
  </Placemark>
  <Placemark>
    <name>世纪贝贝孕婴童</name>
    <Point>
      <coordinates>108.65478933157772,34.11052634116839,0</coordinates>
    </Point>
  </Placemark>
  <Placemark>
    <name>家美佳超市</name>
    <Point>
      <coordinates>108.65390905423747,34.12693944232718,0</coordinates>
    </Point>
  </Placemark>
  <Placemark>
    <name>忆香园水果超市</name>
    <Point>
      <coordinates>108.61206425061233,34.109830301762784,0</coordinates>
    </Point>
  </Placemark>
  <Placemark>
    <name>大学生超市</name>
    <Point>
      <coordinates>108.64380805845371,34.106403242919775,0</coordinates>
    </Point>
  </Placemark>
  <Placemark>
    <name>大西北眼镜行(娄敬路)</name>
    <Point>
      <coordinates>108.60342335189348,34.11516527893039,0</coordinates>
    </Point>
  </Placemark>
  <Placemark>
    <name>天堂纸花店</name>
    <Point>
      <coordinates>108.6544354605387,34.109734998351215,0</coordinates>
    </Point>
  </Placemark>
  <Placemark>
    <name>石佛寺百货便利店</name>
    <Point>
      <coordinates>108.62480451005155,34.137035134860504,0</coordinates>
    </Point>
  </Placemark>
  <Placemark>
    <name>恒大彩钢刚构</name>
    <Point>
      <coordinates>108.65597439354828,34.10977931940713,0</coordinates>
    </Point>
  </Placemark>
  <Placemark>
    <name>正泰电工</name>
    <Point>
      <coordinates>108.65410242008147,34.10974728839561,0</coordinates>
    </Point>
  </Placemark>
  <Placemark>
    <name>西安圣西兰壁纸有限公司</name>
    <Point>
      <coordinates>108.6236730252744,34.11122088621491,0</coordinates>
    </Point>
  </Placemark>
  <Placemark>
    <name>顺成石材</name>
    <Point>
      <coordinates>108.59715303883172,34.102549422623596,0</coordinates>
    </Point>
  </Placemark>
  <Placemark>
    <name>户县老醋坊</name>
    <Point>
      <coordinates>108.5991939096163,34.09860223581323,0</coordinates>
    </Point>
  </Placemark>
  <Placemark>
    <name>雅美瑞</name>
    <Point>
      <coordinates>108.60386741273955,34.10825897959336,0</coordinates>
    </Point>
  </Placemark>
  <Placemark>
    <name>水果调料鲜菜</name>
    <Point>
      <coordinates>108.60886585088572,34.114462002592354,0</coordinates>
    </Point>
  </Placemark>
  <Placemark>
    <name>老兵汽车电器空调</name>
    <Point>
      <coordinates>108.61533662351478,34.115885591198094,0</coordinates>
    </Point>
  </Placemark>
  <Placemark>
    <name>馨韵花卉坊</name>
    <Point>
      <coordinates>108.61989332559793,34.11083068101646,0</coordinates>
    </Point>
  </Placemark>
  <Placemark>
    <name>李文锁城(户县店)</name>
    <Point>
      <coordinates>108.61605428588454,34.109854120104885,0</coordinates>
    </Point>
  </Placemark>
  <Placemark>
    <name>宏碁商用产品专卖店</name>
    <Point>
      <coordinates>108.6036704935998,34.113745181230584,0</coordinates>
    </Point>
  </Placemark>
  <Placemark>
    <name>品和茶庄</name>
    <Point>
      <coordinates>108.62725534924094,34.106358401607906,0</coordinates>
    </Point>
  </Placemark>
  <Placemark>
    <name>皇冠壁纸</name>
    <Point>
      <coordinates>108.6043504871683,34.115130496913814,0</coordinates>
    </Point>
  </Placemark>
  <Placemark>
    <name>拉卡拉小店</name>
    <Point>
      <coordinates>108.6539080572152,34.12693944287669,0</coordinates>
    </Point>
  </Placemark>
  <Placemark>
    <name>新思路安防器材经销部</name>
    <Point>
      <coordinates>108.5990740919291,34.10180551369176,0</coordinates>
    </Point>
  </Placemark>
  <Placemark>
    <name>云南石材大全</name>
    <Point>
      <coordinates>108.60445604091038,34.12382096491935,0</coordinates>
    </Point>
  </Placemark>
  <Placemark>
    <name>圣西兰墙纸(户县专卖店)</name>
    <Point>
      <coordinates>108.60285711242553,34.11614461977894,0</coordinates>
    </Point>
  </Placemark>
  <Placemark>
    <name>都市田园</name>
    <Point>
      <coordinates>108.61809067967584,34.09825402865616,0</coordinates>
    </Point>
  </Placemark>
  <Placemark>
    <name>宇航挂面商行</name>
    <Point>
      <coordinates>108.60417962814896,34.104652338190796,0</coordinates>
    </Point>
  </Placemark>
  <Placemark>
    <name>中扬窗饰</name>
    <Point>
      <coordinates>108.60738290785679,34.10762433996199,0</coordinates>
    </Point>
  </Placemark>
  <Placemark>
    <name>阳光水族</name>
    <Point>
      <coordinates>108.6188763016349,34.10594571800696,0</coordinates>
    </Point>
  </Placemark>
  <Placemark>
    <name>立马电动车(户县专卖店)</name>
    <Point>
      <coordinates>108.60363710083983,34.1029273521384,0</coordinates>
    </Point>
  </Placemark>
  <Placemark>
    <name>美丰源便利店(许家河店)</name>
    <Point>
      <coordinates>108.62382188131959,34.11250391800627,0</coordinates>
    </Point>
  </Placemark>
  <Placemark>
    <name>七一建材市场-综合楼</name>
    <Point>
      <coordinates>108.60417106315721,34.1151452398702,0</coordinates>
    </Point>
  </Placemark>
  <Placemark>
    <name>西小文具屋</name>
    <Point>
      <coordinates>108.59753018280784,34.10993836127643,0</coordinates>
    </Point>
  </Placemark>
  <Placemark>
    <name>茜亚副食调味品商行</name>
    <Point>
      <coordinates>108.6041137191633,34.104935779457584,0</coordinates>
    </Point>
  </Placemark>
  <Placemark>
    <name>鑫龙商行</name>
    <Point>
      <coordinates>108.60425634033132,34.10475683333611,0</coordinates>
    </Point>
  </Placemark>
  <Placemark>
    <name>创意花店</name>
    <Point>
      <coordinates>108.6048865787079,34.11324481310255,0</coordinates>
    </Point>
  </Placemark>
  <Placemark>
    <name>美团站点</name>
    <Point>
      <coordinates>108.60686825284158,34.106726950193455,0</coordinates>
    </Point>
  </Placemark>
  <Placemark>
    <name>专业防水</name>
    <Point>
      <coordinates>108.59915987304863,34.11189736112043,0</coordinates>
    </Point>
  </Placemark>
  <Placemark>
    <name>雄鹰通讯</name>
    <Point>
      <coordinates>108.60362067871215,34.111318461858524,0</coordinates>
    </Point>
  </Placemark>
  <Placemark>
    <name>彩婷内衣(户县专卖店)</name>
    <Point>
      <coordinates>108.60649505985458,34.10932984080214,0</coordinates>
    </Point>
  </Placemark>
  <Placemark>
    <name>凯斯达</name>
    <Point>
      <coordinates>108.6056352828386,34.109275682517115,0</coordinates>
    </Point>
  </Placemark>
  <Placemark>
    <name>特百惠(康乐专卖店)</name>
    <Point>
      <coordinates>108.60960437795383,34.11340702269318,0</coordinates>
    </Point>
  </Placemark>
  <Placemark>
    <name>乖宝贝母婴生活馆(济仁医院店)</name>
    <Point>
      <coordinates>108.63269133287916,34.10939348371767,0</coordinates>
    </Point>
  </Placemark>
  <Placemark>
    <name>杨陵振动器专卖</name>
    <Point>
      <coordinates>108.60409827394753,34.11497977310543,0</coordinates>
    </Point>
  </Placemark>
  <Placemark>
    <name>一村一品冷鲜肉</name>
    <Point>
      <coordinates>108.59905602288217,34.10198139154939,0</coordinates>
    </Point>
  </Placemark>
  <Placemark>
    <name>梦之语计生用品</name>
    <Point>
      <coordinates>108.59942764941133,34.11575327346401,0</coordinates>
    </Point>
  </Placemark>
  <Placemark>
    <name>凉席商行</name>
    <Point>
      <coordinates>108.60498096487125,34.10471211251697,0</coordinates>
    </Point>
  </Placemark>
  <Placemark>
    <name>博天彩钢</name>
    <Point>
      <coordinates>108.6356963481537,34.109849146244215,0</coordinates>
    </Point>
  </Placemark>
  <Placemark>
    <name>贝尔地板</name>
    <Point>
      <coordinates>108.60356701624067,34.115814065008884,0</coordinates>
    </Point>
  </Placemark>
  <Placemark>
    <name>宝塔山油漆</name>
    <Point>
      <coordinates>108.60355489341944,34.09868660819055,0</coordinates>
    </Point>
  </Placemark>
  <Placemark>
    <name>机场前进百惠超市</name>
    <Point>
      <coordinates>108.57996766088407,34.14522742771078,0</coordinates>
    </Point>
  </Placemark>
  <Placemark>
    <name>南街什字土产日杂店</name>
    <Point>
      <coordinates>108.59891218691261,34.10673122475598,0</coordinates>
    </Point>
  </Placemark>
  <Placemark>
    <name>绿韵花艺(朝阳店)</name>
    <Point>
      <coordinates>108.61660385739582,34.106108147727745,0</coordinates>
    </Point>
  </Placemark>
  <Placemark>
    <name>商政休闲衬衫</name>
    <Point>
      <coordinates>108.6038723045124,34.10866888445118,0</coordinates>
    </Point>
  </Placemark>
  <Placemark>
    <name>欧派橱柜衣柜</name>
    <Point>
      <coordinates>108.62294917533598,34.11102543938724,0</coordinates>
    </Point>
  </Placemark>
  <Placemark>
    <name>光彩灯城</name>
    <Point>
      <coordinates>108.61446390365573,34.10943528399988,0</coordinates>
    </Point>
  </Placemark>
  <Placemark>
    <name>道口炒货</name>
    <Point>
      <coordinates>108.60981768578024,34.10933942332475,0</coordinates>
    </Point>
  </Placemark>
  <Placemark>
    <name>顺达彩钢钢构</name>
    <Point>
      <coordinates>108.65410242008147,34.10974728839561,0</coordinates>
    </Point>
  </Placemark>
  <Placemark>
    <name>嘉美美妆时尚精品店</name>
    <Point>
      <coordinates>108.60506231997597,34.109185231886904,0</coordinates>
    </Point>
  </Placemark>
  <Placemark>
    <name>康诚电脑</name>
    <Point>
      <coordinates>108.6082031573487,34.11694582533166,0</coordinates>
    </Point>
  </Placemark>
  <Placemark>
    <name>红丽综合商店</name>
    <Point>
      <coordinates>108.60340721740874,34.106736483249755,0</coordinates>
    </Point>
  </Placemark>
  <Placemark>
    <name>MISSLI世纪金花品味风尚馆</name>
    <Point>
      <coordinates>108.60264768939216,34.109444047408786,0</coordinates>
    </Point>
  </Placemark>
  <Placemark>
    <name>七一建材市场-南排</name>
    <Point>
      <coordinates>108.60456176641485,34.114847065266744,0</coordinates>
    </Point>
  </Placemark>
  <Placemark>
    <name>雷子鞋城</name>
    <Point>
      <coordinates>108.60269650344829,34.10976623284242,0</coordinates>
    </Point>
  </Placemark>
  <Placemark>
    <name>晨光文具(心情小屋)</name>
    <Point>
      <coordinates>108.6007737644865,34.10224227321224,0</coordinates>
    </Point>
  </Placemark>
  <Placemark>
    <name>德国威能(户县专卖店)</name>
    <Point>
      <coordinates>108.61838522260314,34.11328117032657,0</coordinates>
    </Point>
  </Placemark>
  <Placemark>
    <name>喜多多橱柜衣柜</name>
    <Point>
      <coordinates>108.63549670994438,34.10984049642574,0</coordinates>
    </Point>
  </Placemark>
  <Placemark>
    <name>每天惠洋洋金阳光超市</name>
    <Point>
      <coordinates>108.61993693329279,34.10222627953678,0</coordinates>
    </Point>
  </Placemark>
  <Placemark>
    <name>完美天缘芦荟商店</name>
    <Point>
      <coordinates>108.62229407722477,34.10915161399079,0</coordinates>
    </Point>
  </Placemark>
  <Placemark>
    <name>龙窝村酒文化会所</name>
    <Point>
      <coordinates>108.60353475356544,34.123510746988835,0</coordinates>
    </Point>
  </Placemark>
  <Placemark>
    <name>爱尔堡孕婴生活馆</name>
    <Point>
      <coordinates>108.61926294527107,34.108576708756985,0</coordinates>
    </Point>
  </Placemark>
  <Placemark>
    <name>方太</name>
    <Point>
      <coordinates>108.6157600875412,34.10985597629954,0</coordinates>
    </Point>
  </Placemark>
  <Placemark>
    <name>便民超市</name>
    <Point>
      <coordinates>108.59274032407825,34.1096780843714,0</coordinates>
    </Point>
  </Placemark>
  <Placemark>
    <name>周师五金电料</name>
    <Point>
      <coordinates>108.59828237910608,34.10953183407637,0</coordinates>
    </Point>
  </Placemark>
  <Placemark>
    <name>万家乐超市(正小路)</name>
    <Point>
      <coordinates>108.6296568536497,34.13541564126718,0</coordinates>
    </Point>
  </Placemark>
  <Placemark>
    <name>新疆阿克苏糖心苹果专营</name>
    <Point>
      <coordinates>108.60092944318977,34.12350972546574,0</coordinates>
    </Point>
  </Placemark>
  <Placemark>
    <name>爱美车行厂家直销</name>
    <Point>
      <coordinates>108.59695337619296,34.10223833365635,0</coordinates>
    </Point>
  </Placemark>
  <Placemark>
    <name>瑞祥五金电料</name>
    <Point>
      <coordinates>108.60411428594367,34.11547777942419,0</coordinates>
    </Point>
  </Placemark>
  <Placemark>
    <name>箱包之都</name>
    <Point>
      <coordinates>108.60376665741042,34.10853522357521,0</coordinates>
    </Point>
  </Placemark>
  <Placemark>
    <name>恒享来购物中心</name>
    <Point>
      <coordinates>108.5853671743736,34.1142108282065,0</coordinates>
    </Point>
  </Placemark>
  <Placemark>
    <name>佳萱花卉</name>
    <Point>
      <coordinates>108.60127651084379,34.107560544575996,0</coordinates>
    </Point>
  </Placemark>
  <Placemark>
    <name>狗头枣专卖店</name>
    <Point>
      <coordinates>108.60795333872109,34.108317529587,0</coordinates>
    </Point>
  </Placemark>
  <Placemark>
    <name>天天旺超市</name>
    <Point>
      <coordinates>108.65498891190317,34.10981626281428,0</coordinates>
    </Point>
  </Placemark>
  <Placemark>
    <name>好记星专卖</name>
    <Point>
      <coordinates>108.60348524439273,34.109908982851834,0</coordinates>
    </Point>
  </Placemark>
  <Placemark>
    <name>尊邦豪门</name>
    <Point>
      <coordinates>108.60267847179597,34.115285752683775,0</coordinates>
    </Point>
  </Placemark>
  <Placemark>
    <name>恒源铝合金加工部</name>
    <Point>
      <coordinates>108.60484348599003,34.12330683460502,0</coordinates>
    </Point>
  </Placemark>
  <Placemark>
    <name>顺厂油坊</name>
    <Point>
      <coordinates>108.60342730046473,34.09725944555303,0</coordinates>
    </Point>
  </Placemark>
  <Placemark>
    <name>海尔热水器厨房电器专卖</name>
    <Point>
      <coordinates>108.60329585363186,34.11605429753119,0</coordinates>
    </Point>
  </Placemark>
  <Placemark>
    <name>小棉人床上用品</name>
    <Point>
      <coordinates>108.60667052034073,34.10862458531029,0</coordinates>
    </Point>
  </Placemark>
  <Placemark>
    <name>百惠超市(广场西路)</name>
    <Point>
      <coordinates>108.60784102588057,34.128239074103824,0</coordinates>
    </Point>
  </Placemark>
  <Placemark>
    <name>小大人时尚童装</name>
    <Point>
      <coordinates>108.60695737002793,34.10869911127973,0</coordinates>
    </Point>
  </Placemark>
  <Placemark>
    <name>鸿润超市(许滨路)</name>
    <Point>
      <coordinates>108.62431047141301,34.11496312280726,0</coordinates>
    </Point>
  </Placemark>
  <Placemark>
    <name>中韩钓具</name>
    <Point>
      <coordinates>108.59879981979185,34.10875827657068,0</coordinates>
    </Point>
  </Placemark>
  <Placemark>
    <name>蓝鲸陶瓷</name>
    <Point>
      <coordinates>108.62251024778769,34.10216149996548,0</coordinates>
    </Point>
  </Placemark>
  <Placemark>
    <name>德宝轩盆景根雕</name>
    <Point>
      <coordinates>108.60623415594407,34.10882975786733,0</coordinates>
    </Point>
  </Placemark>
  <Placemark>
    <name>旺旺门窗装饰部</name>
    <Point>
      <coordinates>108.6044058025993,34.12304168083301,0</coordinates>
    </Point>
  </Placemark>
  <Placemark>
    <name>永新建材行</name>
    <Point>
      <coordinates>108.60078698067264,34.12569694634652,0</coordinates>
    </Point>
  </Placemark>
  <Placemark>
    <name>颈霸男装</name>
    <Point>
      <coordinates>108.6073018438921,34.109367046946396,0</coordinates>
    </Point>
  </Placemark>
  <Placemark>
    <name>艺宝阁</name>
    <Point>
      <coordinates>108.60135569184155,34.11108086021875,0</coordinates>
    </Point>
  </Placemark>
  <Placemark>
    <name>顺丰果行</name>
    <Point>
      <coordinates>108.61087132275648,34.110610888455774,0</coordinates>
    </Point>
  </Placemark>
  <Placemark>
    <name>户县草堂石园</name>
    <Point>
      <coordinates>108.59586206185723,34.10711395404745,0</coordinates>
    </Point>
  </Placemark>
  <Placemark>
    <name>玉莲漆油</name>
    <Point>
      <coordinates>108.61210409330236,34.10950688463448,0</coordinates>
    </Point>
  </Placemark>
  <Placemark>
    <name>分秒门窗</name>
    <Point>
      <coordinates>108.60354484054837,34.09880648981194,0</coordinates>
    </Point>
  </Placemark>
  <Placemark>
    <name>左岸风情</name>
    <Point>
      <coordinates>108.6056352828386,34.109275682517115,0</coordinates>
    </Point>
  </Placemark>
  <Placemark>
    <name>快乐宝贝</name>
    <Point>
      <coordinates>108.60608713144119,34.10716005305153,0</coordinates>
    </Point>
  </Placemark>
  <Placemark>
    <name>户县勉利畜禽服务部</name>
    <Point>
      <coordinates>108.60448694802295,34.12383618446422,0</coordinates>
    </Point>
  </Placemark>
  <Placemark>
    <name>御舍木工坊</name>
    <Point>
      <coordinates>108.6056352828386,34.109275682517115,0</coordinates>
    </Point>
  </Placemark>
  <Placemark>
    <name>雪梅商店</name>
    <Point>
      <coordinates>108.61034012678444,34.10951115457568,0</coordinates>
    </Point>
  </Placemark>
  <Placemark>
    <name>海洋板材</name>
    <Point>
      <coordinates>108.60432465648674,34.11972950650631,0</coordinates>
    </Point>
  </Placemark>
  <Placemark>
    <name>巧丽商店</name>
    <Point>
      <coordinates>108.61535255343385,34.13525619652378,0</coordinates>
    </Point>
  </Placemark>
  <Placemark>
    <name>荆楚塑钢铝合金门窗加工部</name>
    <Point>
      <coordinates>108.60505592369108,34.123621400748725,0</coordinates>
    </Point>
  </Placemark>
  <Placemark>
    <name>8090商店</name>
    <Point>
      <coordinates>108.64929256794402,34.109774379575015,0</coordinates>
    </Point>
  </Placemark>
  <Placemark>
    <name>宝诚老银匠(户县店)</name>
    <Point>
      <coordinates>108.60388664777699,34.10715446552654,0</coordinates>
    </Point>
  </Placemark>
  <Placemark>
    <name>珍爱窗帘</name>
    <Point>
      <coordinates>108.6062929267637,34.10885924780324,0</coordinates>
    </Point>
  </Placemark>
  <Placemark>
    <name>中老年服饰</name>
    <Point>
      <coordinates>108.60649505985458,34.10932984080214,0</coordinates>
    </Point>
  </Placemark>
  <Placemark>
    <name>湖南华莱华莱健安化黑茶户县分店</name>
    <Point>
      <coordinates>108.60884106456268,34.11540454625252,0</coordinates>
    </Point>
  </Placemark>
  <Placemark>
    <name>立邦漆店(户县店)</name>
    <Point>
      <coordinates>108.6034004388009,34.11532010175823,0</coordinates>
    </Point>
  </Placemark>
  <Placemark>
    <name>朝阳饮料啤酒批发</name>
    <Point>
      <coordinates>108.60407893855611,34.104669638342884,0</coordinates>
    </Point>
  </Placemark>
  <Placemark>
    <name>皇明太阳能</name>
    <Point>
      <coordinates>108.60107811966473,34.125306232655426,0</coordinates>
    </Point>
  </Placemark>
  <Placemark>
    <name>红卫百货商店</name>
    <Point>
      <coordinates>108.60457807105462,34.10531891646804,0</coordinates>
    </Point>
  </Placemark>
  <Placemark>
    <name>ViVO</name>
    <Point>
      <coordinates>108.65352914397351,34.109754556070946,0</coordinates>
    </Point>
  </Placemark>
  <Placemark>
    <name>惠沣商贸</name>
    <Point>
      <coordinates>108.60905615705047,34.10984715348891,0</coordinates>
    </Point>
  </Placemark>
  <Placemark>
    <name>仁和茶庄</name>
    <Point>
      <coordinates>108.59993815637014,34.12486273144696,0</coordinates>
    </Point>
  </Placemark>
  <Placemark>
    <name>潮宝屋欧韩童装</name>
    <Point>
      <coordinates>108.61979647977915,34.10814099475012,0</coordinates>
    </Point>
  </Placemark>
  <Placemark>
    <name>春天门业</name>
    <Point>
      <coordinates>108.60309032879186,34.11528018830077,0</coordinates>
    </Point>
  </Placemark>
  <Placemark>
    <name>荣宝斋金行老凤祥珠宝经销店</name>
    <Point>
      <coordinates>108.60331985820562,34.109158159310105,0</coordinates>
    </Point>
  </Placemark>
  <Placemark>
    <name>宝宝奶站</name>
    <Point>
      <coordinates>108.6038767316214,34.10428641169168,0</coordinates>
    </Point>
  </Placemark>
  <Placemark>
    <name>户县京宇焊接材料供应部</name>
    <Point>
      <coordinates>108.61443903698296,34.10950093004672,0</coordinates>
    </Point>
  </Placemark>
  <Placemark>
    <name>意尔康(兴伦购物中心西)</name>
    <Point>
      <coordinates>108.60348634235197,34.10930516763368,0</coordinates>
    </Point>
  </Placemark>
  <Placemark>
    <name>老刘家生熟牛羊肉店</name>
    <Point>
      <coordinates>108.59966369434639,34.120895194058775,0</coordinates>
    </Point>
  </Placemark>
  <Placemark>
    <name>萌萌文具店</name>
    <Point>
      <coordinates>108.59973780097334,34.10687864773259,0</coordinates>
    </Point>
  </Placemark>
  <Placemark>
    <name>洋名尚品进口商品品牌馆</name>
    <Point>
      <coordinates>108.60506231997597,34.109185231886904,0</coordinates>
    </Point>
  </Placemark>
  <Placemark>
    <name>红四海家具店</name>
    <Point>
      <coordinates>108.62020003749312,34.10244224586017,0</coordinates>
    </Point>
  </Placemark>
  <Placemark>
    <name>户县西街农业综合服务部</name>
    <Point>
      <coordinates>108.5978798137396,34.10986395252651,0</coordinates>
    </Point>
  </Placemark>
  <Placemark>
    <name>最好的你婚纱礼服鲜花</name>
    <Point>
      <coordinates>108.60483714290615,34.1167547012229,0</coordinates>
    </Point>
  </Placemark>
  <Placemark>
    <name>日立变频中央空调</name>
    <Point>
      <coordinates>108.62287790568662,34.109498747049386,0</coordinates>
    </Point>
  </Placemark>
  <Placemark>
    <name>水云间</name>
    <Point>
      <coordinates>108.60170454002223,34.102497434514255,0</coordinates>
    </Point>
  </Placemark>
  <Placemark>
    <name>利郎(丰京路)</name>
    <Point>
      <coordinates>108.61682853349184,34.10948629482845,0</coordinates>
    </Point>
  </Placemark>
  <Placemark>
    <name>cache</name>
    <Point>
      <coordinates>108.60302365921106,34.109410265395326,0</coordinates>
    </Point>
  </Placemark>
  <Placemark>
    <name>吉港黑马广州五羊上海永久自行车户县专卖</name>
    <Point>
      <coordinates>108.59917906092944,34.099909612783,0</coordinates>
    </Point>
  </Placemark>
  <Placemark>
    <name>妇幼商店</name>
    <Point>
      <coordinates>108.60717306377988,34.11351475908742,0</coordinates>
    </Point>
  </Placemark>
  <Placemark>
    <name>盛远板房钢结构</name>
    <Point>
      <coordinates>108.60400554350012,34.12191602097602,0</coordinates>
    </Point>
  </Placemark>
  <Placemark>
    <name>华瑞轴承输送带</name>
    <Point>
      <coordinates>108.60386880717317,34.10041890925131,0</coordinates>
    </Point>
  </Placemark>
  <Placemark>
    <name>画展文具店</name>
    <Point>
      <coordinates>108.60551837750046,34.11324768053917,0</coordinates>
    </Point>
  </Placemark>
  <Placemark>
    <name>西北灯具电料</name>
    <Point>
      <coordinates>108.60340852242992,34.098404801197795,0</coordinates>
    </Point>
  </Placemark>
  <Placemark>
    <name>童婴阁孕婴童生活馆</name>
    <Point>
      <coordinates>108.60483714290615,34.1167547012229,0</coordinates>
    </Point>
  </Placemark>
  <Placemark>
    <name>新华食品店</name>
    <Point>
      <coordinates>108.59473180431917,34.10963063463571,0</coordinates>
    </Point>
  </Placemark>
  <Placemark>
    <name>好邻居蔬菜店</name>
    <Point>
      <coordinates>108.59927239243747,34.10465297024915,0</coordinates>
    </Point>
  </Placemark>
  <Placemark>
    <name>商用家用中央空调工程处</name>
    <Point>
      <coordinates>108.60845561871302,34.11263926310803,0</coordinates>
    </Point>
  </Placemark>
  <Placemark>
    <name>凯盛货架工厂店麻将机</name>
    <Point>
      <coordinates>108.6040413781389,34.114166561217885,0</coordinates>
    </Point>
  </Placemark>
  <Placemark>
    <name>捷安奇电脑</name>
    <Point>
      <coordinates>108.62386655572595,34.11342740151238,0</coordinates>
    </Point>
  </Placemark>
  <Placemark>
    <name>欧雅壁纸</name>
    <Point>
      <coordinates>108.61866177184963,34.109287398868,0</coordinates>
    </Point>
  </Placemark>
  <Placemark>
    <name>京福祥老北京布鞋</name>
    <Point>
      <coordinates>108.60346276545796,34.10772950746979,0</coordinates>
    </Point>
  </Placemark>
  <Placemark>
    <name>晓燕纸衣纸花店</name>
    <Point>
      <coordinates>108.59885246113596,34.110455911894064,0</coordinates>
    </Point>
  </Placemark>
  <Placemark>
    <name>金牛管业</name>
    <Point>
      <coordinates>108.65410242008147,34.10974728839561,0</coordinates>
    </Point>
  </Placemark>
  <Placemark>
    <name>莱克润滑油</name>
    <Point>
      <coordinates>108.60440455176264,34.126141422380925,0</coordinates>
    </Point>
  </Placemark>
  <Placemark>
    <name>车站粮油店</name>
    <Point>
      <coordinates>108.60334949976402,34.09729693746441,0</coordinates>
    </Point>
  </Placemark>
  <Placemark>
    <name>星海电器</name>
    <Point>
      <coordinates>108.59916795337647,34.10010649543193,0</coordinates>
    </Point>
  </Placemark>
  <Placemark>
    <name>旺发鞋店</name>
    <Point>
      <coordinates>108.65498891190317,34.10981626281428,0</coordinates>
    </Point>
  </Placemark>
  <Placemark>
    <name>户县尚品家电直营店</name>
    <Point>
      <coordinates>108.60475292570356,34.10222437173518,0</coordinates>
    </Point>
  </Placemark>
  <Placemark>
    <name>H H Flowers</name>
    <Point>
      <coordinates>108.6147660495222,34.10989123646152,0</coordinates>
    </Point>
  </Placemark>
  <Placemark>
    <name>信宝自行车(户县专卖)</name>
    <Point>
      <coordinates>108.59950797850509,34.1007922229425,0</coordinates>
    </Point>
  </Placemark>
  <Placemark>
    <name>万家兴自选店</name>
    <Point>
      <coordinates>108.59492482594783,34.10936155711597,0</coordinates>
    </Point>
  </Placemark>
  <Placemark>
    <name>四季美博城</name>
    <Point>
      <coordinates>108.60324485783555,34.11504618532141,0</coordinates>
    </Point>
  </Placemark>
  <Placemark>
    <name>好人家商店</name>
    <Point>
      <coordinates>108.65488100680244,34.111047064099445,0</coordinates>
    </Point>
  </Placemark>
  <Placemark>
    <name>城市坐标装饰</name>
    <Point>
      <coordinates>108.60429677559344,34.119813298706994,0</coordinates>
    </Point>
  </Placemark>
  <Placemark>
    <name>澳莱斯燃气壁挂炉专卖</name>
    <Point>
      <coordinates>108.61267401895942,34.109495961312,0</coordinates>
    </Point>
  </Placemark>
  <Placemark>
    <name>惠民五金电料</name>
    <Point>
      <coordinates>108.65378041020854,34.12519862199761,0</coordinates>
    </Point>
  </Placemark>
  <Placemark>
    <name>户县子元花卉经销部</name>
    <Point>
      <coordinates>108.6013684015524,34.107207088124724,0</coordinates>
    </Point>
  </Placemark>
  <Placemark>
    <name>马可波罗磁砖</name>
    <Point>
      <coordinates>108.60331592425275,34.12021373568282,0</coordinates>
    </Point>
  </Placemark>
  <Placemark>
    <name>博士邦尼(金马百货户县店)</name>
    <Point>
      <coordinates>108.60318608611956,34.11011104932201,0</coordinates>
    </Point>
  </Placemark>
  <Placemark>
    <name>葛师商店</name>
    <Point>
      <coordinates>108.59907331717521,34.11634911820846,0</coordinates>
    </Point>
  </Placemark>
  <Placemark>
    <name>虚拟现实体验店(石油大学店)</name>
    <Point>
      <coordinates>108.6514013867411,34.10937807423629,0</coordinates>
    </Point>
  </Placemark>
  <Placemark>
    <name>百慧超市</name>
    <Point>
      <coordinates>108.65388358848952,34.1242486505737,0</coordinates>
    </Point>
  </Placemark>
  <Placemark>
    <name>淼淼商店(北二街)</name>
    <Point>
      <coordinates>108.641385030187,34.129797261390564,0</coordinates>
    </Point>
  </Placemark>
  <Placemark>
    <name>百利嘉超市</name>
    <Point>
      <coordinates>108.64838592029395,34.12408002353084,0</coordinates>
    </Point>
  </Placemark>
  <Placemark>
    <name>兴达彩钢</name>
    <Point>
      <coordinates>108.65678359546801,34.109387176009506,0</coordinates>
    </Point>
  </Placemark>
  <Placemark>
    <name>乐购果</name>
    <Point>
      <coordinates>108.64845722428352,34.109416202577606,0</coordinates>
    </Point>
  </Placemark>
  <Placemark>
    <name>鲁班彩钢铝合金门窗</name>
    <Point>
      <coordinates>108.6577346248162,34.10933377705965,0</coordinates>
    </Point>
  </Placemark>
  <Placemark>
    <name>芮涵五金机电</name>
    <Point>
      <coordinates>108.62422833382625,34.10940425020072,0</coordinates>
    </Point>
  </Placemark>
  <Placemark>
    <name>和平调料粮油冻货</name>
    <Point>
      <coordinates>108.6547353676569,34.11137017358373,0</coordinates>
    </Point>
  </Placemark>
  <Placemark>
    <name>户县佳诚通讯</name>
    <Point>
      <coordinates>108.65419215426586,34.109766213435464,0</coordinates>
    </Point>
  </Placemark>
  <Placemark>
    <name>家家装饰体验馆</name>
    <Point>
      <coordinates>108.62819572712657,34.10918230156655,0</coordinates>
    </Point>
  </Placemark>
  <Placemark>
    <name>波波鲜肉店</name>
    <Point>
      <coordinates>108.65439440148971,34.110771734634135,0</coordinates>
    </Point>
  </Placemark>
  <Placemark>
    <name>阿东车行</name>
    <Point>
      <coordinates>108.65443822084927,34.11119557012958,0</coordinates>
    </Point>
  </Placemark>
  <Placemark>
    <name>汉中仙毫</name>
    <Point>
      <coordinates>108.6279127348568,34.109405788081155,0</coordinates>
    </Point>
  </Placemark>
  <Placemark>
    <name>宏博彩钢</name>
    <Point>
      <coordinates>108.65716480010214,34.10925694512272,0</coordinates>
    </Point>
  </Placemark>
  <Placemark>
    <name>张魁鲜菜店</name>
    <Point>
      <coordinates>108.6547103580929,34.1122649643895,0</coordinates>
    </Point>
  </Placemark>
  <Placemark>
    <name>许师干菜调料鲜菜店</name>
    <Point>
      <coordinates>108.65395399618299,34.135026253842156,0</coordinates>
    </Point>
  </Placemark>
  <Placemark>
    <name>红红商店</name>
    <Point>
      <coordinates>108.6544697388713,34.127438963454345,0</coordinates>
    </Point>
  </Placemark>
  <Placemark>
    <name>百惠超市(渭涝路)</name>
    <Point>
      <coordinates>108.54210555413002,34.15506405282497,0</coordinates>
    </Point>
  </Placemark>
  <Placemark>
    <name>美帝美度</name>
    <Point>
      <coordinates>108.60660954358994,34.10974771321762,0</coordinates>
    </Point>
  </Placemark>
  <Placemark>
    <name>美国骆驼(金马百货户县店)</name>
    <Point>
      <coordinates>108.6028978836294,34.11022327749227,0</coordinates>
    </Point>
  </Placemark>
  <Placemark>
    <name>玖银荘</name>
    <Point>
      <coordinates>108.60532973666471,34.10767376329639,0</coordinates>
    </Point>
  </Placemark>
  <Placemark>
    <name>童品酷</name>
    <Point>
      <coordinates>108.60623415594407,34.10882975786733,0</coordinates>
    </Point>
  </Placemark>
  <Placemark>
    <name>MAMAMIYA</name>
    <Point>
      <coordinates>108.60623415594407,34.10882975786733,0</coordinates>
    </Point>
  </Placemark>
  <Placemark>
    <name>兴达童装</name>
    <Point>
      <coordinates>108.60592868573063,34.1072796978894,0</coordinates>
    </Point>
  </Placemark>
  <Placemark>
    <name>艾尚伊</name>
    <Point>
      <coordinates>108.61478792617964,34.10985454463695,0</coordinates>
    </Point>
  </Placemark>
  <Placemark>
    <name>福光缘香腊纸表</name>
    <Point>
      <coordinates>108.59729048698935,34.109518153765315,0</coordinates>
    </Point>
  </Placemark>
  <Placemark>
    <name>榕德福工艺礼品店</name>
    <Point>
      <coordinates>108.6011604843584,34.108742640135816,0</coordinates>
    </Point>
  </Placemark>
  <Placemark>
    <name>玉宝斋</name>
    <Point>
      <coordinates>108.60134869945902,34.111176801534896,0</coordinates>
    </Point>
  </Placemark>
  <Placemark>
    <name>万德变频壁挂炉</name>
    <Point>
      <coordinates>108.60273725598393,34.12568470394849,0</coordinates>
    </Point>
  </Placemark>
  <Placemark>
    <name>港府太子</name>
    <Point>
      <coordinates>108.6056352828386,34.109275682517115,0</coordinates>
    </Point>
  </Placemark>
  <Placemark>
    <name>金凯德门业</name>
    <Point>
      <coordinates>108.60621340842278,34.128002389762244,0</coordinates>
    </Point>
  </Placemark>
  <Placemark>
    <name>天赐屋</name>
    <Point>
      <coordinates>108.6059286854423,34.1072806975575,0</coordinates>
    </Point>
  </Placemark>
  <Placemark>
    <name>益加益油坊</name>
    <Point>
      <coordinates>108.59501720880283,34.107584049357214,0</coordinates>
    </Point>
  </Placemark>
  <Placemark>
    <name>超力通讯</name>
    <Point>
      <coordinates>108.60362564413613,34.111596420204016,0</coordinates>
    </Point>
  </Placemark>
  <Placemark>
    <name>怡清源茶庄</name>
    <Point>
      <coordinates>108.60890078965906,34.11537016828872,0</coordinates>
    </Point>
  </Placemark>
  <Placemark>
    <name>宏利鲜菜店</name>
    <Point>
      <coordinates>108.60438641597929,34.12210264193455,0</coordinates>
    </Point>
  </Placemark>
  <Placemark>
    <name>亿家谷物粮油</name>
    <Point>
      <coordinates>108.61141317833692,34.13463438708263,0</coordinates>
    </Point>
  </Placemark>
  <Placemark>
    <name>乐乐便利店</name>
    <Point>
      <coordinates>108.59878981149589,34.108868217287004,0</coordinates>
    </Point>
  </Placemark>
  <Placemark>
    <name>旺达百货商行</name>
    <Point>
      <coordinates>108.60469377353284,34.105101836619355,0</coordinates>
    </Point>
  </Placemark>
  <Placemark>
    <name>如意商店</name>
    <Point>
      <coordinates>108.60144660046215,34.110067572131626,0</coordinates>
    </Point>
  </Placemark>
  <Placemark>
    <name>都市米兰</name>
    <Point>
      <coordinates>108.61979647977915,34.10814099475012,0</coordinates>
    </Point>
  </Placemark>
  <Placemark>
    <name>欣瑞粮油批发</name>
    <Point>
      <coordinates>108.60473773220143,34.104842253620404,0</coordinates>
    </Point>
  </Placemark>
  <Placemark>
    <name>第一印象地板</name>
    <Point>
      <coordinates>108.60477406184486,34.114857612933214,0</coordinates>
    </Point>
  </Placemark>
  <Placemark>
    <name>浩信不锈钢加工部</name>
    <Point>
      <coordinates>108.5951485866021,34.110731019444486,0</coordinates>
    </Point>
  </Placemark>
  <Placemark>
    <name>雅哲</name>
    <Point>
      <coordinates>108.60345624520912,34.11053561943663,0</coordinates>
    </Point>
  </Placemark>
  <Placemark>
    <name>直达7号精品童装</name>
    <Point>
      <coordinates>108.60670623804316,34.10932868546778,0</coordinates>
    </Point>
  </Placemark>
  <Placemark>
    <name>英霸木门</name>
    <Point>
      <coordinates>108.6027333527227,34.11550902343886,0</coordinates>
    </Point>
  </Placemark>
  <Placemark>
    <name>虎林五金机电</name>
    <Point>
      <coordinates>108.5978798137396,34.10986395252651,0</coordinates>
    </Point>
  </Placemark>
  <Placemark>
    <name>百圆裤业(草堂路)</name>
    <Point>
      <coordinates>108.60390184592607,34.10637583029857,0</coordinates>
    </Point>
  </Placemark>
  <Placemark>
    <name>轩轩铝塑门窗</name>
    <Point>
      <coordinates>108.60404929354036,34.123728134504994,0</coordinates>
    </Point>
  </Placemark>
  <Placemark>
    <name>安得逸软体世家</name>
    <Point>
      <coordinates>108.6056352828386,34.109275682517115,0</coordinates>
    </Point>
  </Placemark>
  <Placemark>
    <name>恒兴名烟名酒城</name>
    <Point>
      <coordinates>108.60412831927434,34.11599077308964,0</coordinates>
    </Point>
  </Placemark>
  <Placemark>
    <name>乐不思俗音画坊</name>
    <Point>
      <coordinates>108.60163901345972,34.111293161153824,0</coordinates>
    </Point>
  </Placemark>
  <Placemark>
    <name>朱雀美妆精品店</name>
    <Point>
      <coordinates>108.62013528841081,34.10778032062948,0</coordinates>
    </Point>
  </Placemark>
  <Placemark>
    <name>章光101(天慧新城西北)</name>
    <Point>
      <coordinates>108.61406514513695,34.10985983076018,0</coordinates>
    </Point>
  </Placemark>
  <Placemark>
    <name>香格丽·紫罗兰女装店</name>
    <Point>
      <coordinates>108.60664574258931,34.10808953556111,0</coordinates>
    </Point>
  </Placemark>
  <Placemark>
    <name>双星专卖(娄敬路)</name>
    <Point>
      <coordinates>108.6041356717056,34.11778249499353,0</coordinates>
    </Point>
  </Placemark>
  <Placemark>
    <name>博诺安体验店</name>
    <Point>
      <coordinates>108.61774767956786,34.109508709957595,0</coordinates>
    </Point>
  </Placemark>
  <Placemark>
    <name>南洋实木楼梯扶手</name>
    <Point>
      <coordinates>108.60425181313113,34.11520378890578,0</coordinates>
    </Point>
  </Placemark>
  <Placemark>
    <name>鎏微商店</name>
    <Point>
      <coordinates>108.60396649178429,34.10420104741353,0</coordinates>
    </Point>
  </Placemark>
  <Placemark>
    <name>户县好快办公设备耗材经销部</name>
    <Point>
      <coordinates>108.60719210941413,34.11511657669468,0</coordinates>
    </Point>
  </Placemark>
  <Placemark>
    <name>纸张大全</name>
    <Point>
      <coordinates>108.60372687337495,34.1175177880733,0</coordinates>
    </Point>
  </Placemark>
  <Placemark>
    <name>渝嘉艺门业</name>
    <Point>
      <coordinates>108.60338349919019,34.115400978164764,0</coordinates>
    </Point>
  </Placemark>
  <Placemark>
    <name>上海永久电动车(户县专卖店)</name>
    <Point>
      <coordinates>108.60349686687518,34.10225771425448,0</coordinates>
    </Point>
  </Placemark>
  <Placemark>
    <name>南洋水暖店</name>
    <Point>
      <coordinates>108.6043645859207,34.11989476468083,0</coordinates>
    </Point>
  </Placemark>
  <Placemark>
    <name>钓台路商店</name>
    <Point>
      <coordinates>108.59903979633422,34.104559341366226,0</coordinates>
    </Point>
  </Placemark>
  <Placemark>
    <name>辉煌整体厨房(户县专卖店)</name>
    <Point>
      <coordinates>108.60472922564567,34.11498225618831,0</coordinates>
    </Point>
  </Placemark>
  <Placemark>
    <name>鑫石阁</name>
    <Point>
      <coordinates>108.59492499115511,34.10853480964664,0</coordinates>
    </Point>
  </Placemark>
  <Placemark>
    <name>欣芳</name>
    <Point>
      <coordinates>108.61189828579982,34.116842606522425,0</coordinates>
    </Point>
  </Placemark>
  <Placemark>
    <name>电热毯专卖</name>
    <Point>
      <coordinates>108.60905615705047,34.10984715348891,0</coordinates>
    </Point>
  </Placemark>
  <Placemark>
    <name>蜂产品直销店</name>
    <Point>
      <coordinates>108.60149311638128,34.10719768231767,0</coordinates>
    </Point>
  </Placemark>
  <Placemark>
    <name>宁静雅客</name>
    <Point>
      <coordinates>108.60136036699775,34.10739198947479,0</coordinates>
    </Point>
  </Placemark>
  <Placemark>
    <name>米而奇</name>
    <Point>
      <coordinates>108.60324543960209,34.107580190440615,0</coordinates>
    </Point>
  </Placemark>
  <Placemark>
    <name>智爱家具</name>
    <Point>
      <coordinates>108.6056352828386,34.109275682517115,0</coordinates>
    </Point>
  </Placemark>
  <Placemark>
    <name>汉高漆(户县店)</name>
    <Point>
      <coordinates>108.57899030664039,34.10964574917862,0</coordinates>
    </Point>
  </Placemark>
  <Placemark>
    <name>莱茵阳光</name>
    <Point>
      <coordinates>108.60354999598555,34.11531705623357,0</coordinates>
    </Point>
  </Placemark>
  <Placemark>
    <name>秦龙肉店</name>
    <Point>
      <coordinates>108.6038004640241,34.10134206571869,0</coordinates>
    </Point>
  </Placemark>
  <Placemark>
    <name>鸟友之家</name>
    <Point>
      <coordinates>108.5989317879036,34.10497489556276,0</coordinates>
    </Point>
  </Placemark>
  <Placemark>
    <name>西安市户县康美超越日用品经销部</name>
    <Point>
      <coordinates>108.60493627102979,34.102292707321595,0</coordinates>
    </Point>
  </Placemark>
  <Placemark>
    <name>国平水暖塑料</name>
    <Point>
      <coordinates>108.6035860114399,34.103419828870436,0</coordinates>
    </Point>
  </Placemark>
  <Placemark>
    <name>易万家超市</name>
    <Point>
      <coordinates>108.62037891045259,34.11343549431484,0</coordinates>
    </Point>
  </Placemark>
  <Placemark>
    <name>天天向上(箭门西路)</name>
    <Point>
      <coordinates>108.60008616037196,34.106904853261874,0</coordinates>
    </Point>
  </Placemark>
  <Placemark>
    <name>友谊百货</name>
    <Point>
      <coordinates>108.60349712526175,34.11052788239848,0</coordinates>
    </Point>
  </Placemark>
  <Placemark>
    <name>宝源斋</name>
    <Point>
      <coordinates>108.61590832939713,34.1090542980526,0</coordinates>
    </Point>
  </Placemark>
  <Placemark>
    <name>鑫联化工原料部</name>
    <Point>
      <coordinates>108.6013605146954,34.106889157282815,0</coordinates>
    </Point>
  </Placemark>
  <Placemark>
    <name>DESIGNICE</name>
    <Point>
      <coordinates>108.62005370878465,34.10828190358073,0</coordinates>
    </Point>
  </Placemark>
  <Placemark>
    <name>智慧屋</name>
    <Point>
      <coordinates>108.60010213254245,34.10689791369513,0</coordinates>
    </Point>
  </Placemark>
  <Placemark>
    <name>梦姿蓝</name>
    <Point>
      <coordinates>108.60462611831642,34.107750435981906,0</coordinates>
    </Point>
  </Placemark>
  <Placemark>
    <name>童步</name>
    <Point>
      <coordinates>108.6061648413221,34.10715470678098,0</coordinates>
    </Point>
  </Placemark>
  <Placemark>
    <name>都市恋人坊</name>
    <Point>
      <coordinates>108.60346671539541,34.10787648530366,0</coordinates>
    </Point>
  </Placemark>
  <Placemark>
    <name>六福茶行</name>
    <Point>
      <coordinates>108.59552022864867,34.10703001047728,0</coordinates>
    </Point>
  </Placemark>
  <Placemark>
    <name>爱好文具(户县配送中心)</name>
    <Point>
      <coordinates>108.6046620051434,34.10479171741588,0</coordinates>
    </Point>
  </Placemark>
  <Placemark>
    <name>辣中辣调料店</name>
    <Point>
      <coordinates>108.60168070988523,34.10707563584784,0</coordinates>
    </Point>
  </Placemark>
  <Placemark>
    <name>聚宝堂名人书画社</name>
    <Point>
      <coordinates>108.60132835104397,34.107717733783794,0</coordinates>
    </Point>
  </Placemark>
  <Placemark>
    <name>致美服饰</name>
    <Point>
      <coordinates>108.60342660146512,34.10887891633332,0</coordinates>
    </Point>
  </Placemark>
  <Placemark>
    <name>佳兴</name>
    <Point>
      <coordinates>108.6061648413221,34.10715470678098,0</coordinates>
    </Point>
  </Placemark>
  <Placemark>
    <name>艾伦斯采暖体验馆(户县店)</name>
    <Point>
      <coordinates>108.61949789731287,34.102196565120046,0</coordinates>
    </Point>
  </Placemark>
  <Placemark>
    <name>东方日化商店</name>
    <Point>
      <coordinates>108.60452041514868,34.10492964156953,0</coordinates>
    </Point>
  </Placemark>
  <Placemark>
    <name>全场2元起价</name>
    <Point>
      <coordinates>108.60395110264362,34.105248558335255,0</coordinates>
    </Point>
  </Placemark>
  <Placemark>
    <name>朝暮之恋</name>
    <Point>
      <coordinates>108.61912792709879,34.10823076649888,0</coordinates>
    </Point>
  </Placemark>
  <Placemark>
    <name>梅子外贸</name>
    <Point>
      <coordinates>108.60623205888086,34.109366577916646,0</coordinates>
    </Point>
  </Placemark>
  <Placemark>
    <name>永乐五金电料经销部</name>
    <Point>
      <coordinates>108.61374098608466,34.10996452492749,0</coordinates>
    </Point>
  </Placemark>
  <Placemark>
    <name>永强不锈钢装饰部</name>
    <Point>
      <coordinates>108.59936271428927,34.103599637972316,0</coordinates>
    </Point>
  </Placemark>
  <Placemark>
    <name>滇秦生态农业特产店</name>
    <Point>
      <coordinates>108.60141854119925,34.125621772267905,0</coordinates>
    </Point>
  </Placemark>
  <Placemark>
    <name>户县工贸摊点</name>
    <Point>
      <coordinates>108.59898416634819,34.106459510264315,0</coordinates>
    </Point>
  </Placemark>
  <Placemark>
    <name>滚雪球</name>
    <Point>
      <coordinates>108.60483741616135,34.107736993320884,0</coordinates>
    </Point>
  </Placemark>
  <Placemark>
    <name>恒升五金电料</name>
    <Point>
      <coordinates>108.61478792617964,34.10985454463695,0</coordinates>
    </Point>
  </Placemark>
  <Placemark>
    <name>卓宝防水</name>
    <Point>
      <coordinates>108.60313623519149,34.11555341194114,0</coordinates>
    </Point>
  </Placemark>
  <Placemark>
    <name>微型超市</name>
    <Point>
      <coordinates>108.60398528735399,34.12117897059299,0</coordinates>
    </Point>
  </Placemark>
  <Placemark>
    <name>2688商城</name>
    <Point>
      <coordinates>108.58108137253305,34.10969609702657,0</coordinates>
    </Point>
  </Placemark>
  <Placemark>
    <name>宝石缘</name>
    <Point>
      <coordinates>108.60136764526618,34.111310854134835,0</coordinates>
    </Point>
  </Placemark>
  <Placemark>
    <name>雪明鲜菜调料</name>
    <Point>
      <coordinates>108.60891463930916,34.114572481242476,0</coordinates>
    </Point>
  </Placemark>
  <Placemark>
    <name>九阳冰蓝.净水体验馆</name>
    <Point>
      <coordinates>108.6020021503095,34.125640667304516,0</coordinates>
    </Point>
  </Placemark>
  <Placemark>
    <name>大型梳棉机电脑缝被</name>
    <Point>
      <coordinates>108.59942335317025,34.10417260463614,0</coordinates>
    </Point>
  </Placemark>
  <Placemark>
    <name>微娜日化</name>
    <Point>
      <coordinates>108.60357010984866,34.105646901116046,0</coordinates>
    </Point>
  </Placemark>
  <Placemark>
    <name>天福茶庄</name>
    <Point>
      <coordinates>108.59911170851217,34.107315574440975,0</coordinates>
    </Point>
  </Placemark>
  <Placemark>
    <name>卡拉力授权店1240</name>
    <Point>
      <coordinates>108.61810945960598,34.117128240544524,0</coordinates>
    </Point>
  </Placemark>
  <Placemark>
    <name>艺奇门业</name>
    <Point>
      <coordinates>108.61021490896988,34.133098608349314,0</coordinates>
    </Point>
  </Placemark>
  <Placemark>
    <name>户县朝阳食用菌种植木业合作社</name>
    <Point>
      <coordinates>108.61726789955163,34.1172368187928,0</coordinates>
    </Point>
  </Placemark>
  <Placemark>
    <name>专业订做羽绒羊绒服</name>
    <Point>
      <coordinates>108.60136051438899,34.10689015694534,0</coordinates>
    </Point>
  </Placemark>
  <Placemark>
    <name>家实惠自选店</name>
    <Point>
      <coordinates>108.5900940612441,34.10266625758076,0</coordinates>
    </Point>
  </Placemark>
  <Placemark>
    <name>金龙鱼餐饮粮油直营店</name>
    <Point>
      <coordinates>108.6013684015524,34.107207088124724,0</coordinates>
    </Point>
  </Placemark>
  <Placemark>
    <name>批发香蜡表</name>
    <Point>
      <coordinates>108.59828237910608,34.10953183407637,0</coordinates>
    </Point>
  </Placemark>
  <Placemark>
    <name>泊美</name>
    <Point>
      <coordinates>108.60644431238946,34.10903249184776,0</coordinates>
    </Point>
  </Placemark>
  <Placemark>
    <name>贵族公主</name>
    <Point>
      <coordinates>108.61912582803706,34.108703586874526,0</coordinates>
    </Point>
  </Placemark>
  <Placemark>
    <name>杭州茶行</name>
    <Point>
      <coordinates>108.60348635322637,34.10924618536864,0</coordinates>
    </Point>
  </Placemark>
  <Placemark>
    <name>明星家具厂</name>
    <Point>
      <coordinates>108.59912781457128,34.10420272052958,0</coordinates>
    </Point>
  </Placemark>
  <Placemark>
    <name>法恩莎卫浴</name>
    <Point>
      <coordinates>108.60387675320172,34.11876157679884,0</coordinates>
    </Point>
  </Placemark>
  <Placemark>
    <name>张师电料</name>
    <Point>
      <coordinates>108.6041192849647,34.11558279242026,0</coordinates>
    </Point>
  </Placemark>
  <Placemark>
    <name>高科塑钢型材</name>
    <Point>
      <coordinates>108.60387575808436,34.11876756920562,0</coordinates>
    </Point>
  </Placemark>
  <Placemark>
    <name>户龙大肉店</name>
    <Point>
      <coordinates>108.6016927330944,34.10690375284623,0</coordinates>
    </Point>
  </Placemark>
  <Placemark>
    <name>九天杂粮超市</name>
    <Point>
      <coordinates>108.60847262153516,34.11111982839034,0</coordinates>
    </Point>
  </Placemark>
  <Placemark>
    <name>隆力奇精致生活体验馆</name>
    <Point>
      <coordinates>108.61955807562288,34.10816033851633,0</coordinates>
    </Point>
  </Placemark>
  <Placemark>
    <name>清平绣庄</name>
    <Point>
      <coordinates>108.59627482991876,34.10714304261551,0</coordinates>
    </Point>
  </Placemark>
  <Placemark>
    <name>李师五金电动工具</name>
    <Point>
      <coordinates>108.5914773637651,34.10955504012688,0</coordinates>
    </Point>
  </Placemark>
  <Placemark>
    <name>韩国K丽诗</name>
    <Point>
      <coordinates>108.62005370878465,34.10828190358073,0</coordinates>
    </Point>
  </Placemark>
  <Placemark>
    <name>新鸽电动</name>
    <Point>
      <coordinates>108.60601090662091,34.127617712118635,0</coordinates>
    </Point>
  </Placemark>
  <Placemark>
    <name>燕兴土产日杂门市部</name>
    <Point>
      <coordinates>108.60830229348514,34.113161606903525,0</coordinates>
    </Point>
  </Placemark>
  <Placemark>
    <name>玛琪雅朵</name>
    <Point>
      <coordinates>108.60577668647471,34.10975268411487,0</coordinates>
    </Point>
  </Placemark>
  <Placemark>
    <name>恒盛土产日杂</name>
    <Point>
      <coordinates>108.59936537886023,34.10705840128123,0</coordinates>
    </Point>
  </Placemark>
  <Placemark>
    <name>秦岭烟酒茶商行</name>
    <Point>
      <coordinates>108.61433472883411,34.116838757975486,0</coordinates>
    </Point>
  </Placemark>
  <Placemark>
    <name>伟志</name>
    <Point>
      <coordinates>108.60386840990789,34.10825798657239,0</coordinates>
    </Point>
  </Placemark>
  <Placemark>
    <name>新美服饰</name>
    <Point>
      <coordinates>108.61943572681976,34.10886725023109,0</coordinates>
    </Point>
  </Placemark>
  <Placemark>
    <name>画乡鲜面条</name>
    <Point>
      <coordinates>108.61667237921509,34.11031480354539,0</coordinates>
    </Point>
  </Placemark>
  <Placemark>
    <name>萨米特陶瓷</name>
    <Point>
      <coordinates>108.60430283563667,34.120035310139954,0</coordinates>
    </Point>
  </Placemark>
  <Placemark>
    <name>永光灯具</name>
    <Point>
      <coordinates>108.60349712526175,34.11052788239848,0</coordinates>
    </Point>
  </Placemark>
  <Placemark>
    <name>玉友缘</name>
    <Point>
      <coordinates>108.59880983734469,34.108608348543484,0</coordinates>
    </Point>
  </Placemark>
  <Placemark>
    <name>佳诚烟酒</name>
    <Point>
      <coordinates>108.6016178750428,34.10225410533936,0</coordinates>
    </Point>
  </Placemark>
  <Placemark>
    <name>佳豪水暖</name>
    <Point>
      <coordinates>108.60382182596084,34.118435262199306,0</coordinates>
    </Point>
  </Placemark>
  <Placemark>
    <name>云顶装饰</name>
    <Point>
      <coordinates>108.60440812653066,34.12161285179516,0</coordinates>
    </Point>
  </Placemark>
  <Placemark>
    <name>福江木业经营部</name>
    <Point>
      <coordinates>108.60425181313113,34.11520378890578,0</coordinates>
    </Point>
  </Placemark>
  <Placemark>
    <name>春福建茶行</name>
    <Point>
      <coordinates>108.60410832692133,34.11563370677196,0</coordinates>
    </Point>
  </Placemark>
  <Placemark>
    <name>美丽岛地板</name>
    <Point>
      <coordinates>108.60286207403526,34.115998677500805,0</coordinates>
    </Point>
  </Placemark>
  <Placemark>
    <name>意源日用百货便利店</name>
    <Point>
      <coordinates>108.61572757388154,34.10528300769897,0</coordinates>
    </Point>
  </Placemark>
  <Placemark>
    <name>日美商行</name>
    <Point>
      <coordinates>108.60426640927548,34.10451699217905,0</coordinates>
    </Point>
  </Placemark>
  <Placemark>
    <name>聚德·藏</name>
    <Point>
      <coordinates>108.60124686210173,34.112798912143845,0</coordinates>
    </Point>
  </Placemark>
  <Placemark>
    <name>玄武粮油干菜调料综合店</name>
    <Point>
      <coordinates>108.60342335189348,34.11516527893039,0</coordinates>
    </Point>
  </Placemark>
  <Placemark>
    <name>科派木门</name>
    <Point>
      <coordinates>108.60477406121157,34.1148516142121,0</coordinates>
    </Point>
  </Placemark>
  <Placemark>
    <name>春光油漆防水</name>
    <Point>
      <coordinates>108.60425859597645,34.11890116636939,0</coordinates>
    </Point>
  </Placemark>
  <Placemark>
    <name>瑞福商店</name>
    <Point>
      <coordinates>108.62012299281022,34.10354462725293,0</coordinates>
    </Point>
  </Placemark>
  <Placemark>
    <name>乖乖狗儿童</name>
    <Point>
      <coordinates>108.60623205888086,34.109366577916646,0</coordinates>
    </Point>
  </Placemark>
  <Placemark>
    <name>贺师汽车电器空调</name>
    <Point>
      <coordinates>108.6154899392136,34.11719046827462,0</coordinates>
    </Point>
  </Placemark>
  <Placemark>
    <name>攀越商店</name>
    <Point>
      <coordinates>108.60567884955557,34.12720101776694,0</coordinates>
    </Point>
  </Placemark>
  <Placemark>
    <name>源永亮不锈钢管业</name>
    <Point>
      <coordinates>108.59489253058103,34.11318055430926,0</coordinates>
    </Point>
  </Placemark>
  <Placemark>
    <name>三棵树漆</name>
    <Point>
      <coordinates>108.6117897727378,34.1094240843778,0</coordinates>
    </Point>
  </Placemark>
  <Placemark>
    <name>袅潮派生活馆</name>
    <Point>
      <coordinates>108.60308743097205,34.10969256768664,0</coordinates>
    </Point>
  </Placemark>
  <Placemark>
    <name>永固烤漆门</name>
    <Point>
      <coordinates>108.58883266143728,34.10935953571178,0</coordinates>
    </Point>
  </Placemark>
  <Placemark>
    <name>唐邦全自动麻将机超市</name>
    <Point>
      <coordinates>108.60661509029222,34.10724454079076,0</coordinates>
    </Point>
  </Placemark>
  <Placemark>
    <name>米苏便利店</name>
    <Point>
      <coordinates>108.60833190672,34.102561293833595,0</coordinates>
    </Point>
  </Placemark>
  <Placemark>
    <name>陕北大枣</name>
    <Point>
      <coordinates>108.60746654201489,34.107701094325726,0</coordinates>
    </Point>
  </Placemark>
  <Placemark>
    <name>湘大订做皮鞋</name>
    <Point>
      <coordinates>108.60082369884736,34.10687776582848,0</coordinates>
    </Point>
  </Placemark>
  <Placemark>
    <name>运动e族</name>
    <Point>
      <coordinates>108.61912892049733,34.10823078156462,0</coordinates>
    </Point>
  </Placemark>
  <Placemark>
    <name>事成商店</name>
    <Point>
      <coordinates>108.60803345904215,34.113162964654116,0</coordinates>
    </Point>
  </Placemark>
  <Placemark>
    <name>新百伦领跑</name>
    <Point>
      <coordinates>108.60345157935794,34.10863614958009,0</coordinates>
    </Point>
  </Placemark>
  <Placemark>
    <name>茂源日杂商店</name>
    <Point>
      <coordinates>108.60823008074698,34.10859914721941,0</coordinates>
    </Point>
  </Placemark>
  <Placemark>
    <name>百丰便利店</name>
    <Point>
      <coordinates>108.59515648399477,34.112205623283806,0</coordinates>
    </Point>
  </Placemark>
  <Placemark>
    <name>正福门业</name>
    <Point>
      <coordinates>108.60424684164248,34.119541988293875,0</coordinates>
    </Point>
  </Placemark>
  <Placemark>
    <name>花花饰界家居饰品生活馆</name>
    <Point>
      <coordinates>108.6064478573072,34.1068482206054,0</coordinates>
    </Point>
  </Placemark>
  <Placemark>
    <name>宜品绿色生活实体店</name>
    <Point>
      <coordinates>108.62081017718234,34.10624028827312,0</coordinates>
    </Point>
  </Placemark>
  <Placemark>
    <name>盛源商店</name>
    <Point>
      <coordinates>108.61386087061399,34.131085086997395,0</coordinates>
    </Point>
  </Placemark>
  <Placemark>
    <name>酷宝贝童装</name>
    <Point>
      <coordinates>108.60685963578648,34.10931304986532,0</coordinates>
    </Point>
  </Placemark>
  <Placemark>
    <name>玉萍保暖内衣订做</name>
    <Point>
      <coordinates>108.60472992955685,34.107190377809424,0</coordinates>
    </Point>
  </Placemark>
  <Placemark>
    <name>大山水暖店</name>
    <Point>
      <coordinates>108.61711864067692,34.109838395464884,0</coordinates>
    </Point>
  </Placemark>
  <Placemark>
    <name>鸿图</name>
    <Point>
      <coordinates>108.59837884866947,34.10223460721653,0</coordinates>
    </Point>
  </Placemark>
  <Placemark>
    <name>磁化水太阳能</name>
    <Point>
      <coordinates>108.5796633418102,34.10965655188472,0</coordinates>
    </Point>
  </Placemark>
  <Placemark>
    <name>西苑便利店</name>
    <Point>
      <coordinates>108.59516256974833,34.11086197573211,0</coordinates>
    </Point>
  </Placemark>
  <Placemark>
    <name>清雅食品</name>
    <Point>
      <coordinates>108.60623415929035,34.10881376279564,0</coordinates>
    </Point>
  </Placemark>
  <Placemark>
    <name>长生诀绿色美购</name>
    <Point>
      <coordinates>108.59890225213913,34.11230354901657,0</coordinates>
    </Point>
  </Placemark>
  <Placemark>
    <name>久龙系列产品户县专营店</name>
    <Point>
      <coordinates>108.6026249957061,34.11737104742897,0</coordinates>
    </Point>
  </Placemark>
  <Placemark>
    <name>南关花店</name>
    <Point>
      <coordinates>108.6013184114934,34.107576733323796,0</coordinates>
    </Point>
  </Placemark>
  <Placemark>
    <name>重庆万洲鲜面店</name>
    <Point>
      <coordinates>108.6089296093711,34.11495655282595,0</coordinates>
    </Point>
  </Placemark>
  <Placemark>
    <name>红日综合商店</name>
    <Point>
      <coordinates>108.59966312551336,34.100123007783395,0</coordinates>
    </Point>
  </Placemark>
  <Placemark>
    <name>辉煌</name>
    <Point>
      <coordinates>108.61456430235447,34.109508615488714,0</coordinates>
    </Point>
  </Placemark>
  <Placemark>
    <name>亨宇摩配</name>
    <Point>
      <coordinates>108.60223388432982,34.09821200867158,0</coordinates>
    </Point>
  </Placemark>
  <Placemark>
    <name>户县温馨综合商店</name>
    <Point>
      <coordinates>108.59880284532916,34.10861832754948,0</coordinates>
    </Point>
  </Placemark>
  <Placemark>
    <name>家豪布艺</name>
    <Point>
      <coordinates>108.60746654201489,34.107701094325726,0</coordinates>
    </Point>
  </Placemark>
  <Placemark>
    <name>陈记辣面店</name>
    <Point>
      <coordinates>108.60550826573424,34.10710235537257,0</coordinates>
    </Point>
  </Placemark>
  <Placemark>
    <name>便民商店</name>
    <Point>
      <coordinates>108.60377581303425,34.11787204998847,0</coordinates>
    </Point>
  </Placemark>
  <Placemark>
    <name>亨嘉电脑</name>
    <Point>
      <coordinates>108.59972747063956,34.102833096799344,0</coordinates>
    </Point>
  </Placemark>
  <Placemark>
    <name>沏饮堂茗茶</name>
    <Point>
      <coordinates>108.61902841899935,34.10895503322599,0</coordinates>
    </Point>
  </Placemark>
  <Placemark>
    <name>IDO婚车地带</name>
    <Point>
      <coordinates>108.5986834335171,34.10223631499657,0</coordinates>
    </Point>
  </Placemark>
  <Placemark>
    <name>神力果业</name>
    <Point>
      <coordinates>108.6103201492929,34.10996879649725,0</coordinates>
    </Point>
  </Placemark>
  <Placemark>
    <name>大安大轩三轮车</name>
    <Point>
      <coordinates>108.60355115539146,34.101446393600796,0</coordinates>
    </Point>
  </Placemark>
  <Placemark>
    <name>中兴烟酒茶商店</name>
    <Point>
      <coordinates>108.60696141534005,34.11728106300263,0</coordinates>
    </Point>
  </Placemark>
  <Placemark>
    <name>阳阳百货商店</name>
    <Point>
      <coordinates>108.61173574443475,34.113349381480994,0</coordinates>
    </Point>
  </Placemark>
  <Placemark>
    <name>伊雪儿珠宝</name>
    <Point>
      <coordinates>108.61912792709879,34.10823076649888,0</coordinates>
    </Point>
  </Placemark>
  <Placemark>
    <name>荣尚服饰广场</name>
    <Point>
      <coordinates>108.60348614530866,34.110634782355675,0</coordinates>
    </Point>
  </Placemark>
  <Placemark>
    <name>众品冷鲜肉</name>
    <Point>
      <coordinates>108.6208367788331,34.11325664127014,0</coordinates>
    </Point>
  </Placemark>
  <Placemark>
    <name>便民型钢部</name>
    <Point>
      <coordinates>108.60389778001138,34.11905767202374,0</coordinates>
    </Point>
  </Placemark>
  <Placemark>
    <name>民盛木门</name>
    <Point>
      <coordinates>108.60463659301844,34.11545548019657,0</coordinates>
    </Point>
  </Placemark>
  <Placemark>
    <name>飞利浦照明(娄敬路)</name>
    <Point>
      <coordinates>108.60463552253196,34.114844600377225,0</coordinates>
    </Point>
  </Placemark>
  <Placemark>
    <name>快时尚鞋城</name>
    <Point>
      <coordinates>108.60506231997597,34.109185231886904,0</coordinates>
    </Point>
  </Placemark>
  <Placemark>
    <name>卡迪豪斯家纺</name>
    <Point>
      <coordinates>108.606171585414,34.10799449047736,0</coordinates>
    </Point>
  </Placemark>
  <Placemark>
    <name>玉贤贸易商行</name>
    <Point>
      <coordinates>108.60688820846295,34.11351818328446,0</coordinates>
    </Point>
  </Placemark>
  <Placemark>
    <name>东方宝宝孕婴店</name>
    <Point>
      <coordinates>108.60516826739297,34.104839491000476,0</coordinates>
    </Point>
  </Placemark>
  <Placemark>
    <name>美艺居门窗</name>
    <Point>
      <coordinates>108.60445169498297,34.12312499914923,0</coordinates>
    </Point>
  </Placemark>
  <Placemark>
    <name>终南液专卖</name>
    <Point>
      <coordinates>108.60307028823563,34.125616680812065,0</coordinates>
    </Point>
  </Placemark>
  <Placemark>
    <name>恒兴门窗加工部</name>
    <Point>
      <coordinates>108.59936983078923,34.11626899593767,0</coordinates>
    </Point>
  </Placemark>
  <Placemark>
    <name>晓龙水暖店</name>
    <Point>
      <coordinates>108.61128748403554,34.11689828657951,0</coordinates>
    </Point>
  </Placemark>
  <Placemark>
    <name>迪丝延·凯</name>
    <Point>
      <coordinates>108.6073018438921,34.109367046946396,0</coordinates>
    </Point>
  </Placemark>
  <Placemark>
    <name>新都购物广场</name>
    <Point>
      <coordinates>108.6501262027188,34.203181464004956,0</coordinates>
    </Point>
  </Placemark>
  <Placemark>
    <name>户县涝店现代农贸市场</name>
    <Point>
      <coordinates>108.5522536650823,34.17411140747844,0</coordinates>
    </Point>
  </Placemark>
  <Placemark>
    <name>东升蔬菜市场</name>
    <Point>
      <coordinates>108.64860911906077,34.20356588502949,0</coordinates>
    </Point>
  </Placemark>
  <Placemark>
    <name>东升商场</name>
    <Point>
      <coordinates>108.64483791815496,34.202962565566246,0</coordinates>
    </Point>
  </Placemark>
  <Placemark>
    <name>户县大王双虎家私</name>
    <Point>
      <coordinates>108.64009143994254,34.19988749963304,0</coordinates>
    </Point>
  </Placemark>
  <Placemark>
    <name>人人家超市(涝店分店)</name>
    <Point>
      <coordinates>108.55470753314712,34.17540557469537,0</coordinates>
    </Point>
  </Placemark>
  <Placemark>
    <name>华秦饲料</name>
    <Point>
      <coordinates>108.65057348136031,34.20314967066825,0</coordinates>
    </Point>
  </Placemark>
  <Placemark>
    <name>真玉眼镜行</name>
    <Point>
      <coordinates>108.64333900507003,34.20297575225749,0</coordinates>
    </Point>
  </Placemark>
  <Placemark>
    <name>天天乐购超市</name>
    <Point>
      <coordinates>108.552904303778,34.175463459313804,0</coordinates>
    </Point>
  </Placemark>
  <Placemark>
    <name>黄金书店</name>
    <Point>
      <coordinates>108.64249527424246,34.203434066609155,0</coordinates>
    </Point>
  </Placemark>
  <Placemark>
    <name>万家和购物广场(大王店)</name>
    <Point>
      <coordinates>108.64796035620058,34.203237209899434,0</coordinates>
    </Point>
  </Placemark>
  <Placemark>
    <name>华硕电脑(大王旗舰店)</name>
    <Point>
      <coordinates>108.64117442666046,34.20212929986849,0</coordinates>
    </Point>
  </Placemark>
  <Placemark>
    <name>渭丰佳鑫超市</name>
    <Point>
      <coordinates>108.59871277030307,34.20147015320933,0</coordinates>
    </Point>
  </Placemark>
  <Placemark>
    <name>北方灯具城(欧普旗舰店)</name>
    <Point>
      <coordinates>108.64888793586829,34.20354402893699,0</coordinates>
    </Point>
  </Placemark>
  <Placemark>
    <name>户县大王镇宇航润滑油经销部</name>
    <Point>
      <coordinates>108.65331300059513,34.20117232203252,0</coordinates>
    </Point>
  </Placemark>
  <Placemark>
    <name>李乃民五金店</name>
    <Point>
      <coordinates>108.65306960021509,34.16998008748031,0</coordinates>
    </Point>
  </Placemark>
  <Placemark>
    <name>史老大醋坊</name>
    <Point>
      <coordinates>108.65385541122286,34.21061209641532,0</coordinates>
    </Point>
  </Placemark>
  <Placemark>
    <name>金彭电动三轮车</name>
    <Point>
      <coordinates>108.6521151090541,34.202887564216454,0</coordinates>
    </Point>
  </Placemark>
  <Placemark>
    <name>大王钢材配售中心</name>
    <Point>
      <coordinates>108.63955116192317,34.19955282033081,0</coordinates>
    </Point>
  </Placemark>
  <Placemark>
    <name>蓬勃五金工具店</name>
    <Point>
      <coordinates>108.64297698564826,34.20301861765651,0</coordinates>
    </Point>
  </Placemark>
  <Placemark>
    <name>完达山世纪贝贝孕婴店</name>
    <Point>
      <coordinates>108.55421570087852,34.17430412814499,0</coordinates>
    </Point>
  </Placemark>
  <Placemark>
    <name>大家乐购物中心(大王店)</name>
    <Point>
      <coordinates>108.6425666556885,34.20270418053452,0</coordinates>
    </Point>
  </Placemark>
  <Placemark>
    <name>涝店镇蔬菜瓜果市场</name>
    <Point>
      <coordinates>108.55227655904145,34.17519275702166,0</coordinates>
    </Point>
  </Placemark>
  <Placemark>
    <name>大家乐购物超市</name>
    <Point>
      <coordinates>108.62122091766842,34.16939780531629,0</coordinates>
    </Point>
  </Placemark>
  <Placemark>
    <name>华美陶瓷</name>
    <Point>
      <coordinates>108.64883870730779,34.20302616940254,0</coordinates>
    </Point>
  </Placemark>
  <Placemark>
    <name>东升批发部</name>
    <Point>
      <coordinates>108.64714614776902,34.20320909742791,0</coordinates>
    </Point>
  </Placemark>
  <Placemark>
    <name>燕妮超市</name>
    <Point>
      <coordinates>108.54123658220632,34.171436142826145,0</coordinates>
    </Point>
  </Placemark>
  <Placemark>
    <name>农家乐兽药服务部</name>
    <Point>
      <coordinates>108.6482596903711,34.203536393654645,0</coordinates>
    </Point>
  </Placemark>
  <Placemark>
    <name>铃木摩托</name>
    <Point>
      <coordinates>108.64957601940864,34.20356351577069,0</coordinates>
    </Point>
  </Placemark>
  <Placemark>
    <name>鼎鑫烟酒商行</name>
    <Point>
      <coordinates>108.64796035620058,34.203237209899434,0</coordinates>
    </Point>
  </Placemark>
  <Placemark>
    <name>杭州叉车</name>
    <Point>
      <coordinates>108.63972434213653,34.19648565934152,0</coordinates>
    </Point>
  </Placemark>
  <Placemark>
    <name>可爱可亲母婴用品生活馆</name>
    <Point>
      <coordinates>108.64041890776063,34.201291083475446,0</coordinates>
    </Point>
  </Placemark>
  <Placemark>
    <name>永家福百货超市</name>
    <Point>
      <coordinates>108.65364876146603,34.16943622034451,0</coordinates>
    </Point>
  </Placemark>
  <Placemark>
    <name>大学生眼镜(涝店镇中心医院北)</name>
    <Point>
      <coordinates>108.55464640191434,34.17433673868608,0</coordinates>
    </Point>
  </Placemark>
  <Placemark>
    <name>涮福牛羊肉冻货超市</name>
    <Point>
      <coordinates>108.64860682710734,34.20384569453336,0</coordinates>
    </Point>
  </Placemark>
  <Placemark>
    <name>芳芳五金水暖综合商店</name>
    <Point>
      <coordinates>108.64195399703638,34.20288740206451,0</coordinates>
    </Point>
  </Placemark>
  <Placemark>
    <name>新世纪门窗城</name>
    <Point>
      <coordinates>108.65317325178579,34.203197995653326,0</coordinates>
    </Point>
  </Placemark>
  <Placemark>
    <name>美的(大王镇专卖店)</name>
    <Point>
      <coordinates>108.64467443897465,34.20327616084787,0</coordinates>
    </Point>
  </Placemark>
  <Placemark>
    <name>爱尚文具店</name>
    <Point>
      <coordinates>108.64238807440476,34.2041896056471,0</coordinates>
    </Point>
  </Placemark>
  <Placemark>
    <name>新世纪鞋服广场</name>
    <Point>
      <coordinates>108.64702477351807,34.20316146464843,0</coordinates>
    </Point>
  </Placemark>
  <Placemark>
    <name>全网通互联网手机大卖场</name>
    <Point>
      <coordinates>108.64031924620764,34.200619460994304,0</coordinates>
    </Point>
  </Placemark>
  <Placemark>
    <name>宏达五金批零部</name>
    <Point>
      <coordinates>108.64297698564826,34.20301861765651,0</coordinates>
    </Point>
  </Placemark>
  <Placemark>
    <name>晋成陶瓷</name>
    <Point>
      <coordinates>108.64805770713664,34.20343154058683,0</coordinates>
    </Point>
  </Placemark>
  <Placemark>
    <name>户县凤源椿烧酒坊</name>
    <Point>
      <coordinates>108.55272760918541,34.201687828927476,0</coordinates>
    </Point>
  </Placemark>
  <Placemark>
    <name>文俊超市</name>
    <Point>
      <coordinates>108.6210795934759,34.21531811814981,0</coordinates>
    </Point>
  </Placemark>
  <Placemark>
    <name>户县小军农资超市</name>
    <Point>
      <coordinates>108.63432177019907,34.22467840986075,0</coordinates>
    </Point>
  </Placemark>
  <Placemark>
    <name>兄弟水暖灯城</name>
    <Point>
      <coordinates>108.6485632063559,34.201822819703544,0</coordinates>
    </Point>
  </Placemark>
  <Placemark>
    <name>东升太平洋服饰购物中心</name>
    <Point>
      <coordinates>108.64468869239337,34.20297246195782,0</coordinates>
    </Point>
  </Placemark>
  <Placemark>
    <name>百惠连锁超市(户县中医医院大王骨伤分院东)</name>
    <Point>
      <coordinates>108.6534237824127,34.20197679268177,0</coordinates>
    </Point>
  </Placemark>
  <Placemark>
    <name>永利安陶瓷</name>
    <Point>
      <coordinates>108.6485632063559,34.201822819703544,0</coordinates>
    </Point>
  </Placemark>
  <Placemark>
    <name>科龙空调</name>
    <Point>
      <coordinates>108.65077374377486,34.203120163407355,0</coordinates>
    </Point>
  </Placemark>
  <Placemark>
    <name>户县大王创维专卖店</name>
    <Point>
      <coordinates>108.64284316942154,34.20262369803812,0</coordinates>
    </Point>
  </Placemark>
  <Placemark>
    <name>宝贝屋母婴生活馆</name>
    <Point>
      <coordinates>108.64796035620058,34.203237209899434,0</coordinates>
    </Point>
  </Placemark>
  <Placemark>
    <name>福田五星</name>
    <Point>
      <coordinates>108.64944594683844,34.20320330816998,0</coordinates>
    </Point>
  </Placemark>
  <Placemark>
    <name>花花世界(大王西卫生所南)</name>
    <Point>
      <coordinates>108.64084780288621,34.20174923890109,0</coordinates>
    </Point>
  </Placemark>
  <Placemark>
    <name>红孩儿孕婴童用品店大王店</name>
    <Point>
      <coordinates>108.64551695448532,34.20338206547633,0</coordinates>
    </Point>
  </Placemark>
  <Placemark>
    <name>百悦百货便利店(大王西分店)</name>
    <Point>
      <coordinates>108.63700656453811,34.1958180172032,0</coordinates>
    </Point>
  </Placemark>
  <Placemark>
    <name>宝贝屋母婴生活馆</name>
    <Point>
      <coordinates>108.55463821485236,34.174935624177635,0</coordinates>
    </Point>
  </Placemark>
  <Placemark>
    <name>大王镇玻璃店</name>
    <Point>
      <coordinates>108.65265324382723,34.202921990374975,0</coordinates>
    </Point>
  </Placemark>
  <Placemark>
    <name>定六百惠超市</name>
    <Point>
      <coordinates>108.61840718348408,34.215794914644185,0</coordinates>
    </Point>
  </Placemark>
  <Placemark>
    <name>国维淀粉总经销</name>
    <Point>
      <coordinates>108.64010329417826,34.20087899510852,0</coordinates>
    </Point>
  </Placemark>
  <Placemark>
    <name>户县渭丰华凌五金水暖店</name>
    <Point>
      <coordinates>108.57059844856236,34.204483679232354,0</coordinates>
    </Point>
  </Placemark>
  <Placemark>
    <name>宝宝乐母婴用品店</name>
    <Point>
      <coordinates>108.64507790549334,34.202741435671086,0</coordinates>
    </Point>
  </Placemark>
  <Placemark>
    <name>阳光照明</name>
    <Point>
      <coordinates>108.64102698342373,34.201509214147045,0</coordinates>
    </Point>
  </Placemark>
  <Placemark>
    <name>金源彩钢钢材</name>
    <Point>
      <coordinates>108.63830435161192,34.19649544847219,0</coordinates>
    </Point>
  </Placemark>
  <Placemark>
    <name>雅迪电动车</name>
    <Point>
      <coordinates>108.6488281920122,34.20354479201545,0</coordinates>
    </Point>
  </Placemark>
  <Placemark>
    <name>昆仑好客(户县路政稽查大队大王中队南)</name>
    <Point>
      <coordinates>108.63643812359797,34.19604864052171,0</coordinates>
    </Point>
  </Placemark>
  <Placemark>
    <name>户县车友轮胎大王直销处</name>
    <Point>
      <coordinates>108.64001988305033,34.1961240980997,0</coordinates>
    </Point>
  </Placemark>
  <Placemark>
    <name>海滨农资</name>
    <Point>
      <coordinates>108.64038854412978,34.20271985001235,0</coordinates>
    </Point>
  </Placemark>
  <Placemark>
    <name>世祥花炮批零部</name>
    <Point>
      <coordinates>108.65317325178579,34.203197995653326,0</coordinates>
    </Point>
  </Placemark>
  <Placemark>
    <name>双程建材</name>
    <Point>
      <coordinates>108.64804062755108,34.20357636753416,0</coordinates>
    </Point>
  </Placemark>
  <Placemark>
    <name>大棚膜农地膜</name>
    <Point>
      <coordinates>108.64901737085447,34.203554523761134,0</coordinates>
    </Point>
  </Placemark>
  <Placemark>
    <name>九洲通讯</name>
    <Point>
      <coordinates>108.65266987206013,34.20321480954852,0</coordinates>
    </Point>
  </Placemark>
  <Placemark>
    <name>罗丝尼陶瓷</name>
    <Point>
      <coordinates>108.64999533562549,34.20354284937803,0</coordinates>
    </Point>
  </Placemark>
  <Placemark>
    <name>家居世界</name>
    <Point>
      <coordinates>108.65169142621481,34.203049922171665,0</coordinates>
    </Point>
  </Placemark>
  <Placemark>
    <name>田丰种业</name>
    <Point>
      <coordinates>108.64080733156204,34.20240940189761,0</coordinates>
    </Point>
  </Placemark>
  <Placemark>
    <name>鼎峰铁艺</name>
    <Point>
      <coordinates>108.54851225867594,34.17304941437562,0</coordinates>
    </Point>
  </Placemark>
  <Placemark>
    <name>丰宇烤漆门</name>
    <Point>
      <coordinates>108.63820447769017,34.19793536274874,0</coordinates>
    </Point>
  </Placemark>
  <Placemark>
    <name>大王供销社</name>
    <Point>
      <coordinates>108.64277154050468,34.20265604389325,0</coordinates>
    </Point>
  </Placemark>
  <Placemark>
    <name>海信专卖店(大王西村卫生室东)</name>
    <Point>
      <coordinates>108.64378032319944,34.20320426001927,0</coordinates>
    </Point>
  </Placemark>
  <Placemark>
    <name>家居布艺沙发坐垫</name>
    <Point>
      <coordinates>108.64417022773779,34.20318437822431,0</coordinates>
    </Point>
  </Placemark>
  <Placemark>
    <name>紫阳茶庄</name>
    <Point>
      <coordinates>108.55289336138566,34.174975768740424,0</coordinates>
    </Point>
  </Placemark>
  <Placemark>
    <name>西秦综合商店</name>
    <Point>
      <coordinates>108.64195399703638,34.20288740206451,0</coordinates>
    </Point>
  </Placemark>
  <Placemark>
    <name>昆仑润滑油</name>
    <Point>
      <coordinates>108.63972014492995,34.200442117717046,0</coordinates>
    </Point>
  </Placemark>
  <Placemark>
    <name>芭芭多芦荟专卖</name>
    <Point>
      <coordinates>108.64714614776902,34.20320909742791,0</coordinates>
    </Point>
  </Placemark>
  <Placemark>
    <name>顺丰农业</name>
    <Point>
      <coordinates>108.65228003183238,34.20335842323856,0</coordinates>
    </Point>
  </Placemark>
  <Placemark>
    <name>大王供销社日杂批零超市</name>
    <Point>
      <coordinates>108.64302307530502,34.20269622562754,0</coordinates>
    </Point>
  </Placemark>
  <Placemark>
    <name>山东老字号干果</name>
    <Point>
      <coordinates>108.64796035620058,34.203237209899434,0</coordinates>
    </Point>
  </Placemark>
  <Placemark>
    <name>兴平油漆</name>
    <Point>
      <coordinates>108.6474324200307,34.20356738215582,0</coordinates>
    </Point>
  </Placemark>
  <Placemark>
    <name>涝店华扬太阳能专卖店</name>
    <Point>
      <coordinates>108.55380479882582,34.17568365748206,0</coordinates>
    </Point>
  </Placemark>
  <Placemark>
    <name>国珍专营</name>
    <Point>
      <coordinates>108.64666245002704,34.20321537610988,0</coordinates>
    </Point>
  </Placemark>
  <Placemark>
    <name>新世纪自选商店</name>
    <Point>
      <coordinates>108.65298885926259,34.169894089468656,0</coordinates>
    </Point>
  </Placemark>
  <Placemark>
    <name>美的</name>
    <Point>
      <coordinates>108.64921701776129,34.20309856412135,0</coordinates>
    </Point>
  </Placemark>
  <Placemark>
    <name>新科空调</name>
    <Point>
      <coordinates>108.65324736402555,34.202876211629764,0</coordinates>
    </Point>
  </Placemark>
  <Placemark>
    <name>丽婷超市</name>
    <Point>
      <coordinates>108.641225891904,34.20233867975072,0</coordinates>
    </Point>
  </Placemark>
  <Placemark>
    <name>嘉陵摩托(大王镇经销店)</name>
    <Point>
      <coordinates>108.65093388601392,34.20335136643326,0</coordinates>
    </Point>
  </Placemark>
  <Placemark>
    <name>大家乐超市(涝店店)</name>
    <Point>
      <coordinates>108.55409660098123,34.17574606431014,0</coordinates>
    </Point>
  </Placemark>
  <Placemark>
    <name>汇丰批零部</name>
    <Point>
      <coordinates>108.65100350492426,34.203461441351685,0</coordinates>
    </Point>
  </Placemark>
  <Placemark>
    <name>西安市户县涝店镇家美电器美的冰箱专卖店</name>
    <Point>
      <coordinates>108.5542759813651,34.1747462215924,0</coordinates>
    </Point>
  </Placemark>
  <Placemark>
    <name>轴承五金工具标准件</name>
    <Point>
      <coordinates>108.63837413610796,34.198165228641585,0</coordinates>
    </Point>
  </Placemark>
  <Placemark>
    <name>家福乐超市</name>
    <Point>
      <coordinates>108.58254785351839,34.20164079933018,0</coordinates>
    </Point>
  </Placemark>
  <Placemark>
    <name>精艺手机卖场</name>
    <Point>
      <coordinates>108.64417022773779,34.20318437822431,0</coordinates>
    </Point>
  </Placemark>
  <Placemark>
    <name>多乐士</name>
    <Point>
      <coordinates>108.6485632063559,34.201822819703544,0</coordinates>
    </Point>
  </Placemark>
  <Placemark>
    <name>龙台坊宰厂大肉</name>
    <Point>
      <coordinates>108.5997816878214,34.20182004757486,0</coordinates>
    </Point>
  </Placemark>
  <Placemark>
    <name>四季沐歌太阳能空气能净水机油烟机</name>
    <Point>
      <coordinates>108.63955116192317,34.19955282033081,0</coordinates>
    </Point>
  </Placemark>
  <Placemark>
    <name>昆仑好客</name>
    <Point>
      <coordinates>108.54092737557812,34.170561257617216,0</coordinates>
    </Point>
  </Placemark>
  <Placemark>
    <name>联想专卖店(涝店镇店)</name>
    <Point>
      <coordinates>108.55421874238425,34.17419512935034,0</coordinates>
    </Point>
  </Placemark>
  <Placemark>
    <name>旺顺·特康</name>
    <Point>
      <coordinates>108.65239066636873,34.20334752737023,0</coordinates>
    </Point>
  </Placemark>
  <Placemark>
    <name>仁和粮油店</name>
    <Point>
      <coordinates>108.55460254956284,34.169948688375484,0</coordinates>
    </Point>
  </Placemark>
  <Placemark>
    <name>富豪家具店</name>
    <Point>
      <coordinates>108.64921701776129,34.20309856412135,0</coordinates>
    </Point>
  </Placemark>
  <Placemark>
    <name>立升净水器</name>
    <Point>
      <coordinates>108.64117343369638,34.20212829058022,0</coordinates>
    </Point>
  </Placemark>
  <Placemark>
    <name>东城综合批发部</name>
    <Point>
      <coordinates>108.65109317102491,34.203459624659345,0</coordinates>
    </Point>
  </Placemark>
  <Placemark>
    <name>雪艳商店</name>
    <Point>
      <coordinates>108.60544390699143,34.21694279881202,0</coordinates>
    </Point>
  </Placemark>
  <Placemark>
    <name>百惠超市(涝店镇人民政府西)</name>
    <Point>
      <coordinates>108.55283959586963,34.170754791150955,0</coordinates>
    </Point>
  </Placemark>
  <Placemark>
    <name>山西麻花店</name>
    <Point>
      <coordinates>108.64839452849591,34.20313324960195,0</coordinates>
    </Point>
  </Placemark>
  <Placemark>
    <name>小成茶行</name>
    <Point>
      <coordinates>108.64839452849591,34.20313324960195,0</coordinates>
    </Point>
  </Placemark>
  <Placemark>
    <name>永宏家电格力空调经营部</name>
    <Point>
      <coordinates>108.55428594463137,34.17515594682193,0</coordinates>
    </Point>
  </Placemark>
  <Placemark>
    <name>鸿星尔克</name>
    <Point>
      <coordinates>108.64217504092248,34.20350707816287,0</coordinates>
    </Point>
  </Placemark>
  <Placemark>
    <name>欧普照明(大王镇店)</name>
    <Point>
      <coordinates>108.64102300305598,34.2015131713849,0</coordinates>
    </Point>
  </Placemark>
  <Placemark>
    <name>大运重卡</name>
    <Point>
      <coordinates>108.63864315210311,34.19651341534318,0</coordinates>
    </Point>
  </Placemark>
  <Placemark>
    <name>鑫泉建材厂产品</name>
    <Point>
      <coordinates>108.64031924620764,34.200619460994304,0</coordinates>
    </Point>
  </Placemark>
  <Placemark>
    <name>宇信门业</name>
    <Point>
      <coordinates>108.65324736402555,34.202876211629764,0</coordinates>
    </Point>
  </Placemark>
  <Placemark>
    <name>海尔(户县大王中心卫生院东北)</name>
    <Point>
      <coordinates>108.64571591501407,34.20341037494184,0</coordinates>
    </Point>
  </Placemark>
  <Placemark>
    <name>花雨名妆</name>
    <Point>
      <coordinates>108.6465596363399,34.20350358762177,0</coordinates>
    </Point>
  </Placemark>
  <Placemark>
    <name>宏发建材店</name>
    <Point>
      <coordinates>108.649018366607,34.20355452756131,0</coordinates>
    </Point>
  </Placemark>
  <Placemark>
    <name>沁园大王专卖店</name>
    <Point>
      <coordinates>108.64839452849591,34.20313324960195,0</coordinates>
    </Point>
  </Placemark>
  <Placemark>
    <name>宏伟小家电</name>
    <Point>
      <coordinates>108.64636460391353,34.203488430355236,0</coordinates>
    </Point>
  </Placemark>
  <Placemark>
    <name>金正电器</name>
    <Point>
      <coordinates>108.64251367471093,34.20296653335818,0</coordinates>
    </Point>
  </Placemark>
  <Placemark>
    <name>步步高鞋店</name>
    <Point>
      <coordinates>108.64362163785889,34.20279422637027,0</coordinates>
    </Point>
  </Placemark>
  <Placemark>
    <name>格润尔饲料经销处</name>
    <Point>
      <coordinates>108.6485632063559,34.201822819703544,0</coordinates>
    </Point>
  </Placemark>
  <Placemark>
    <name>诚兴木业</name>
    <Point>
      <coordinates>108.63793516383816,34.19609628437089,0</coordinates>
    </Point>
  </Placemark>
  <Placemark>
    <name>轩意家具</name>
    <Point>
      <coordinates>108.6485632063559,34.201822819703544,0</coordinates>
    </Point>
  </Placemark>
  <Placemark>
    <name>红妆礼品屋</name>
    <Point>
      <coordinates>108.6425135337796,34.20309744808088,0</coordinates>
    </Point>
  </Placemark>
  <Placemark>
    <name>莎莎商店</name>
    <Point>
      <coordinates>108.65245982195061,34.20113901805373,0</coordinates>
    </Point>
  </Placemark>
  <Placemark>
    <name>邦德电动车</name>
    <Point>
      <coordinates>108.65132744210139,34.20333115006881,0</coordinates>
    </Point>
  </Placemark>
  <Placemark>
    <name>喜洋洋家具</name>
    <Point>
      <coordinates>108.64850015098938,34.20120595067479,0</coordinates>
    </Point>
  </Placemark>
  <Placemark>
    <name>鑫源钢材经销部</name>
    <Point>
      <coordinates>108.63921178054915,34.19910430865695,0</coordinates>
    </Point>
  </Placemark>
  <Placemark>
    <name>都市恋人坊</name>
    <Point>
      <coordinates>108.64513731565965,34.203001688811476,0</coordinates>
    </Point>
  </Placemark>
  <Placemark>
    <name>申达门窗批发</name>
    <Point>
      <coordinates>108.63776532569844,34.197945074911566,0</coordinates>
    </Point>
  </Placemark>
  <Placemark>
    <name>恋衣阁时尚女装</name>
    <Point>
      <coordinates>108.64464904277148,34.20284225124971,0</coordinates>
    </Point>
  </Placemark>
  <Placemark>
    <name>国龙门窗</name>
    <Point>
      <coordinates>108.63891206985376,34.19874312518677,0</coordinates>
    </Point>
  </Placemark>
  <Placemark>
    <name>兔宝宝地板</name>
    <Point>
      <coordinates>108.63955116192317,34.19955282033081,0</coordinates>
    </Point>
  </Placemark>
  <Placemark>
    <name>户县大王镇卡丹漆专卖店</name>
    <Point>
      <coordinates>108.63995039984893,34.200731442209346,0</coordinates>
    </Point>
  </Placemark>
  <Placemark>
    <name>兴旺陶瓷</name>
    <Point>
      <coordinates>108.65091482960814,34.203470248474744,0</coordinates>
    </Point>
  </Placemark>
  <Placemark>
    <name>新飞电器</name>
    <Point>
      <coordinates>108.64073816991582,34.201100528315926,0</coordinates>
    </Point>
  </Placemark>
  <Placemark>
    <name>小魏汽车电器汽车空调</name>
    <Point>
      <coordinates>108.6546960255039,34.201977923283934,0</coordinates>
    </Point>
  </Placemark>
  <Placemark>
    <name>万佳电器</name>
    <Point>
      <coordinates>108.64597555826386,34.20346002744802,0</coordinates>
    </Point>
  </Placemark>
  <Placemark>
    <name>正元日化</name>
    <Point>
      <coordinates>108.64513731565965,34.203001688811476,0</coordinates>
    </Point>
  </Placemark>
  <Placemark>
    <name>茗心茶行</name>
    <Point>
      <coordinates>108.64714614776902,34.20320909742791,0</coordinates>
    </Point>
  </Placemark>
  <Placemark>
    <name>丹丹鞋店</name>
    <Point>
      <coordinates>108.64362163785889,34.20279422637027,0</coordinates>
    </Point>
  </Placemark>
  <Placemark>
    <name>少雄橱柜</name>
    <Point>
      <coordinates>108.65159139689811,34.203409538387255,0</coordinates>
    </Point>
  </Placemark>
  <Placemark>
    <name>专业不锈钢装饰</name>
    <Point>
      <coordinates>108.6532775972529,34.20442620381442,0</coordinates>
    </Point>
  </Placemark>
  <Placemark>
    <name>万通机电</name>
    <Point>
      <coordinates>108.63874237646542,34.19853430082438,0</coordinates>
    </Point>
  </Placemark>
  <Placemark>
    <name>煤店</name>
    <Point>
      <coordinates>108.6373940930323,34.1966873106468,0</coordinates>
    </Point>
  </Placemark>
  <Placemark>
    <name>西安春秋绿色农资</name>
    <Point>
      <coordinates>108.64157534502219,34.20277284300163,0</coordinates>
    </Point>
  </Placemark>
  <Placemark>
    <name>福升木业</name>
    <Point>
      <coordinates>108.64092777565796,34.20132932324049,0</coordinates>
    </Point>
  </Placemark>
  <Placemark>
    <name>西光水暖店</name>
    <Point>
      <coordinates>108.65077374377486,34.203120163407355,0</coordinates>
    </Point>
  </Placemark>
  <Placemark>
    <name>换新旧钢圈</name>
    <Point>
      <coordinates>108.63338516841726,34.19603311982566,0</coordinates>
    </Point>
  </Placemark>
  <Placemark>
    <name>俏佳人服侍</name>
    <Point>
      <coordinates>108.64470896523758,34.202621837637004,0</coordinates>
    </Point>
  </Placemark>
  <Placemark>
    <name>美菱厨卫</name>
    <Point>
      <coordinates>108.65034496984902,34.203521845511325,0</coordinates>
    </Point>
  </Placemark>
  <Placemark>
    <name>沁牌豪门</name>
    <Point>
      <coordinates>108.6501262027188,34.203181464004956,0</coordinates>
    </Point>
  </Placemark>
  <Placemark>
    <name>永盛通信</name>
    <Point>
      <coordinates>108.64190578818408,34.20241724664522,0</coordinates>
    </Point>
  </Placemark>
  <Placemark>
    <name>如意批发部</name>
    <Point>
      <coordinates>108.64597555826386,34.20346002744802,0</coordinates>
    </Point>
  </Placemark>
  <Placemark>
    <name>欢乐钟表电器行</name>
    <Point>
      <coordinates>108.64251452914989,34.20309645773109,0</coordinates>
    </Point>
  </Placemark>
  <Placemark>
    <name>彩虹国烟名酒陕10270店</name>
    <Point>
      <coordinates>108.63955116192317,34.19955282033081,0</coordinates>
    </Point>
  </Placemark>
  <Placemark>
    <name>大家美平价服饰</name>
    <Point>
      <coordinates>108.64517774936107,34.20333176101115,0</coordinates>
    </Point>
  </Placemark>
  <Placemark>
    <name>路路订做皮鞋</name>
    <Point>
      <coordinates>108.64513731565965,34.203001688811476,0</coordinates>
    </Point>
  </Placemark>
  <Placemark>
    <name>百信裤业</name>
    <Point>
      <coordinates>108.64650428822047,34.203149487972034,0</coordinates>
    </Point>
  </Placemark>
  <Placemark>
    <name>乡党茶行</name>
    <Point>
      <coordinates>108.65030249112769,34.20319394449546,0</coordinates>
    </Point>
  </Placemark>
  <Placemark>
    <name>TOCO</name>
    <Point>
      <coordinates>108.64084780288621,34.20174923890109,0</coordinates>
    </Point>
  </Placemark>
  <Placemark>
    <name>爱上夏娃</name>
    <Point>
      <coordinates>108.64464904277148,34.20284225124971,0</coordinates>
    </Point>
  </Placemark>
  <Placemark>
    <name>春风绒线</name>
    <Point>
      <coordinates>108.64251452914989,34.20309645773109,0</coordinates>
    </Point>
  </Placemark>
  <Placemark>
    <name>完达山世纪贝贝孕婴店</name>
    <Point>
      <coordinates>108.64729209704963,34.20354666103743,0</coordinates>
    </Point>
  </Placemark>
  <Placemark>
    <name>伟昌铝材</name>
    <Point>
      <coordinates>108.65327766252375,34.20436524346569,0</coordinates>
    </Point>
  </Placemark>
  <Placemark>
    <name>百惠连锁超市(文涝路)</name>
    <Point>
      <coordinates>108.65307856722615,34.16980713743429,0</coordinates>
    </Point>
  </Placemark>
  <Placemark>
    <name>随利商店</name>
    <Point>
      <coordinates>108.59152887802294,34.201931968225686,0</coordinates>
    </Point>
  </Placemark>
  <Placemark>
    <name>户县渭丰华凌五金水暖店</name>
    <Point>
      <coordinates>108.59966845096625,34.20315680429309,0</coordinates>
    </Point>
  </Placemark>
  <Placemark>
    <name>华成通迅</name>
    <Point>
      <coordinates>108.55461691874015,34.175563657173136,0</coordinates>
    </Point>
  </Placemark>
  <Placemark>
    <name>和平大肉店</name>
    <Point>
      <coordinates>108.55515329773061,34.17562581120389,0</coordinates>
    </Point>
  </Placemark>
  <Placemark>
    <name>西宝商店</name>
    <Point>
      <coordinates>108.55448097590283,34.1758712453097,0</coordinates>
    </Point>
  </Placemark>
  <Placemark>
    <name>少军五金水暖电料建材经销部</name>
    <Point>
      <coordinates>108.55409660098123,34.17574606431014,0</coordinates>
    </Point>
  </Placemark>
  <Placemark>
    <name>2001学生用品店</name>
    <Point>
      <coordinates>108.55409660098123,34.17574606431014,0</coordinates>
    </Point>
  </Placemark>
  <Placemark>
    <name>果果鲜超市</name>
    <Point>
      <coordinates>108.552904303778,34.175463459313804,0</coordinates>
    </Point>
  </Placemark>
  <Placemark>
    <name>钢钢土产日杂门市部</name>
    <Point>
      <coordinates>108.5542761100079,34.17415543265839,0</coordinates>
    </Point>
  </Placemark>
  <Placemark>
    <name>衣琳女装</name>
    <Point>
      <coordinates>108.55428621237941,34.173956377555456,0</coordinates>
    </Point>
  </Placemark>
  <Placemark>
    <name>美尔名妆</name>
    <Point>
      <coordinates>108.55428594488555,34.175154947191174,0</coordinates>
    </Point>
  </Placemark>
  <Placemark>
    <name>长虹电器部</name>
    <Point>
      <coordinates>108.55423975368068,34.17474866976585,0</coordinates>
    </Point>
  </Placemark>
  <Placemark>
    <name>惠普电脑专卖店</name>
    <Point>
      <coordinates>108.55463720825847,34.17493663648096,0</coordinates>
    </Point>
  </Placemark>
  <Placemark>
    <name>营房鲜肉店</name>
    <Point>
      <coordinates>108.55428621237941,34.173956377555456,0</coordinates>
    </Point>
  </Placemark>
  <Placemark>
    <name>鲁西复合肥</name>
    <Point>
      <coordinates>108.552904303778,34.175463459313804,0</coordinates>
    </Point>
  </Placemark>
  <Placemark>
    <name>嘉禾建材</name>
    <Point>
      <coordinates>108.55550854160452,34.175698186584135,0</coordinates>
    </Point>
  </Placemark>
  <Placemark>
    <name>兴隆日杂店</name>
    <Point>
      <coordinates>108.55277363069408,34.17497315931072,0</coordinates>
    </Point>
  </Placemark>
  <Placemark>
    <name>步步高鞋店</name>
    <Point>
      <coordinates>108.55427606423893,34.174375354792055,0</coordinates>
    </Point>
  </Placemark>
  <Placemark>
    <name>丽人日化</name>
    <Point>
      <coordinates>108.55236017146575,34.17475097484674,0</coordinates>
    </Point>
  </Placemark>
  <Placemark>
    <name>力诺瑞特太阳能</name>
    <Point>
      <coordinates>108.55145670556817,34.17497887725707,0</coordinates>
    </Point>
  </Placemark>
  <Placemark>
    <name>润达电脑</name>
    <Point>
      <coordinates>108.55236017146575,34.17475097484674,0</coordinates>
    </Point>
  </Placemark>
  <Placemark>
    <name>长兴商让</name>
    <Point>
      <coordinates>108.55425620138668,34.17286612187438,0</coordinates>
    </Point>
  </Placemark>
  <Placemark>
    <name>丰彩服装超市(涝店店)</name>
    <Point>
      <coordinates>108.55335414286654,34.17517327084366,0</coordinates>
    </Point>
  </Placemark>
  <Placemark>
    <name>盼盼厨卫</name>
    <Point>
      <coordinates>108.55684205365755,34.17598029601394,0</coordinates>
    </Point>
  </Placemark>
  <Placemark>
    <name>飞腾电脑科技</name>
    <Point>
      <coordinates>108.64222422161939,34.20307681069627,0</coordinates>
    </Point>
  </Placemark>
  <Placemark>
    <name>联想专卖店(户县大王镇专卖店)</name>
    <Point>
      <coordinates>108.64041890776063,34.201291083475446,0</coordinates>
    </Point>
  </Placemark>
  <Placemark>
    <name>大众铁门装饰工程部</name>
    <Point>
      <coordinates>108.63921178161637,34.19910330930176,0</coordinates>
    </Point>
  </Placemark>
  <Placemark>
    <name>西宝自选</name>
    <Point>
      <coordinates>108.63732653958161,34.196686474774005,0</coordinates>
    </Point>
  </Placemark>
  <Placemark>
    <name>永升建材</name>
    <Point>
      <coordinates>108.63962065175114,34.19962254435612,0</coordinates>
    </Point>
  </Placemark>
  <Placemark>
    <name>盛隆烟酒</name>
    <Point>
      <coordinates>108.6477612396303,34.203257238593565,0</coordinates>
    </Point>
  </Placemark>
  <Placemark>
    <name>开源茶业</name>
    <Point>
      <coordinates>108.64744074848964,34.20322764459916,0</coordinates>
    </Point>
  </Placemark>
  <Placemark>
    <name>福鞋服城</name>
    <Point>
      <coordinates>108.64483791815496,34.202962565566246,0</coordinates>
    </Point>
  </Placemark>
  <Placemark>
    <name>宝贝孕婴生活馆</name>
    <Point>
      <coordinates>108.64696267148709,34.20352888329862,0</coordinates>
    </Point>
  </Placemark>
  <Placemark>
    <name>新星茶店</name>
    <Point>
      <coordinates>108.64597555826386,34.20346002744802,0</coordinates>
    </Point>
  </Placemark>
  <Placemark>
    <name>迎朋窗帘</name>
    <Point>
      <coordinates>108.64468040957061,34.20327420640766,0</coordinates>
    </Point>
  </Placemark>
  <Placemark>
    <name>内衣专卖</name>
    <Point>
      <coordinates>108.64464904277148,34.20284225124971,0</coordinates>
    </Point>
  </Placemark>
  <Placemark>
    <name>永乐美妆</name>
    <Point>
      <coordinates>108.64378073316153,34.20282350803296,0</coordinates>
    </Point>
  </Placemark>
  <Placemark>
    <name>新日电动车</name>
    <Point>
      <coordinates>108.64921701776129,34.20309856412135,0</coordinates>
    </Point>
  </Placemark>
  <Placemark>
    <name>宏达建材店</name>
    <Point>
      <coordinates>108.64905937647862,34.203383793916196,0</coordinates>
    </Point>
  </Placemark>
  <Placemark>
    <name>李牛百货批发部</name>
    <Point>
      <coordinates>108.64176578124896,34.20225801254204,0</coordinates>
    </Point>
  </Placemark>
  <Placemark>
    <name>三源厨卫电器</name>
    <Point>
      <coordinates>108.63940067507744,34.199952891945344,0</coordinates>
    </Point>
  </Placemark>
  <Placemark>
    <name>恒达鞋店</name>
    <Point>
      <coordinates>108.64362163785889,34.20279422637027,0</coordinates>
    </Point>
  </Placemark>
  <Placemark>
    <name>西安市户县兴盛门业</name>
    <Point>
      <coordinates>108.62859468249559,34.21006028617231,0</coordinates>
    </Point>
  </Placemark>
  <Placemark>
    <name>唯美名妆</name>
    <Point>
      <coordinates>108.64464904277148,34.20284225124971,0</coordinates>
    </Point>
  </Placemark>
  <Placemark>
    <name>窗帘世界</name>
    <Point>
      <coordinates>108.6485632063559,34.201822819703544,0</coordinates>
    </Point>
  </Placemark>
  <Placemark>
    <name>秦升机电部</name>
    <Point>
      <coordinates>108.64102698342373,34.201509214147045,0</coordinates>
    </Point>
  </Placemark>
  <Placemark>
    <name>鑫鑫日化</name>
    <Point>
      <coordinates>108.64464904277148,34.20284225124971,0</coordinates>
    </Point>
  </Placemark>
  <Placemark>
    <name>中国联通沃手机专卖</name>
    <Point>
      <coordinates>108.65117289448847,34.203440792795234,0</coordinates>
    </Point>
  </Placemark>
  <Placemark>
    <name>麦豪家私</name>
    <Point>
      <coordinates>108.6485632063559,34.201822819703544,0</coordinates>
    </Point>
  </Placemark>
  <Placemark>
    <name>匹克</name>
    <Point>
      <coordinates>108.64513731565965,34.203001688811476,0</coordinates>
    </Point>
  </Placemark>
  <Placemark>
    <name>多彩不锈钢装饰部</name>
    <Point>
      <coordinates>108.6521151090541,34.202887564216454,0</coordinates>
    </Point>
  </Placemark>
  <Placemark>
    <name>永声家电音像部</name>
    <Point>
      <coordinates>108.64263792109611,34.20300662731388,0</coordinates>
    </Point>
  </Placemark>
  <Placemark>
    <name>颜姿化妆礼品店</name>
    <Point>
      <coordinates>108.6446784222384,34.20327219295992,0</coordinates>
    </Point>
  </Placemark>
  <Placemark>
    <name>容声冰箱(户县大王镇唯一指定体验店)</name>
    <Point>
      <coordinates>108.64277154050468,34.20265604389325,0</coordinates>
    </Point>
  </Placemark>
  <Placemark>
    <name>玻璃油漆工艺部</name>
    <Point>
      <coordinates>108.65272900875799,34.202907042270475,0</coordinates>
    </Point>
  </Placemark>
  <Placemark>
    <name>朝晖日用杂货店</name>
    <Point>
      <coordinates>108.6496367692636,34.2035637164664,0</coordinates>
    </Point>
  </Placemark>
  <Placemark>
    <name>众利达门窗</name>
    <Point>
      <coordinates>108.6390520517285,34.19886265009635,0</coordinates>
    </Point>
  </Placemark>
  <Placemark>
    <name>长丰粮行</name>
    <Point>
      <coordinates>108.64154532998457,34.20202802799825,0</coordinates>
    </Point>
  </Placemark>
  <Placemark>
    <name>vivo智能手机体验店</name>
    <Point>
      <coordinates>108.6474324200307,34.20356738215582,0</coordinates>
    </Point>
  </Placemark>
  <Placemark>
    <name>磊鑫杂货铺</name>
    <Point>
      <coordinates>108.64117343369638,34.20212829058022,0</coordinates>
    </Point>
  </Placemark>
  <Placemark>
    <name>万家鸿福三轮专卖</name>
    <Point>
      <coordinates>108.65266987206013,34.20321480954852,0</coordinates>
    </Point>
  </Placemark>
  <Placemark>
    <name>丽达鞋城</name>
    <Point>
      <coordinates>108.64362163785889,34.20279422637027,0</coordinates>
    </Point>
  </Placemark>
  <Placemark>
    <name>永朋车行</name>
    <Point>
      <coordinates>108.65077374377486,34.203120163407355,0</coordinates>
    </Point>
  </Placemark>
  <Placemark>
    <name>鑫源内衣</name>
    <Point>
      <coordinates>108.64249390208408,34.203785828520495,0</coordinates>
    </Point>
  </Placemark>
  <Placemark>
    <name>九阳专卖店</name>
    <Point>
      <coordinates>108.64093967886066,34.20135242951716,0</coordinates>
    </Point>
  </Placemark>
  <Placemark>
    <name>长虹电气</name>
    <Point>
      <coordinates>108.64069749185725,34.20103115301631,0</coordinates>
    </Point>
  </Placemark>
  <Placemark>
    <name>如意装饰材料部</name>
    <Point>
      <coordinates>108.6501262027188,34.203181464004956,0</coordinates>
    </Point>
  </Placemark>
  <Placemark>
    <name>冬冬专业汽车电器·空调</name>
    <Point>
      <coordinates>108.64082294612179,34.19614652894765,0</coordinates>
    </Point>
  </Placemark>
  <Placemark>
    <name>香港罗格朗照明电器大王灯具店</name>
    <Point>
      <coordinates>108.64223427159165,34.202976967827176,0</coordinates>
    </Point>
  </Placemark>
  <Placemark>
    <name>创佳通讯</name>
    <Point>
      <coordinates>108.64752232655253,34.20326803734872,0</coordinates>
    </Point>
  </Placemark>
  <Placemark>
    <name>佳美购物店</name>
    <Point>
      <coordinates>108.64801081598135,34.20352626061876,0</coordinates>
    </Point>
  </Placemark>
  <Placemark>
    <name>大运电动三轮</name>
    <Point>
      <coordinates>108.65077374377486,34.203120163407355,0</coordinates>
    </Point>
  </Placemark>
  <Placemark>
    <name>梦思批发部</name>
    <Point>
      <coordinates>108.64195399703638,34.20288740206451,0</coordinates>
    </Point>
  </Placemark>
  <Placemark>
    <name>兄弟水暖灯城(渭丰店)</name>
    <Point>
      <coordinates>108.60080945449678,34.20204280402449,0</coordinates>
    </Point>
  </Placemark>
  <Placemark>
    <name>百惠连锁超市</name>
    <Point>
      <coordinates>108.55583802936263,34.20174519884059,0</coordinates>
    </Point>
  </Placemark>
  <Placemark>
    <name>恒盛兴门业</name>
    <Point>
      <coordinates>108.55142054992317,34.17473035740007,0</coordinates>
    </Point>
  </Placemark>
  <Placemark>
    <name>迎宾综合商店</name>
    <Point>
      <coordinates>108.55430599775367,34.17543559296494,0</coordinates>
    </Point>
  </Placemark>
  <Placemark>
    <name>联塑管道</name>
    <Point>
      <coordinates>108.55289336138566,34.174975768740424,0</coordinates>
    </Point>
  </Placemark>
  <Placemark>
    <name>平安坊</name>
    <Point>
      <coordinates>108.55515329773061,34.17562581120389,0</coordinates>
    </Point>
  </Placemark>
  <Placemark>
    <name>建武水果店</name>
    <Point>
      <coordinates>108.55236017146575,34.17475097484674,0</coordinates>
    </Point>
  </Placemark>
  <Placemark>
    <name>耀良综合商店</name>
    <Point>
      <coordinates>108.55470136050421,34.175886469234094,0</coordinates>
    </Point>
  </Placemark>
  <Placemark>
    <name>清香茶庄</name>
    <Point>
      <coordinates>108.55428594004766,34.17517394017254,0</coordinates>
    </Point>
  </Placemark>
  <Placemark>
    <name>3D彩晶膜</name>
    <Point>
      <coordinates>108.55195190266161,34.173832876503624,0</coordinates>
    </Point>
  </Placemark>
  <Placemark>
    <name>洪福来门窗</name>
    <Point>
      <coordinates>108.54678888504755,34.1629709222523,0</coordinates>
    </Point>
  </Placemark>
  <Placemark>
    <name>小艳内衣店</name>
    <Point>
      <coordinates>108.55421161615494,34.17457808012241,0</coordinates>
    </Point>
  </Placemark>
  <Placemark>
    <name>南涝饲料兽药门市部</name>
    <Point>
      <coordinates>108.55585879024996,34.17567860244706,0</coordinates>
    </Point>
  </Placemark>
  <Placemark>
    <name>皇明太阳能</name>
    <Point>
      <coordinates>108.552904303778,34.175463459313804,0</coordinates>
    </Point>
  </Placemark>
  <Placemark>
    <name>鑫达彩钢钢构</name>
    <Point>
      <coordinates>108.54326622190821,34.17132449499353,0</coordinates>
    </Point>
  </Placemark>