<Folder xmlns:atom="http://www.w3.org/2005/Atom" xmlns:gx="http://www.google.com/kml/ext/2.2" xmlns="http://www.opengis.net/kml/2.2">
  <Placemark>
    <name>钟楼</name>
    <Point>
      <coordinates>108.59893045914009,34.1096593463184,0</coordinates>
    </Point>
  </Placemark>
  <Placemark>
    <name>城隍庙</name>
    <Point>
      <coordinates>108.5994436069073,34.11564734393986,0</coordinates>
    </Point>
  </Placemark>
  <Placemark>
    <name>鸠摩罗什寺庙</name>
    <Point>
      <coordinates>108.59750994826885,34.07107224901936,0</coordinates>
    </Point>
  </Placemark>
  <Placemark>
    <name>鄠邑区农民画展览馆</name>
    <Point>
      <coordinates>108.60753357078747,34.11292124179561,0</coordinates>
    </Point>
  </Placemark>
  <Placemark>
    <name>渼陂水上乐园</name>
    <Point>
      <coordinates>108.57366646301969,34.118958892441555,0</coordinates>
    </Point>
  </Placemark>
  <Placemark>
    <name>滨河公园</name>
    <Point>
      <coordinates>108.58508248745748,34.11006130362268,0</coordinates>
    </Point>
  </Placemark>
  <Placemark>
    <name>户县多乐星儿童游乐园</name>
    <Point>
      <coordinates>108.6034482618301,34.11059455217951,0</coordinates>
    </Point>
  </Placemark>
  <Placemark>
    <name>玉蟾台</name>
    <Point>
      <coordinates>108.56118296680951,34.09951442004994,0</coordinates>
    </Point>
  </Placemark>
  <Placemark>
    <name>鄠邑区文庙</name>
    <Point>
      <coordinates>108.59981287141696,34.11069372850722,0</coordinates>
    </Point>
  </Placemark>
  <Placemark>
    <name>户县农民画展博物馆</name>
    <Point>
      <coordinates>108.60753855386866,34.11323521280315,0</coordinates>
    </Point>
  </Placemark>
  <Placemark>
    <name>潭滨公园</name>
    <Point>
      <coordinates>108.64027589301298,34.10859740598394,0</coordinates>
    </Point>
  </Placemark>
  <Placemark>
    <name>街心游园</name>
    <Point>
      <coordinates>108.60068829767273,34.10983427120991,0</coordinates>
    </Point>
  </Placemark>
  <Placemark>
    <name>基督教会</name>
    <Point>
      <coordinates>108.60250733235844,34.12288462644148,0</coordinates>
    </Point>
  </Placemark>
  <Placemark>
    <name>户县基督教开发区礼拜堂</name>
    <Point>
      <coordinates>108.65103573770493,34.1093773904615,0</coordinates>
    </Point>
  </Placemark>
  <Placemark>
    <name>凯福瑞海棠园</name>
    <Point>
      <coordinates>108.64095795007306,34.07988312826457,0</coordinates>
    </Point>
  </Placemark>
  <Placemark>
    <name>西郡会展花苑国际会议中心</name>
    <Point>
      <coordinates>108.62800169573548,34.09923597516202,0</coordinates>
    </Point>
  </Placemark>
  <Placemark>
    <name>秦萯阳宫</name>
    <Point>
      <coordinates>108.57243544233195,34.119247040230576,0</coordinates>
    </Point>
  </Placemark>
  <Placemark>
    <name>书画古街</name>
    <Point>
      <coordinates>108.60141072925964,34.109762490567725,0</coordinates>
    </Point>
  </Placemark>
  <Placemark>
    <name>天主堂</name>
    <Point>
      <coordinates>108.59735720886961,34.11121576054208,0</coordinates>
    </Point>
  </Placemark>
  <Placemark>
    <name>三佛庙</name>
    <Point>
      <coordinates>108.6395786064253,34.09940836189611,0</coordinates>
    </Point>
  </Placemark>
  <Placemark>
    <name>总城隍庙</name>
    <Point>
      <coordinates>108.60650843246809,34.104647519452385,0</coordinates>
    </Point>
  </Placemark>
  <Placemark>
    <name>张家祠堂</name>
    <Point>
      <coordinates>108.59892921725752,34.11343734422635,0</coordinates>
    </Point>
  </Placemark>
  <Placemark>
    <name>新盛寺</name>
    <Point>
      <coordinates>108.59831077585821,34.102540336430025,0</coordinates>
    </Point>
  </Placemark>
  <Placemark>
    <name>土地庙</name>
    <Point>
      <coordinates>108.60918461060925,34.08534741151607,0</coordinates>
    </Point>
  </Placemark>
  <Placemark>
    <name>华佗庙</name>
    <Point>
      <coordinates>108.62078923830961,34.110793541955935,0</coordinates>
    </Point>
  </Placemark>
  <Placemark>
    <name>望仙阁</name>
    <Point>
      <coordinates>108.60144660046215,34.110067572131626,0</coordinates>
    </Point>
  </Placemark>
  <Placemark>
    <name>石佛爷庙</name>
    <Point>
      <coordinates>108.59160266767388,34.10860688055156,0</coordinates>
    </Point>
  </Placemark>
  <Placemark>
    <name>铁人王进喜纪念馆</name>
    <Point>
      <coordinates>108.649553994847,34.105001893596445,0</coordinates>
    </Point>
  </Placemark>
  <Placemark>
    <name>迎福寺</name>
    <Point>
      <coordinates>108.60358390540033,34.10610083091053,0</coordinates>
    </Point>
  </Placemark>
  <Placemark>
    <name>西安交通工程学院-徂徕楼</name>
    <Point>
      <coordinates>108.58590163841184,34.11333965681711,0</coordinates>
    </Point>
  </Placemark>
  <Placemark>
    <name>永安殿</name>
    <Point>
      <coordinates>108.59403802433792,34.10519792251365,0</coordinates>
    </Point>
  </Placemark>
  <Placemark>
    <name>棂星门</name>
    <Point>
      <coordinates>108.59977505429794,34.10981984901386,0</coordinates>
    </Point>
  </Placemark>
  <Placemark>
    <name>迎福寿</name>
    <Point>
      <coordinates>108.6034563516806,34.10590907980712,0</coordinates>
    </Point>
  </Placemark>
  <Placemark>
    <name>公输堂</name>
    <Point>
      <coordinates>108.58254078454915,34.20355160314919,0</coordinates>
    </Point>
  </Placemark>
  <Placemark>
    <name>龙窝酒文化博物馆</name>
    <Point>
      <coordinates>108.54008471605039,34.18632452431358,0</coordinates>
    </Point>
  </Placemark>
  <Placemark>
    <name>永庆观</name>
    <Point>
      <coordinates>108.65885302067115,34.20361278849359,0</coordinates>
    </Point>
  </Placemark>
  <Placemark>
    <name>菩提寺</name>
    <Point>
      <coordinates>108.63801362246821,34.206382709881645,0</coordinates>
    </Point>
  </Placemark>
  <Placemark>
    <name>胜光寺</name>
    <Point>
      <coordinates>108.62396671971716,34.18241026979562,0</coordinates>
    </Point>
  </Placemark>
  <Placemark>
    <name>汉寿亭侯关帝庙</name>
    <Point>
      <coordinates>108.61866586982067,34.20986232005819,0</coordinates>
    </Point>
  </Placemark>
  <Placemark>
    <name>乾福寺</name>
    <Point>
      <coordinates>108.63794921264979,34.20622103787239,0</coordinates>
    </Point>
  </Placemark>
  <Placemark>
    <name>咸阳宏兴码头生态观光园</name>
    <Point>
      <coordinates>108.6067613153775,34.262217415512,0</coordinates>
    </Point>
  </Placemark>
  <Placemark>
    <name>两寺渡公园</name>
    <Point>
      <coordinates>108.65884448427504,34.29675225154151,0</coordinates>
    </Point>
  </Placemark>
  <Placemark>
    <name>咸阳湖二期北岸公园</name>
    <Point>
      <coordinates>108.66158149487802,34.28577192375521,0</coordinates>
    </Point>
  </Placemark>
  <Placemark>
    <name>天主堂</name>
    <Point>
      <coordinates>108.62574168572921,34.30200052941335,0</coordinates>
    </Point>
  </Placemark>
  <Placemark>
    <name>紫云阁纪念堂</name>
    <Point>
      <coordinates>108.63134670274728,34.31912696343948,0</coordinates>
    </Point>
  </Placemark>
  <Placemark>
    <name>中福文化</name>
    <Point>
      <coordinates>108.66302919997744,34.32010183113499,0</coordinates>
    </Point>
  </Placemark>
  <Placemark>
    <name>文宝齐</name>
    <Point>
      <coordinates>108.65078031160795,34.32353882023977,0</coordinates>
    </Point>
  </Placemark>
  <Placemark>
    <name>茂陵博物馆</name>
    <Point>
      <coordinates>108.582029857252,34.34010635795959,0</coordinates>
    </Point>
  </Placemark>
  <Placemark>
    <name>秦乐城</name>
    <Point>
      <coordinates>108.6636370796698,34.370035633262745,0</coordinates>
    </Point>
  </Placemark>
  <Placemark>
    <name>汉武帝茂陵</name>
    <Point>
      <coordinates>108.56936602513987,34.337924127880584,0</coordinates>
    </Point>
  </Placemark>
  <Placemark>
    <name>霍去病墓</name>
    <Point>
      <coordinates>108.58137775680366,34.34098481918215,0</coordinates>
    </Point>
  </Placemark>
  <Placemark>
    <name>茂陵故园</name>
    <Point>
      <coordinates>108.5701263007992,34.331357188435085,0</coordinates>
    </Point>
  </Placemark>
  <Placemark>
    <name>渭北主题乐园</name>
    <Point>
      <coordinates>108.61335281047089,34.33342909761698,0</coordinates>
    </Point>
  </Placemark>
  <Placemark>
    <name>咸阳茂陵植物园</name>
    <Point>
      <coordinates>108.58048312413645,34.33784403336367,0</coordinates>
    </Point>
  </Placemark>
  <Placemark>
    <name>咸阳福寿园</name>
    <Point>
      <coordinates>108.62665566516547,34.35029782518907,0</coordinates>
    </Point>
  </Placemark>
  <Placemark>
    <name>福圣寺</name>
    <Point>
      <coordinates>108.66415271111912,34.34372515912206,0</coordinates>
    </Point>
  </Placemark>
  <Placemark>
    <name>卫青墓</name>
    <Point>
      <coordinates>108.58040557086949,34.34125261890333,0</coordinates>
    </Point>
  </Placemark>
  <Placemark>
    <name>汉昭帝平陵</name>
    <Point>
      <coordinates>108.6403571078563,34.36190471873824,0</coordinates>
    </Point>
  </Placemark>
  <Placemark>
    <name>御书宫</name>
    <Point>
      <coordinates>108.6214074079628,34.383091640866596,0</coordinates>
    </Point>
  </Placemark>
  <Placemark>
    <name>马踏匈奴</name>
    <Point>
      <coordinates>108.58926635663742,34.34579610794717,0</coordinates>
    </Point>
  </Placemark>
  <Placemark>
    <name>李夫人墓</name>
    <Point>
      <coordinates>108.56204634996963,34.340352802996144,0</coordinates>
    </Point>
  </Placemark>
  <Placemark>
    <name>咸阳秦渭博物馆展厅</name>
    <Point>
      <coordinates>108.66199794903123,34.37721674898413,0</coordinates>
    </Point>
  </Placemark>
  <Placemark>
    <name>上官皇后墓</name>
    <Point>
      <coordinates>108.63190370221996,34.36295136738952,0</coordinates>
    </Point>
  </Placemark>
  <Placemark>
    <name>汉渭陵</name>
    <Point>
      <coordinates>108.61718083978356,34.373121906692,0</coordinates>
    </Point>
  </Placemark>
  <Placemark>
    <name>极真空手道艺术馆</name>
    <Point>
      <coordinates>108.56491012766544,34.36146553627265,0</coordinates>
    </Point>
  </Placemark>
  <Placemark>
    <name>马庄心海水上乐园</name>
    <Point>
      <coordinates>108.65444727674996,34.42848651388155,0</coordinates>
    </Point>
  </Placemark>
  <Placemark>
    <name>咸阳红色记忆博物馆</name>
    <Point>
      <coordinates>108.60657054021279,34.414007513380376,0</coordinates>
    </Point>
  </Placemark>
  <Placemark>
    <name>咸阳阻击战龙泉坊烈士陵园</name>
    <Point>
      <coordinates>108.57563046243646,34.422579436378825,0</coordinates>
    </Point>
  </Placemark>
  <Placemark>
    <name>香积寺塔</name>
    <Point>
      <coordinates>108.62878255702725,34.55160806516799,0</coordinates>
    </Point>
  </Placemark>
  <Placemark>
    <name>薄太后塔</name>
    <Point>
      <coordinates>108.62877758871042,34.551612982669255,0</coordinates>
    </Point>
  </Placemark>
  <Placemark>
    <name>敬德墓</name>
    <Point>
      <coordinates>108.54080054970368,34.57625816528438,0</coordinates>
    </Point>
  </Placemark>
  <Placemark>
    <name>平等寺</name>
    <Point>
      <coordinates>108.7447443011228,34.12566041686104,0</coordinates>
    </Point>
  </Placemark>
  <Placemark>
    <name>白马招觉院</name>
    <Point>
      <coordinates>108.68791101073153,34.099810089504,0</coordinates>
    </Point>
  </Placemark>
  <Placemark>
    <name>鑫地农庄水上乐园</name>
    <Point>
      <coordinates>108.77612946624627,34.12472638801955,0</coordinates>
    </Point>
  </Placemark>
  <Placemark>
    <name>白云寺</name>
    <Point>
      <coordinates>108.74821078845325,34.10833114064715,0</coordinates>
    </Point>
  </Placemark>
  <Placemark>
    <name>庆善寺</name>
    <Point>
      <coordinates>108.75608630209621,34.07583525523323,0</coordinates>
    </Point>
  </Placemark>
  <Placemark>
    <name>文王灵台</name>
    <Point>
      <coordinates>108.74473827004041,34.12554832203886,0</coordinates>
    </Point>
  </Placemark>
  <Placemark>
    <name>天王庙</name>
    <Point>
      <coordinates>108.68983597527289,34.10397875410898,0</coordinates>
    </Point>
  </Placemark>
  <Placemark>
    <name>居士堂</name>
    <Point>
      <coordinates>108.79185873365223,34.09586065458895,0</coordinates>
    </Point>
  </Placemark>
  <Placemark>
    <name>沣东农博园</name>
    <Point>
      <coordinates>108.74702094092669,34.19773694102091,0</coordinates>
    </Point>
  </Placemark>
  <Placemark>
    <name>沣河湿地公园</name>
    <Point>
      <coordinates>108.7322984798894,34.22188992655675,0</coordinates>
    </Point>
  </Placemark>
  <Placemark>
    <name>沣东沣河生态景区</name>
    <Point>
      <coordinates>108.7341362889374,34.224583175369666,0</coordinates>
    </Point>
  </Placemark>
  <Placemark>
    <name>迦南农业生态观光园</name>
    <Point>
      <coordinates>108.79012126567068,34.16106892881296,0</coordinates>
    </Point>
  </Placemark>
  <Placemark>
    <name>中国荷苑</name>
    <Point>
      <coordinates>108.772541780252,34.18101220597558,0</coordinates>
    </Point>
  </Placemark>
  <Placemark>
    <name>石婆庙</name>
    <Point>
      <coordinates>108.77732377599227,34.226940535674075,0</coordinates>
    </Point>
  </Placemark>
  <Placemark>
    <name>丰镐遗址车马坑</name>
    <Point>
      <coordinates>108.71456558466207,34.205400176225524,0</coordinates>
    </Point>
  </Placemark>
  <Placemark>
    <name>石佛古寺</name>
    <Point>
      <coordinates>108.74321106846885,34.221477478163095,0</coordinates>
    </Point>
  </Placemark>
  <Placemark>
    <name>普贤寺生态园</name>
    <Point>
      <coordinates>108.77525837420681,34.17975668937711,0</coordinates>
    </Point>
  </Placemark>
  <Placemark>
    <name>丰镐遗址</name>
    <Point>
      <coordinates>108.71439914194771,34.205111689476,0</coordinates>
    </Point>
  </Placemark>
  <Placemark>
    <name>牛郎织女石刻</name>
    <Point>
      <coordinates>108.77727572318005,34.226892594495325,0</coordinates>
    </Point>
  </Placemark>
  <Placemark>
    <name>沣镐遗址</name>
    <Point>
      <coordinates>108.7259180234716,34.192873584564126,0</coordinates>
    </Point>
  </Placemark>
  <Placemark>
    <name>魁星楼遗址</name>
    <Point>
      <coordinates>108.76939969790621,34.23778210063573,0</coordinates>
    </Point>
  </Placemark>
  <Placemark>
    <name>革命烈士张周勤事迹展览室</name>
    <Point>
      <coordinates>108.71249362299987,34.204106900700125,0</coordinates>
    </Point>
  </Placemark>
  <Placemark>
    <name>苗驾庄村教堂</name>
    <Point>
      <coordinates>108.68705325308737,34.17928210685772,0</coordinates>
    </Point>
  </Placemark>
  <Placemark>
    <name>张周勤烈士之墓</name>
    <Point>
      <coordinates>108.71316939739783,34.20454925828897,0</coordinates>
    </Point>
  </Placemark>
  <Placemark>
    <name>香光寺</name>
    <Point>
      <coordinates>108.69858908188482,34.23885453432379,0</coordinates>
    </Point>
  </Placemark>
  <Placemark>
    <name>洪觉古寺</name>
    <Point>
      <coordinates>108.754804581403,34.19742666995987,0</coordinates>
    </Point>
  </Placemark>
  <Placemark>
    <name>归元寺</name>
    <Point>
      <coordinates>108.76135405185148,34.27989879151794,0</coordinates>
    </Point>
  </Placemark>
  <Placemark>
    <name>龙泉寺</name>
    <Point>
      <coordinates>108.76854086412021,34.24141177679612,0</coordinates>
    </Point>
  </Placemark>
  <Placemark>
    <name>西山寺</name>
    <Point>
      <coordinates>108.76981505038064,34.29019306872486,0</coordinates>
    </Point>
  </Placemark>
  <Placemark>
    <name>西咸新区沙湖自然风景区</name>
    <Point>
      <coordinates>108.72431839026704,34.27479360078317,0</coordinates>
    </Point>
  </Placemark>
  <Placemark>
    <name>北寺庙</name>
    <Point>
      <coordinates>108.7927975087545,34.27725063581162,0</coordinates>
    </Point>
  </Placemark>
  <Placemark>
    <name>张裕瑞那城堡酒庄</name>
    <Point>
      <coordinates>108.78486805944331,34.40064023141433,0</coordinates>
    </Point>
  </Placemark>
  <Placemark>
    <name>咸阳湖景区</name>
    <Point>
      <coordinates>108.71317384463681,34.33160453296762,0</coordinates>
    </Point>
  </Placemark>
  <Placemark>
    <name>咸阳博物馆</name>
    <Point>
      <coordinates>108.72000819775215,34.33586651969925,0</coordinates>
    </Point>
  </Placemark>
  <Placemark>
    <name>古渡公园</name>
    <Point>
      <coordinates>108.73759623774755,34.34031202896214,0</coordinates>
    </Point>
  </Placemark>
  <Placemark>
    <name>渭滨公园</name>
    <Point>
      <coordinates>108.707397547995,34.32977716859574,0</coordinates>
    </Point>
  </Placemark>
  <Placemark>
    <name>周陵</name>
    <Point>
      <coordinates>108.72592363894621,34.40726685893802,0</coordinates>
    </Point>
  </Placemark>
  <Placemark>
    <name>东风路水上乐园</name>
    <Point>
      <coordinates>108.73659012048661,34.37002126846249,0</coordinates>
    </Point>
  </Placemark>
  <Placemark>
    <name>白起墓</name>
    <Point>
      <coordinates>108.7602334691379,34.36808224803262,0</coordinates>
    </Point>
  </Placemark>
  <Placemark>
    <name>中五台道观</name>
    <Point>
      <coordinates>108.73808722741123,34.36353526207088,0</coordinates>
    </Point>
  </Placemark>
  <Placemark>
    <name>秦岭山动物园</name>
    <Point>
      <coordinates>108.70627226931607,34.327728603241695,0</coordinates>
    </Point>
  </Placemark>
  <Placemark>
    <name>凤凰台</name>
    <Point>
      <coordinates>108.72095564811936,34.336798271362575,0</coordinates>
    </Point>
  </Placemark>
  <Placemark>
    <name>安国寺</name>
    <Point>
      <coordinates>108.72127608953362,34.33754309091042,0</coordinates>
    </Point>
  </Placemark>
  <Placemark>
    <name>凤凰游乐园</name>
    <Point>
      <coordinates>108.72620770043024,34.34064179525568,0</coordinates>
    </Point>
  </Placemark>
  <Placemark>
    <name>咸阳古渡龙王庙</name>
    <Point>
      <coordinates>108.7364897458498,34.331408335155736,0</coordinates>
    </Point>
  </Placemark>
  <Placemark>
    <name>汉成帝延陵</name>
    <Point>
      <coordinates>108.69796850927501,34.37491417041886,0</coordinates>
    </Point>
  </Placemark>
  <Placemark>
    <name>清真寺(新兴北路店)</name>
    <Point>
      <coordinates>108.72317724565066,34.34897287003738,0</coordinates>
    </Point>
  </Placemark>
  <Placemark>
    <name>五陵故园</name>
    <Point>
      <coordinates>108.69033576539891,34.369565735186754,0</coordinates>
    </Point>
  </Placemark>
  <Placemark>
    <name>南阳门</name>
    <Point>
      <coordinates>108.72609724761446,34.333804556332794,0</coordinates>
    </Point>
  </Placemark>
  <Placemark>
    <name>渭陵</name>
    <Point>
      <coordinates>108.73908139091908,34.39046290576813,0</coordinates>
    </Point>
  </Placemark>
  <Placemark>
    <name>清渭楼美术博物馆</name>
    <Point>
      <coordinates>108.72875365659824,34.335877164681165,0</coordinates>
    </Point>
  </Placemark>
  <Placemark>
    <name>圆明寺</name>
    <Point>
      <coordinates>108.73274491665082,34.35705833214559,0</coordinates>
    </Point>
  </Placemark>
  <Placemark>
    <name>陕西医史博物馆</name>
    <Point>
      <coordinates>108.70922768290708,34.33273820348798,0</coordinates>
    </Point>
  </Placemark>
  <Placemark>
    <name>儿童乐园</name>
    <Point>
      <coordinates>108.70839195506657,34.33745571213357,0</coordinates>
    </Point>
  </Placemark>
  <Placemark>
    <name>周共王陵</name>
    <Point>
      <coordinates>108.7044932270515,34.379859591193615,0</coordinates>
    </Point>
  </Placemark>
  <Placemark>
    <name>戚山寺</name>
    <Point>
      <coordinates>108.76308202017518,34.39153875752148,0</coordinates>
    </Point>
  </Placemark>
  <Placemark>
    <name>咸阳市五陵故园东区</name>
    <Point>
      <coordinates>108.69570339847171,34.36957787708298,0</coordinates>
    </Point>
  </Placemark>
  <Placemark>
    <name>基督教会福音堂</name>
    <Point>
      <coordinates>108.72308279092248,34.33648704565954,0</coordinates>
    </Point>
  </Placemark>
  <Placemark>
    <name>鱼乐水族馆</name>
    <Point>
      <coordinates>108.70780895586648,34.3470601011728,0</coordinates>
    </Point>
  </Placemark>
  <Placemark>
    <name>天主堂</name>
    <Point>
      <coordinates>108.72262124960987,34.33670526523858,0</coordinates>
    </Point>
  </Placemark>
  <Placemark>
    <name>咸阳职工美术馆</name>
    <Point>
      <coordinates>108.70821543643231,34.33682048203117,0</coordinates>
    </Point>
  </Placemark>
  <Placemark>
    <name>呆呆熊儿童乐园</name>
    <Point>
      <coordinates>108.72426625377797,34.33950157285884,0</coordinates>
    </Point>
  </Placemark>
  <Placemark>
    <name>汉康陵</name>
    <Point>
      <coordinates>108.71236514013154,34.39784486236177,0</coordinates>
    </Point>
  </Placemark>
  <Placemark>
    <name>五陵洞道观</name>
    <Point>
      <coordinates>108.71955696756812,34.377511069574155,0</coordinates>
    </Point>
  </Placemark>
  <Placemark>
    <name>康王陵</name>
    <Point>
      <coordinates>108.73385563961777,34.39337986749526,0</coordinates>
    </Point>
  </Placemark>
  <Placemark>
    <name>秦汉苑</name>
    <Point>
      <coordinates>108.6922209679037,34.37474974533859,0</coordinates>
    </Point>
  </Placemark>
  <Placemark>
    <name>黄家寨教会</name>
    <Point>
      <coordinates>108.71214966345018,34.37029975245845,0</coordinates>
    </Point>
  </Placemark>
  <Placemark>
    <name>咸阳市群众艺术馆</name>
    <Point>
      <coordinates>108.70005645105819,34.331150063622765,0</coordinates>
    </Point>
  </Placemark>
  <Placemark>
    <name>基督教会</name>
    <Point>
      <coordinates>108.6789933677568,34.3326491121936,0</coordinates>
    </Point>
  </Placemark>
  <Placemark>
    <name>咸阳市外事旅游服务中心</name>
    <Point>
      <coordinates>108.71922859029183,34.33437239529643,0</coordinates>
    </Point>
  </Placemark>
  <Placemark>
    <name>建行大厦-会议室</name>
    <Point>
      <coordinates>108.69990610432843,34.32720320333233,0</coordinates>
    </Point>
  </Placemark>
  <Placemark>
    <name>哈利路亚</name>
    <Point>
      <coordinates>108.71740089316033,34.35375480228562,0</coordinates>
    </Point>
  </Placemark>
  <Placemark>
    <name>民间艺术馆</name>
    <Point>
      <coordinates>108.71989790350929,34.335380520296354,0</coordinates>
    </Point>
  </Placemark>
  <Placemark>
    <name>蒙趣少儿美术馆</name>
    <Point>
      <coordinates>108.7139678577999,34.33752704586649,0</coordinates>
    </Point>
  </Placemark>
  <Placemark>
    <name>铁原宾馆-小会议室</name>
    <Point>
      <coordinates>108.72063528822198,34.35871901134202,0</coordinates>
    </Point>
  </Placemark>
  <Placemark>
    <name>玉皇庙</name>
    <Point>
      <coordinates>108.68646974693728,34.349172219970946,0</coordinates>
    </Point>
  </Placemark>
  <Placemark>
    <name>新兴油店</name>
    <Point>
      <coordinates>108.72702548984131,34.334700061471054,0</coordinates>
    </Point>
  </Placemark>
  <Placemark>
    <name>冒险岛(财富中心店)</name>
    <Point>
      <coordinates>108.70221157421773,34.33695261485391,0</coordinates>
    </Point>
  </Placemark>
  <Placemark>
    <name>熙岸国际展示中心</name>
    <Point>
      <coordinates>108.73992505416886,34.33101157647411,0</coordinates>
    </Point>
  </Placemark>
  <Placemark>
    <name>邵小利烈士纪念碑</name>
    <Point>
      <coordinates>108.7041481800922,34.327473199556024,0</coordinates>
    </Point>
  </Placemark>
  <Placemark>
    <name>刻碑</name>
    <Point>
      <coordinates>108.78188277060448,34.37709377828459,0</coordinates>
    </Point>
  </Placemark>
  <Placemark>
    <name>岱雾山观音红</name>
    <Point>
      <coordinates>108.68025477476455,34.34152691720512,0</coordinates>
    </Point>
  </Placemark>
  <Placemark>
    <name>三只熊儿童主题乐园</name>
    <Point>
      <coordinates>108.72611770786506,34.398167450919665,0</coordinates>
    </Point>
  </Placemark>
  <Placemark>
    <name>自旋滑车</name>
    <Point>
      <coordinates>108.71085175327796,34.33079093280987,0</coordinates>
    </Point>
  </Placemark>
  <Placemark>
    <name>金桥国际商务酒店-会议中心</name>
    <Point>
      <coordinates>108.68022514761925,34.34077495727544,0</coordinates>
    </Point>
  </Placemark>
  <Placemark>
    <name>阳光假日酒店-大会议室</name>
    <Point>
      <coordinates>108.7043258483165,34.33683026571652,0</coordinates>
    </Point>
  </Placemark>
  <Placemark>
    <name>文庙</name>
    <Point>
      <coordinates>108.72015988130977,34.33571411772391,0</coordinates>
    </Point>
  </Placemark>
  <Placemark>
    <name>阳光假日酒店-小会议室</name>
    <Point>
      <coordinates>108.70432584755832,34.33683126501882,0</coordinates>
    </Point>
  </Placemark>
  <Placemark>
    <name>阳光假日酒店-多功能厅</name>
    <Point>
      <coordinates>108.70432584755832,34.33683126501882,0</coordinates>
    </Point>
  </Placemark>
  <Placemark>
    <name>神谷奇渊</name>
    <Point>
      <coordinates>108.70666345277611,34.32969254119354,0</coordinates>
    </Point>
  </Placemark>
  <Placemark>
    <name>红螺湾假日酒店-会议厅</name>
    <Point>
      <coordinates>108.6929431920179,34.330291808532664,0</coordinates>
    </Point>
  </Placemark>
  <Placemark>
    <name>蒙记商务酒店-会议厅</name>
    <Point>
      <coordinates>108.7276269543844,34.33453381780695,0</coordinates>
    </Point>
  </Placemark>
  <Placemark>
    <name>宴会中心</name>
    <Point>
      <coordinates>108.69279242605467,34.3306911264132,0</coordinates>
    </Point>
  </Placemark>
  <Placemark>
    <name>阳光书画院</name>
    <Point>
      <coordinates>108.71124920233807,34.34148336151868,0</coordinates>
    </Point>
  </Placemark>
  <Placemark>
    <name>姜子牙墓</name>
    <Point>
      <coordinates>108.73090758641396,34.41038174191571,0</coordinates>
    </Point>
  </Placemark>
  <Placemark>
    <name>千佛铁塔</name>
    <Point>
      <coordinates>108.72868703793851,34.462294221780844,0</coordinates>
    </Point>
  </Placemark>
  <Placemark>
    <name>上官婉儿墓</name>
    <Point>
      <coordinates>108.71345901841924,34.448467083789275,0</coordinates>
    </Point>
  </Placemark>
  <Placemark>
    <name>唐昭容上官氏公园</name>
    <Point>
      <coordinates>108.71180036903641,34.449916798231456,0</coordinates>
    </Point>
  </Placemark>
  <Placemark>
    <name>周武王陵</name>
    <Point>
      <coordinates>108.72530625981653,34.411121823413026,0</coordinates>
    </Point>
  </Placemark>
  <Placemark>
    <name>大石头村水上世界</name>
    <Point>
      <coordinates>108.76317245624303,34.4171428898802,0</coordinates>
    </Point>
  </Placemark>
  <Placemark>
    <name>西汉萧何曹参丞相陵墓公园</name>
    <Point>
      <coordinates>108.77784231012437,34.470770272504986,0</coordinates>
    </Point>
  </Placemark>
  <Placemark>
    <name>格桑梅朵园</name>
    <Point>
      <coordinates>108.71832756054998,34.43932451878799,0</coordinates>
    </Point>
  </Placemark>
  <Placemark>
    <name>晋公庙</name>
    <Point>
      <coordinates>108.7809805702237,34.44909689961472,0</coordinates>
    </Point>
  </Placemark>
  <Placemark>
    <name>香积寺</name>
    <Point>
      <coordinates>108.88797595817822,34.124388985877204,0</coordinates>
    </Point>
  </Placemark>
  <Placemark>
    <name>洨河生态公园</name>
    <Point>
      <coordinates>108.81004922278098,34.100202188325135,0</coordinates>
    </Point>
  </Placemark>
  <Placemark>
    <name>潏河湿地公园</name>
    <Point>
      <coordinates>108.91077913322206,34.14413529568899,0</coordinates>
    </Point>
  </Placemark>
  <Placemark>
    <name>海莲寺</name>
    <Point>
      <coordinates>108.91679994797181,34.15050182175028,0</coordinates>
    </Point>
  </Placemark>
  <Placemark>
    <name>长安六公里美术展览馆</name>
    <Point>
      <coordinates>108.8348737790719,34.0978605098102,0</coordinates>
    </Point>
  </Placemark>
  <Placemark>
    <name>大兴国禅寺</name>
    <Point>
      <coordinates>108.82401303953483,34.13228739360434,0</coordinates>
    </Point>
  </Placemark>
  <Placemark>
    <name>西北政法大学-西汉御史大夫张汤墓遗址陈列馆</name>
    <Point>
      <coordinates>108.90589516723799,34.15439806374548,0</coordinates>
    </Point>
  </Placemark>
  <Placemark>
    <name>午·后生态园</name>
    <Point>
      <coordinates>108.89180976528895,34.07662837096946,0</coordinates>
    </Point>
  </Placemark>
  <Placemark>
    <name>关帝庙</name>
    <Point>
      <coordinates>108.8460861056814,34.133598718731896,0</coordinates>
    </Point>
  </Placemark>
  <Placemark>
    <name>智慧文化公园</name>
    <Point>
      <coordinates>108.88426193874162,34.14954249953293,0</coordinates>
    </Point>
  </Placemark>
  <Placemark>
    <name>西安拉菲庄园基地</name>
    <Point>
      <coordinates>108.89088934547009,34.084750361230455,0</coordinates>
    </Point>
  </Placemark>
  <Placemark>
    <name>逍遥寺</name>
    <Point>
      <coordinates>108.84710169722656,34.14592610804172,0</coordinates>
    </Point>
  </Placemark>
  <Placemark>
    <name>佛家庄</name>
    <Point>
      <coordinates>108.86276432298625,34.141202817739284,0</coordinates>
    </Point>
  </Placemark>
  <Placemark>
    <name>中庄秦岭逍遥谷</name>
    <Point>
      <coordinates>108.83705352776705,34.13006399600295,0</coordinates>
    </Point>
  </Placemark>
  <Placemark>
    <name>陕西考古博物馆</name>
    <Point>
      <coordinates>108.87691716800079,34.11962393804487,0</coordinates>
    </Point>
  </Placemark>
  <Placemark>
    <name>西安电子科技大学-校史展览馆</name>
    <Point>
      <coordinates>108.83413811487443,34.12434163768224,0</coordinates>
    </Point>
  </Placemark>
  <Placemark>
    <name>西北大学南校区公共管理学院金海恒业报告厅</name>
    <Point>
      <coordinates>108.86792890432012,34.147714511410555,0</coordinates>
    </Point>
  </Placemark>
  <Placemark>
    <name>圆觉寺</name>
    <Point>
      <coordinates>108.8017530141079,34.123841090474116,0</coordinates>
    </Point>
  </Placemark>
  <Placemark>
    <name>亭语苑</name>
    <Point>
      <coordinates>108.81626223120823,34.11773474697932,0</coordinates>
    </Point>
  </Placemark>
  <Placemark>
    <name>西安邮电大学长安校区-校史馆</name>
    <Point>
      <coordinates>108.89602254677612,34.15513112576594,0</coordinates>
    </Point>
  </Placemark>
  <Placemark>
    <name>廉亭</name>
    <Point>
      <coordinates>108.90617380998708,34.1546154165713,0</coordinates>
    </Point>
  </Placemark>
  <Placemark>
    <name>西安电子科技大学长安校区校友之家参观点</name>
    <Point>
      <coordinates>108.83404871722905,34.12394561504031,0</coordinates>
    </Point>
  </Placemark>
  <Placemark>
    <name>西北大学南校区-会议中心</name>
    <Point>
      <coordinates>108.86997035123252,34.14635220610542,0</coordinates>
    </Point>
  </Placemark>
  <Placemark>
    <name>张三友美术馆</name>
    <Point>
      <coordinates>108.80649149713423,34.08679041012608,0</coordinates>
    </Point>
  </Placemark>
  <Placemark>
    <name>孔子圣像</name>
    <Point>
      <coordinates>108.88899383204546,34.1553210559744,0</coordinates>
    </Point>
  </Placemark>
  <Placemark>
    <name>张凤翙</name>
    <Point>
      <coordinates>108.87130108590135,34.14610159092573,0</coordinates>
    </Point>
  </Placemark>
  <Placemark>
    <name>无量佛庙</name>
    <Point>
      <coordinates>108.86944542456266,34.141620831564445,0</coordinates>
    </Point>
  </Placemark>
  <Placemark>
    <name>暗堡</name>
    <Point>
      <coordinates>108.87644609631981,34.139911847915485,0</coordinates>
    </Point>
  </Placemark>
  <Placemark>
    <name>大华秋田培育中心</name>
    <Point>
      <coordinates>108.87258126096198,34.07324013442129,0</coordinates>
    </Point>
  </Placemark>
  <Placemark>
    <name>樱花广场</name>
    <Point>
      <coordinates>108.87394160114876,34.16226819794839,0</coordinates>
    </Point>
  </Placemark>
  <Placemark>
    <name>绿地笔克国际会展中心</name>
    <Point>
      <coordinates>108.881975807798,34.193841075441675,0</coordinates>
    </Point>
  </Placemark>
  <Placemark>
    <name>云水公园</name>
    <Point>
      <coordinates>108.83555036767044,34.21560955053658,0</coordinates>
    </Point>
  </Placemark>
  <Placemark>
    <name>永阳公园</name>
    <Point>
      <coordinates>108.88750786796776,34.19815811684969,0</coordinates>
    </Point>
  </Placemark>
  <Placemark>
    <name>木塔寺生态遗址公园</name>
    <Point>
      <coordinates>108.89076318089664,34.21196615275594,0</coordinates>
    </Point>
  </Placemark>
  <Placemark>
    <name>企业壹号公园</name>
    <Point>
      <coordinates>108.86776099393026,34.17136825445498,0</coordinates>
    </Point>
  </Placemark>
  <Placemark>
    <name>陕西大会堂</name>
    <Point>
      <coordinates>108.86663591615172,34.20497416228433,0</coordinates>
    </Point>
  </Placemark>
  <Placemark>
    <name>新纪元公园</name>
    <Point>
      <coordinates>108.89147997824044,34.23140911513644,0</coordinates>
    </Point>
  </Placemark>
  <Placemark>
    <name>鱼化湖公园</name>
    <Point>
      <coordinates>108.86337560837181,34.23453617782122,0</coordinates>
    </Point>
  </Placemark>
  <Placemark>
    <name>雁塔区基督教景新礼拜堂</name>
    <Point>
      <coordinates>108.87304700279736,34.236316008311185,0</coordinates>
    </Point>
  </Placemark>
  <Placemark>
    <name>郭杜公园</name>
    <Point>
      <coordinates>108.86333250778176,34.16555751969974,0</coordinates>
    </Point>
  </Placemark>
  <Placemark>
    <name>陕西宾馆-大礼堂</name>
    <Point>
      <coordinates>108.87033655140381,34.20453123031154,0</coordinates>
    </Point>
  </Placemark>
  <Placemark>
    <name>高新锦业美术馆</name>
    <Point>
      <coordinates>108.85229967572143,34.1951278897478,0</coordinates>
    </Point>
  </Placemark>
  <Placemark>
    <name>唐城墙遗址公园</name>
    <Point>
      <coordinates>108.884223443707,34.21134340127261,0</coordinates>
    </Point>
  </Placemark>
  <Placemark>
    <name>阳光宝贝儿童游乐场</name>
    <Point>
      <coordinates>108.91527096753566,34.21119192642362,0</coordinates>
    </Point>
  </Placemark>
  <Placemark>
    <name>圣保禄堂</name>
    <Point>
      <coordinates>108.87279955521336,34.18372011620464,0</coordinates>
    </Point>
  </Placemark>
  <Placemark>
    <name>陕西宾馆18号楼-会议室</name>
    <Point>
      <coordinates>108.8679344629938,34.205478542814056,0</coordinates>
    </Point>
  </Placemark>
  <Placemark>
    <name>仓颉造字台</name>
    <Point>
      <coordinates>108.84691382731563,34.17829020300259,0</coordinates>
    </Point>
  </Placemark>
  <Placemark>
    <name>洛克公园</name>
    <Point>
      <coordinates>108.88590730818595,34.18709801615315,0</coordinates>
    </Point>
  </Placemark>
  <Placemark>
    <name>都市之门-会议中心</name>
    <Point>
      <coordinates>108.88365207184552,34.19718556141173,0</coordinates>
    </Point>
  </Placemark>
  <Placemark>
    <name>奥林匹克公园</name>
    <Point>
      <coordinates>108.87625963939641,34.204659549855776,0</coordinates>
    </Point>
  </Placemark>
  <Placemark>
    <name>大明怀远将军园</name>
    <Point>
      <coordinates>108.81716366201074,34.22418041421124,0</coordinates>
    </Point>
  </Placemark>
  <Placemark>
    <name>陕西钱币博物馆</name>
    <Point>
      <coordinates>108.90110012059309,34.23169488946277,0</coordinates>
    </Point>
  </Placemark>
  <Placemark>
    <name>关帝庙</name>
    <Point>
      <coordinates>108.85486647805293,34.23461228311016,0</coordinates>
    </Point>
  </Placemark>
  <Placemark>
    <name>台湾夜光魔幻馆</name>
    <Point>
      <coordinates>108.91296359937687,34.15949116933131,0</coordinates>
    </Point>
  </Placemark>
  <Placemark>
    <name>陕西师范大学-博物馆</name>
    <Point>
      <coordinates>108.8880751479096,34.155970182789545,0</coordinates>
    </Point>
  </Placemark>
  <Placemark>
    <name>陕西宾馆18号楼-会见厅</name>
    <Point>
      <coordinates>108.8679344629938,34.205478542814056,0</coordinates>
    </Point>
  </Placemark>
  <Placemark>
    <name>西安绿地笔克国际会展中心-4号馆</name>
    <Point>
      <coordinates>108.88100093421886,34.19401522697823,0</coordinates>
    </Point>
  </Placemark>
  <Placemark>
    <name>铁人王进喜纪念馆</name>
    <Point>
      <coordinates>108.9234608530359,34.215002453192646,0</coordinates>
    </Point>
  </Placemark>
  <Placemark>
    <name>普天禅寺</name>
    <Point>
      <coordinates>108.80836738714378,34.20716639013387,0</coordinates>
    </Point>
  </Placemark>
  <Placemark>
    <name>酷贝儿童乐园</name>
    <Point>
      <coordinates>108.9165404259153,34.23681845407826,0</coordinates>
    </Point>
  </Placemark>
  <Placemark>
    <name>西安高新大学城清真寺</name>
    <Point>
      <coordinates>108.87176864922279,34.19660523157781,0</coordinates>
    </Point>
  </Placemark>
  <Placemark>
    <name>西安市长安区博物馆</name>
    <Point>
      <coordinates>108.87485289344914,34.15856146850821,0</coordinates>
    </Point>
  </Placemark>
  <Placemark>
    <name>唐长安城城墙遗址(科技四路)</name>
    <Point>
      <coordinates>108.88413928236112,34.22195954377477,0</coordinates>
    </Point>
  </Placemark>
  <Placemark>
    <name>齐王祠堂</name>
    <Point>
      <coordinates>108.90159460989243,34.18584964667959,0</coordinates>
    </Point>
  </Placemark>
  <Placemark>
    <name>教育博物馆</name>
    <Point>
      <coordinates>108.88743485346022,34.15803850852066,0</coordinates>
    </Point>
  </Placemark>
  <Placemark>
    <name>咿呀游水上乐园</name>
    <Point>
      <coordinates>108.87460575833285,34.16542342365867,0</coordinates>
    </Point>
  </Placemark>
  <Placemark>
    <name>永阳公园-商业街</name>
    <Point>
      <coordinates>108.88678608757712,34.19951979866428,0</coordinates>
    </Point>
  </Placemark>
  <Placemark>
    <name>欢乐树儿童成长乐园</name>
    <Point>
      <coordinates>108.90793937065176,34.20491141515695,0</coordinates>
    </Point>
  </Placemark>
  <Placemark>
    <name>西安绿地笔克国际会展中心-1号馆</name>
    <Point>
      <coordinates>108.88270428545894,34.194001301647006,0</coordinates>
    </Point>
  </Placemark>
  <Placemark>
    <name>龙定寺</name>
    <Point>
      <coordinates>108.85819155071974,34.23615955988091,0</coordinates>
    </Point>
  </Placemark>
  <Placemark>
    <name>西安绿地笔克国际会展中心-3号馆</name>
    <Point>
      <coordinates>108.88162477549754,34.19404380251167,0</coordinates>
    </Point>
  </Placemark>
  <Placemark>
    <name>永威时代中心-展示厅</name>
    <Point>
      <coordinates>108.87619925598793,34.19297393200789,0</coordinates>
    </Point>
  </Placemark>
  <Placemark>
    <name>唐城墙遗址(唐延路)</name>
    <Point>
      <coordinates>108.88468896365565,34.22544524327923,0</coordinates>
    </Point>
  </Placemark>
  <Placemark>
    <name>雷峰塔</name>
    <Point>
      <coordinates>108.85733775077439,34.23565000574052,0</coordinates>
    </Point>
  </Placemark>
  <Placemark>
    <name>协同商务会议中心</name>
    <Point>
      <coordinates>108.89730733767749,34.2387261663734,0</coordinates>
    </Point>
  </Placemark>
  <Placemark>
    <name>崔振宽山水艺术馆</name>
    <Point>
      <coordinates>108.852429325671,34.19510782403299,0</coordinates>
    </Point>
  </Placemark>
  <Placemark>
    <name>西安市雁塔区鱼化基督教堂</name>
    <Point>
      <coordinates>108.85316188300251,34.23346091920621,0</coordinates>
    </Point>
  </Placemark>
  <Placemark>
    <name>西安绿地笔克国际会展中心-2号馆</name>
    <Point>
      <coordinates>108.88222980406283,34.19401091908393,0</coordinates>
    </Point>
  </Placemark>
  <Placemark>
    <name>2014国际3d魔幻艺术展</name>
    <Point>
      <coordinates>108.91242193673179,34.227274264472854,0</coordinates>
    </Point>
  </Placemark>
  <Placemark>
    <name>鱼化会议中心</name>
    <Point>
      <coordinates>108.8567119670893,34.234612708756764,0</coordinates>
    </Point>
  </Placemark>
  <Placemark>
    <name>美道艺术馆</name>
    <Point>
      <coordinates>108.89705088708826,34.23066122094914,0</coordinates>
    </Point>
  </Placemark>
  <Placemark>
    <name>长安区郭杜基督教堂</name>
    <Point>
      <coordinates>108.86764757260626,34.15748492287076,0</coordinates>
    </Point>
  </Placemark>
  <Placemark>
    <name>陕西汉唐石刻博物馆</name>
    <Point>
      <coordinates>108.88910904467942,34.230309319904755,0</coordinates>
    </Point>
  </Placemark>
  <Placemark>
    <name>美尚模型规划馆</name>
    <Point>
      <coordinates>108.85505744349491,34.158112814507106,0</coordinates>
    </Point>
  </Placemark>
  <Placemark>
    <name>西北政法大学南校区-校史馆</name>
    <Point>
      <coordinates>108.91156441181535,34.157037810710214,0</coordinates>
    </Point>
  </Placemark>
  <Placemark>
    <name>世家星城俱乐部</name>
    <Point>
      <coordinates>108.9228604648249,34.19474456843798,0</coordinates>
    </Point>
  </Placemark>
  <Placemark>
    <name>添彩少儿美术馆</name>
    <Point>
      <coordinates>108.90511104371109,34.23642205399912,0</coordinates>
    </Point>
  </Placemark>
  <Placemark>
    <name>西安电子科技大学-大礼堂</name>
    <Point>
      <coordinates>108.91206804925149,34.23202726708023,0</coordinates>
    </Point>
  </Placemark>
  <Placemark>
    <name>迪乐尼儿童乐园</name>
    <Point>
      <coordinates>108.87154290175691,34.176145958700126,0</coordinates>
    </Point>
  </Placemark>
  <Placemark>
    <name>金佛寺</name>
    <Point>
      <coordinates>108.8264208081007,34.217003550785996,0</coordinates>
    </Point>
  </Placemark>
  <Placemark>
    <name>陕西宾馆-会议厅</name>
    <Point>
      <coordinates>108.86950558006293,34.20428961735049,0</coordinates>
    </Point>
  </Placemark>
  <Placemark>
    <name>绿地笔克国际会展中心 宴会厅</name>
    <Point>
      <coordinates>108.88339614041564,34.19398884490267,0</coordinates>
    </Point>
  </Placemark>
  <Placemark>
    <name>丈八基督教会</name>
    <Point>
      <coordinates>108.86589136385847,34.20397812955254,0</coordinates>
    </Point>
  </Placemark>
  <Placemark>
    <name>陕西宾馆18号楼-多功能厅</name>
    <Point>
      <coordinates>108.8679344629938,34.205478542814056,0</coordinates>
    </Point>
  </Placemark>
  <Placemark>
    <name>水晶岛酒店会议中心</name>
    <Point>
      <coordinates>108.88227476694004,34.209996337602696,0</coordinates>
    </Point>
  </Placemark>
  <Placemark>
    <name>西安市长安区开心儿童水上主题俱乐部</name>
    <Point>
      <coordinates>108.88991327254514,34.1666355861533,0</coordinates>
    </Point>
  </Placemark>
  <Placemark>
    <name>励进海升酒店-多功能厅</name>
    <Point>
      <coordinates>108.88036016496542,34.21438841347484,0</coordinates>
    </Point>
  </Placemark>
  <Placemark>
    <name>旺座现代城-多功能厅</name>
    <Point>
      <coordinates>108.88733987059211,34.21761776562888,0</coordinates>
    </Point>
  </Placemark>
  <Placemark>
    <name>郭杜森林公园</name>
    <Point>
      <coordinates>108.85637064558658,34.156149588277295,0</coordinates>
    </Point>
  </Placemark>
  <Placemark>
    <name>西安城市生态公园展厅</name>
    <Point>
      <coordinates>108.89710835291156,34.180359791781896,0</coordinates>
    </Point>
  </Placemark>
  <Placemark>
    <name>西安市大唐青铜镜博物馆</name>
    <Point>
      <coordinates>108.8760042097236,34.184615573791135,0</coordinates>
    </Point>
  </Placemark>
  <Placemark>
    <name>西安羔羊圣华基督耶稣教会</name>
    <Point>
      <coordinates>108.89566519601486,34.2193178332873,0</coordinates>
    </Point>
  </Placemark>
  <Placemark>
    <name>游戏机</name>
    <Point>
      <coordinates>108.91302468319152,34.159324312155945,0</coordinates>
    </Point>
  </Placemark>
  <Placemark>
    <name>儿童乐园</name>
    <Point>
      <coordinates>108.85052408945259,34.17671716749764,0</coordinates>
    </Point>
  </Placemark>
  <Placemark>
    <name>绿地中心环球展厅</name>
    <Point>
      <coordinates>108.87623614781857,34.19589772223558,0</coordinates>
    </Point>
  </Placemark>
  <Placemark>
    <name>儿童乐园</name>
    <Point>
      <coordinates>108.89616799845463,34.217950342827365,0</coordinates>
    </Point>
  </Placemark>
  <Placemark>
    <name>小马涂画社区美术馆</name>
    <Point>
      <coordinates>108.89659676433818,34.22729622631387,0</coordinates>
    </Point>
  </Placemark>
  <Placemark>
    <name>王西京艺术陈列馆</name>
    <Point>
      <coordinates>108.85272943638246,34.19512529742036,0</coordinates>
    </Point>
  </Placemark>
  <Placemark>
    <name>迈科国际大厦-会议中心</name>
    <Point>
      <coordinates>108.88548912161284,34.21943866542746,0</coordinates>
    </Point>
  </Placemark>
  <Placemark>
    <name>基督教堂(丈八四路)</name>
    <Point>
      <coordinates>108.86506719830932,34.20764266500038,0</coordinates>
    </Point>
  </Placemark>
  <Placemark>
    <name>米拉儿童创意美术馆</name>
    <Point>
      <coordinates>108.92135715432265,34.21723096302567,0</coordinates>
    </Point>
  </Placemark>
  <Placemark>
    <name>双私家原生坡地公园</name>
    <Point>
      <coordinates>108.90174273039683,34.21423500854555,0</coordinates>
    </Point>
  </Placemark>
  <Placemark>
    <name>罗国士书画</name>
    <Point>
      <coordinates>108.8970217630239,34.224567908950185,0</coordinates>
    </Point>
  </Placemark>
  <Placemark>
    <name>志诚·丽柏酒店-商务中心</name>
    <Point>
      <coordinates>108.90052377290105,34.23597234430956,0</coordinates>
    </Point>
  </Placemark>
  <Placemark>
    <name>华凌景观</name>
    <Point>
      <coordinates>108.90017939544124,34.17725387576685,0</coordinates>
    </Point>
  </Placemark>
  <Placemark>
    <name>西安城市生态公园一期</name>
    <Point>
      <coordinates>108.89850410780139,34.1809424030597,0</coordinates>
    </Point>
  </Placemark>
  <Placemark>
    <name>福音堂(玫瑰印象东南)</name>
    <Point>
      <coordinates>108.86764259834213,34.15748983185328,0</coordinates>
    </Point>
  </Placemark>
  <Placemark>
    <name>郭杜街道社区文体服务中心-书画工艺展厅</name>
    <Point>
      <coordinates>108.87893318717427,34.160072248049666,0</coordinates>
    </Point>
  </Placemark>
  <Placemark>
    <name>会议楼</name>
    <Point>
      <coordinates>108.88629574149209,34.20187333187436,0</coordinates>
    </Point>
  </Placemark>
  <Placemark>
    <name>张季鸾新闻馆</name>
    <Point>
      <coordinates>108.86444082288482,34.23224652993503,0</coordinates>
    </Point>
  </Placemark>
  <Placemark>
    <name>西安李白创意酒店式公寓</name>
    <Point>
      <coordinates>108.89049642557015,34.167401240857025,0</coordinates>
    </Point>
  </Placemark>
  <Placemark>
    <name>西安文理学院-校史馆</name>
    <Point>
      <coordinates>108.90162416557547,34.21476037981048,0</coordinates>
    </Point>
  </Placemark>
  <Placemark>
    <name>陕西丈八文化艺术馆</name>
    <Point>
      <coordinates>108.85040599905889,34.20048255149257,0</coordinates>
    </Point>
  </Placemark>
  <Placemark>
    <name>重庆鲜面条</name>
    <Point>
      <coordinates>108.90609179358859,34.18256196818521,0</coordinates>
    </Point>
  </Placemark>
  <Placemark>
    <name>体育森林</name>
    <Point>
      <coordinates>108.9215248689371,34.21701910193873,0</coordinates>
    </Point>
  </Placemark>
  <Placemark>
    <name>象园雾芽</name>
    <Point>
      <coordinates>108.92224389605504,34.23027370945558,0</coordinates>
    </Point>
  </Placemark>
  <Placemark>
    <name>陕西省茶文化博物馆</name>
    <Point>
      <coordinates>108.86509007822217,34.17215707488618,0</coordinates>
    </Point>
  </Placemark>
  <Placemark>
    <name>阳光儿童乐园</name>
    <Point>
      <coordinates>108.85072300495854,34.1988219739146,0</coordinates>
    </Point>
  </Placemark>
  <Placemark>
    <name>志诚·丽柏酒店-会议中心</name>
    <Point>
      <coordinates>108.90052377302713,34.23597334400438,0</coordinates>
    </Point>
  </Placemark>
  <Placemark>
    <name>优诺儿童乐园</name>
    <Point>
      <coordinates>108.8627049125882,34.21998908028025,0</coordinates>
    </Point>
  </Placemark>
  <Placemark>
    <name>高新水晶SOHO展示中心</name>
    <Point>
      <coordinates>108.89599181248674,34.22500978674773,0</coordinates>
    </Point>
  </Placemark>
  <Placemark>
    <name>郭北老关庙</name>
    <Point>
      <coordinates>108.8691377904967,34.15934166414696,0</coordinates>
    </Point>
  </Placemark>
  <Placemark>
    <name>会议厅</name>
    <Point>
      <coordinates>108.88689215545432,34.15646654975839,0</coordinates>
    </Point>
  </Placemark>
  <Placemark>
    <name>谷神杨戬</name>
    <Point>
      <coordinates>108.902182112049,34.235592314969736,0</coordinates>
    </Point>
  </Placemark>
  <Placemark>
    <name>方园音教</name>
    <Point>
      <coordinates>108.89596599520006,34.23513479316039,0</coordinates>
    </Point>
  </Placemark>
  <Placemark>
    <name>栒邑传奇饸饹</name>
    <Point>
      <coordinates>108.91119812921441,34.203817623131116,0</coordinates>
    </Point>
  </Placemark>
  <Placemark>
    <name>钱学森生平业绩展览馆</name>
    <Point>
      <coordinates>108.87714191436974,34.17882550437339,0</coordinates>
    </Point>
  </Placemark>
  <Placemark>
    <name>楼观</name>
    <Point>
      <coordinates>108.899689499364,34.161793118736846,0</coordinates>
    </Point>
  </Placemark>
  <Placemark>
    <name>陕西金石书画院</name>
    <Point>
      <coordinates>108.88119814579554,34.22757411893434,0</coordinates>
    </Point>
  </Placemark>
  <Placemark>
    <name>旅游百事通(NO.7579)</name>
    <Point>
      <coordinates>108.84502114592742,34.20183483520717,0</coordinates>
    </Point>
  </Placemark>
  <Placemark>
    <name>绿地中心展示厅</name>
    <Point>
      <coordinates>108.88521120267687,34.19850801848768,0</coordinates>
    </Point>
  </Placemark>
  <Placemark>
    <name>大头儿子和小头爸爸儿童主题乐园</name>
    <Point>
      <coordinates>108.89853007184304,34.222169717117545,0</coordinates>
    </Point>
  </Placemark>
  <Placemark>
    <name>博龙现代收藏品博物馆</name>
    <Point>
      <coordinates>108.88552246398929,34.237754383667735,0</coordinates>
    </Point>
  </Placemark>
  <Placemark>
    <name>周宋村村史展览馆</name>
    <Point>
      <coordinates>108.81569358858161,34.22422456836855,0</coordinates>
    </Point>
  </Placemark>
  <Placemark>
    <name>齐鲁艺术馆</name>
    <Point>
      <coordinates>108.90818365831225,34.224473084158,0</coordinates>
    </Point>
  </Placemark>
  <Placemark>
    <name>天朗森柏大酒店-百合厅</name>
    <Point>
      <coordinates>108.86722170416836,34.23772783904936,0</coordinates>
    </Point>
  </Placemark>
  <Placemark>
    <name>西部名家艺术馆</name>
    <Point>
      <coordinates>108.8958758062821,34.225122793651025,0</coordinates>
    </Point>
  </Placemark>
  <Placemark>
    <name>鱼化龙书院</name>
    <Point>
      <coordinates>108.85900640721103,34.229424140165996,0</coordinates>
    </Point>
  </Placemark>
  <Placemark>
    <name>百事特威酒店-会议室</name>
    <Point>
      <coordinates>108.8818204242215,34.212949248163,0</coordinates>
    </Point>
  </Placemark>
  <Placemark>
    <name>徐义生艺术馆</name>
    <Point>
      <coordinates>108.85271948217714,34.19510915783434,0</coordinates>
    </Point>
  </Placemark>
  <Placemark>
    <name>星光儿童乐园</name>
    <Point>
      <coordinates>108.90329554361126,34.2031429732322,0</coordinates>
    </Point>
  </Placemark>
  <Placemark>
    <name>万鼎工作室</name>
    <Point>
      <coordinates>108.88299788099631,34.23812124488825,0</coordinates>
    </Point>
  </Placemark>
  <Placemark>
    <name>園頂雲</name>
    <Point>
      <coordinates>108.89197881091211,34.22009900379111,0</coordinates>
    </Point>
  </Placemark>
  <Placemark>
    <name>佛玉禅阁</name>
    <Point>
      <coordinates>108.8449195453603,34.199713195647384,0</coordinates>
    </Point>
  </Placemark>
  <Placemark>
    <name>上林文化艺术</name>
    <Point>
      <coordinates>108.89965546715,34.16450980876452,0</coordinates>
    </Point>
  </Placemark>
  <Placemark>
    <name>京作楠木艺术馆</name>
    <Point>
      <coordinates>108.89560014054145,34.20065444695487,0</coordinates>
    </Point>
  </Placemark>
  <Placemark>
    <name>汉城湖</name>
    <Point>
      <coordinates>108.91542452280967,34.32253307584676,0</coordinates>
    </Point>
  </Placemark>
  <Placemark>
    <name>西安大唐西市文化景区</name>
    <Point>
      <coordinates>108.90177481378171,34.24661824091082,0</coordinates>
    </Point>
  </Placemark>
  <Placemark>
    <name>玉祥门</name>
    <Point>
      <coordinates>108.92076272717443,34.271257517415286,0</coordinates>
    </Point>
  </Placemark>
  <Placemark>
    <name>丰庆公园</name>
    <Point>
      <coordinates>108.89398825171124,34.249560882719166,0</coordinates>
    </Point>
  </Placemark>
  <Placemark>
    <name>广仁寺</name>
    <Point>
      <coordinates>108.92125589884665,34.27616708464961,0</coordinates>
    </Point>
  </Placemark>
  <Placemark>
    <name>汉长安城未央宫遗址</name>
    <Point>
      <coordinates>108.85824607339627,34.30349034779644,0</coordinates>
    </Point>
  </Placemark>
  <Placemark>
    <name>劳动公园</name>
    <Point>
      <coordinates>108.89974008777115,34.266682349479915,0</coordinates>
    </Point>
  </Placemark>
  <Placemark>
    <name>阿房宫遗址</name>
    <Point>
      <coordinates>108.8231854639936,34.26657804500266,0</coordinates>
    </Point>
  </Placemark>
  <Placemark>
    <name>红光公园</name>
    <Point>
      <coordinates>108.83692095825229,34.2646857258962,0</coordinates>
    </Point>
  </Placemark>
  <Placemark>
    <name>陕西省地图</name>
    <Point>
      <coordinates>108.91946752720443,34.253072588289406,0</coordinates>
    </Point>
  </Placemark>
  <Placemark>
    <name>汉城湖游乐场</name>
    <Point>
      <coordinates>108.90813935898183,34.299767918472625,0</coordinates>
    </Point>
  </Placemark>
  <Placemark>
    <name>丝绸群雕</name>
    <Point>
      <coordinates>108.87694703904324,34.27091478090447,0</coordinates>
    </Point>
  </Placemark>
  <Placemark>
    <name>大风阁</name>
    <Point>
      <coordinates>108.91423972198328,34.30027029666477,0</coordinates>
    </Point>
  </Placemark>
  <Placemark>
    <name>安定门</name>
    <Point>
      <coordinates>108.92080696284215,34.261063613104184,0</coordinates>
    </Point>
  </Placemark>
  <Placemark>
    <name>土门小树林公园</name>
    <Point>
      <coordinates>108.87756945808077,34.266159544947364,0</coordinates>
    </Point>
  </Placemark>
  <Placemark>
    <name>西安牡丹苑</name>
    <Point>
      <coordinates>108.88417651599634,34.25030714585829,0</coordinates>
    </Point>
  </Placemark>
  <Placemark>
    <name>阿房宫遗址前殿</name>
    <Point>
      <coordinates>108.80361143561333,34.26561189452436,0</coordinates>
    </Point>
  </Placemark>
  <Placemark>
    <name>太奥·幻太奇海洋馆</name>
    <Point>
      <coordinates>108.89132420488481,34.28346436823077,0</coordinates>
    </Point>
  </Placemark>
  <Placemark>
    <name>西安美都艺术博物馆</name>
    <Point>
      <coordinates>108.86588396612373,34.31432225994551,0</coordinates>
    </Point>
  </Placemark>
  <Placemark>
    <name>汉长安城霸城门遗址</name>
    <Point>
      <coordinates>108.91349784468706,34.314975198588485,0</coordinates>
    </Point>
  </Placemark>
  <Placemark>
    <name>无极公园</name>
    <Point>
      <coordinates>108.92205412617298,34.25431293183571,0</coordinates>
    </Point>
  </Placemark>
  <Placemark>
    <name>新西北清真寺</name>
    <Point>
      <coordinates>108.84970375358316,34.27394807635207,0</coordinates>
    </Point>
  </Placemark>
  <Placemark>
    <name>汉太液池遗址</name>
    <Point>
      <coordinates>108.82684560012251,34.31237104205186,0</coordinates>
    </Point>
  </Placemark>
  <Placemark>
    <name>西安市环城公园玉祥门景区-南区</name>
    <Point>
      <coordinates>108.92028800365964,34.271068873988845,0</coordinates>
    </Point>
  </Placemark>
  <Placemark>
    <name>西北大学-博物馆</name>
    <Point>
      <coordinates>108.92127854755498,34.2518529904832,0</coordinates>
    </Point>
  </Placemark>
  <Placemark>
    <name>劳动公园体能乐园</name>
    <Point>
      <coordinates>108.8990715651323,34.266401871886615,0</coordinates>
    </Point>
  </Placemark>
  <Placemark>
    <name>唐大理寺遗址</name>
    <Point>
      <coordinates>108.92224891625108,34.26123793586476,0</coordinates>
    </Point>
  </Placemark>
  <Placemark>
    <name>汉城湖旅游风景区-封禅门</name>
    <Point>
      <coordinates>108.91656816360867,34.32242296972896,0</coordinates>
    </Point>
  </Placemark>
  <Placemark>
    <name>讲武殿</name>
    <Point>
      <coordinates>108.88478341568299,34.313649269529435,0</coordinates>
    </Point>
  </Placemark>
  <Placemark>
    <name>西安国际美术城美术馆</name>
    <Point>
      <coordinates>108.88322760910621,34.24619094033286,0</coordinates>
    </Point>
  </Placemark>
  <Placemark>
    <name>天主教西安教区圣安多尼堂(西堂)</name>
    <Point>
      <coordinates>108.87066647931599,34.25871019187173,0</coordinates>
    </Point>
  </Placemark>
  <Placemark>
    <name>长乐宫遗址</name>
    <Point>
      <coordinates>108.86594390795156,34.314110516060495,0</coordinates>
    </Point>
  </Placemark>
  <Placemark>
    <name>汉城房车露营地</name>
    <Point>
      <coordinates>108.91180848279323,34.30701787275978,0</coordinates>
    </Point>
  </Placemark>
  <Placemark>
    <name>汉城湖旅游风景区-汉武大帝雕像</name>
    <Point>
      <coordinates>108.91417155331186,34.32182384238034,0</coordinates>
    </Point>
  </Placemark>
  <Placemark>
    <name>汉建章宫遗址</name>
    <Point>
      <coordinates>108.83346985498974,34.30865921196494,0</coordinates>
    </Point>
  </Placemark>
  <Placemark>
    <name>汉长安城城墙遗址</name>
    <Point>
      <coordinates>108.84517604624212,34.29482161838859,0</coordinates>
    </Point>
  </Placemark>
  <Placemark>
    <name>天朗城市公园</name>
    <Point>
      <coordinates>108.9105167129807,34.271156861865734,0</coordinates>
    </Point>
  </Placemark>
  <Placemark>
    <name>南方酒店玉祥门分店-商务中心</name>
    <Point>
      <coordinates>108.91394443503502,34.271663310901154,0</coordinates>
    </Point>
  </Placemark>
  <Placemark>
    <name>西安市丰庆公园-游乐场</name>
    <Point>
      <coordinates>108.89369608610234,34.251688189786016,0</coordinates>
    </Point>
  </Placemark>
  <Placemark>
    <name>汉城湖旅游风景区-汉城湖安门广场</name>
    <Point>
      <coordinates>108.8864599392891,34.29162223382997,0</coordinates>
    </Point>
  </Placemark>
  <Placemark>
    <name>儿童游乐园</name>
    <Point>
      <coordinates>108.91038421057989,34.300379832195155,0</coordinates>
    </Point>
  </Placemark>
  <Placemark>
    <name>西安市环城公园玉祥门景区</name>
    <Point>
      <coordinates>108.92039420304542,34.266158496179074,0</coordinates>
    </Point>
  </Placemark>
  <Placemark>
    <name>沣东文化广场</name>
    <Point>
      <coordinates>108.81025991379835,34.26068616269041,0</coordinates>
    </Point>
  </Placemark>
  <Placemark>
    <name>汉城湖国家水利风景区</name>
    <Point>
      <coordinates>108.88724106239935,34.291615336821096,0</coordinates>
    </Point>
  </Placemark>
  <Placemark>
    <name>西安市莲湖区土门基督教礼拜堂</name>
    <Point>
      <coordinates>108.87764518502156,34.2574215075366,0</coordinates>
    </Point>
  </Placemark>
  <Placemark>
    <name>上天台遗址</name>
    <Point>
      <coordinates>108.82456635066929,34.266929238314724,0</coordinates>
    </Point>
  </Placemark>
  <Placemark>
    <name>飞鱼水族馆</name>
    <Point>
      <coordinates>108.86587636456855,34.24897085427173,0</coordinates>
    </Point>
  </Placemark>
  <Placemark>
    <name>建章宫遗址</name>
    <Point>
      <coordinates>108.83694943298046,34.306718047473424,0</coordinates>
    </Point>
  </Placemark>
  <Placemark>
    <name>西安门遗址</name>
    <Point>
      <coordinates>108.86104175397067,34.29478377430221,0</coordinates>
    </Point>
  </Placemark>
  <Placemark>
    <name>秦阿房宫遗址展览馆</name>
    <Point>
      <coordinates>108.80739997977919,34.26042972782973,0</coordinates>
    </Point>
  </Placemark>
  <Placemark>
    <name>基督教新西北教会</name>
    <Point>
      <coordinates>108.84988129172007,34.26999503078646,0</coordinates>
    </Point>
  </Placemark>
  <Placemark>
    <name>醉观湘西</name>
    <Point>
      <coordinates>108.89824088723405,34.29198339156705,0</coordinates>
    </Point>
  </Placemark>
  <Placemark>
    <name>兴庆宫</name>
    <Point>
      <coordinates>108.89469905291932,34.25957154946065,0</coordinates>
    </Point>
  </Placemark>
  <Placemark>
    <name>奇幻美术体验馆</name>
    <Point>
      <coordinates>108.90078594295133,34.28836811499207,0</coordinates>
    </Point>
  </Placemark>
  <Placemark>
    <name>安定门南洞</name>
    <Point>
      <coordinates>108.92057243185263,34.260237797024786,0</coordinates>
    </Point>
  </Placemark>
  <Placemark>
    <name>3D魔术艺术馆</name>
    <Point>
      <coordinates>108.9052775696454,34.24703624059718,0</coordinates>
    </Point>
  </Placemark>
  <Placemark>
    <name>迪迪尼儿童欢乐谷</name>
    <Point>
      <coordinates>108.84271916979493,34.276182653422076,0</coordinates>
    </Point>
  </Placemark>
  <Placemark>
    <name>大唐西市艺术馆精品会展</name>
    <Point>
      <coordinates>108.90304051511865,34.24871777293457,0</coordinates>
    </Point>
  </Placemark>
  <Placemark>
    <name>清真寺</name>
    <Point>
      <coordinates>108.91353870418362,34.25267890166807,0</coordinates>
    </Point>
  </Placemark>
  <Placemark>
    <name>大秦温泉养生苑-阿房宫办公会议中心</name>
    <Point>
      <coordinates>108.82612750401643,34.26722873863118,0</coordinates>
    </Point>
  </Placemark>
  <Placemark>
    <name>西安水土保持科普体验馆</name>
    <Point>
      <coordinates>108.9142178261555,34.29993482010222,0</coordinates>
    </Point>
  </Placemark>
  <Placemark>
    <name>汉长安城遗址陈列馆</name>
    <Point>
      <coordinates>108.85761695891698,34.304273990534135,0</coordinates>
    </Point>
  </Placemark>
  <Placemark>
    <name>中华民俗博物馆</name>
    <Point>
      <coordinates>108.80985496313306,34.274769700296396,0</coordinates>
    </Point>
  </Placemark>
  <Placemark>
    <name>怀德坊</name>
    <Point>
      <coordinates>108.88427911398935,34.248768383758744,0</coordinates>
    </Point>
  </Placemark>
  <Placemark>
    <name>梦湖</name>
    <Point>
      <coordinates>108.9189435573974,34.262978844144705,0</coordinates>
    </Point>
  </Placemark>
  <Placemark>
    <name>于右任书法艺术博物馆</name>
    <Point>
      <coordinates>108.88539140729195,34.24251703298314,0</coordinates>
    </Point>
  </Placemark>
  <Placemark>
    <name>西安广成大酒店-会议厅</name>
    <Point>
      <coordinates>108.9059263364005,34.25581430586862,0</coordinates>
    </Point>
  </Placemark>
  <Placemark>
    <name>斯马兰儿童乐园</name>
    <Point>
      <coordinates>108.83835531099325,34.24975648883038,0</coordinates>
    </Point>
  </Placemark>
  <Placemark>
    <name>汉城湖旅游风景区(出入口)</name>
    <Point>
      <coordinates>108.91498137689015,34.309526957345625,0</coordinates>
    </Point>
  </Placemark>
  <Placemark>
    <name>古琴茶艺插花禅韵琴社(高新店)</name>
    <Point>
      <coordinates>108.88013079571284,34.24394958789095,0</coordinates>
    </Point>
  </Placemark>
  <Placemark>
    <name>讲武殿城门遗址</name>
    <Point>
      <coordinates>108.87842651516283,34.3108146339946,0</coordinates>
    </Point>
  </Placemark>
  <Placemark>
    <name>汉长安城城墙东南角遗址</name>
    <Point>
      <coordinates>108.9133405145587,34.3014149080113,0</coordinates>
    </Point>
  </Placemark>
  <Placemark>
    <name>海豚湾婴幼水上乐园</name>
    <Point>
      <coordinates>108.8374732336243,34.29851386436902,0</coordinates>
    </Point>
  </Placemark>
  <Placemark>
    <name>环城西苑公园</name>
    <Point>
      <coordinates>108.91894100096009,34.26569568436738,0</coordinates>
    </Point>
  </Placemark>
  <Placemark>
    <name>七星城展示中心</name>
    <Point>
      <coordinates>108.84931819224558,34.23961066623378,0</coordinates>
    </Point>
  </Placemark>
  <Placemark>
    <name>汉长安城遗址天禄阁</name>
    <Point>
      <coordinates>108.8588476077158,34.313060383144595,0</coordinates>
    </Point>
  </Placemark>
  <Placemark>
    <name>壹道巷</name>
    <Point>
      <coordinates>108.91971735287827,34.25661397482498,0</coordinates>
    </Point>
  </Placemark>
  <Placemark>
    <name>宝兴寺(丰景路)</name>
    <Point>
      <coordinates>108.88288295507415,34.31477491223004,0</coordinates>
    </Point>
  </Placemark>
  <Placemark>
    <name>湖心岛-汉城湖北区</name>
    <Point>
      <coordinates>108.91462314806444,34.32064795018648,0</coordinates>
    </Point>
  </Placemark>
  <Placemark>
    <name>汉长安城遗址-后城阁</name>
    <Point>
      <coordinates>108.84792027455353,34.31444349926612,0</coordinates>
    </Point>
  </Placemark>
  <Placemark>
    <name>大兴西路基督教礼拜堂</name>
    <Point>
      <coordinates>108.88055973179715,34.28738094430817,0</coordinates>
    </Point>
  </Placemark>
  <Placemark>
    <name>金湖游船</name>
    <Point>
      <coordinates>108.89238636874325,34.24886467584594,0</coordinates>
    </Point>
  </Placemark>
  <Placemark>
    <name>丰庆公园-东门自行车租赁点</name>
    <Point>
      <coordinates>108.89625345143196,34.24879755165559,0</coordinates>
    </Point>
  </Placemark>
  <Placemark>
    <name>星工场音乐艺术中心(西工大店)</name>
    <Point>
      <coordinates>108.91240015150959,34.240416150263,0</coordinates>
    </Point>
  </Placemark>
  <Placemark>
    <name>孔子</name>
    <Point>
      <coordinates>108.92309007349377,34.249892713530514,0</coordinates>
    </Point>
  </Placemark>
  <Placemark>
    <name>梦庐艺术馆</name>
    <Point>
      <coordinates>108.8375468248911,34.312597904943104,0</coordinates>
    </Point>
  </Placemark>
  <Placemark>
    <name>汉长安城未央宫遗址-村寨印记</name>
    <Point>
      <coordinates>108.86326561539563,34.30094601031433,0</coordinates>
    </Point>
  </Placemark>
  <Placemark>
    <name>阿房宫遗址上天台遗址-贤仁阁</name>
    <Point>
      <coordinates>108.82320161178998,34.26552700393475,0</coordinates>
    </Point>
  </Placemark>
  <Placemark>
    <name>开元殿</name>
    <Point>
      <coordinates>108.89277561360795,34.24983956449235,0</coordinates>
    </Point>
  </Placemark>
  <Placemark>
    <name>关帝庙(聚馨佳苑小区西南)</name>
    <Point>
      <coordinates>108.9146091660875,34.28073570672854,0</coordinates>
    </Point>
  </Placemark>
  <Placemark>
    <name>基督教会(大兴西路小区西南)</name>
    <Point>
      <coordinates>108.88045080308991,34.28572412224369,0</coordinates>
    </Point>
  </Placemark>
  <Placemark>
    <name>大唐西市售楼中心</name>
    <Point>
      <coordinates>108.9016506284459,34.24649998428575,0</coordinates>
    </Point>
  </Placemark>
  <Placemark>
    <name>西安市环城公园玉祥门景区-北区</name>
    <Point>
      <coordinates>108.91998455766914,34.27177808311222,0</coordinates>
    </Point>
  </Placemark>
  <Placemark>
    <name>天翼新商务酒店-天翼国际会议中心</name>
    <Point>
      <coordinates>108.88607495141763,34.26708995928447,0</coordinates>
    </Point>
  </Placemark>
  <Placemark>
    <name>三圣寺</name>
    <Point>
      <coordinates>108.84105100568347,34.30240193580297,0</coordinates>
    </Point>
  </Placemark>
  <Placemark>
    <name>邑城庸</name>
    <Point>
      <coordinates>108.9210412080849,34.25365102618865,0</coordinates>
    </Point>
  </Placemark>
  <Placemark>
    <name>天朗美术馆</name>
    <Point>
      <coordinates>108.89649499265357,34.28885385838668,0</coordinates>
    </Point>
  </Placemark>
  <Placemark>
    <name>阿房宫陵园</name>
    <Point>
      <coordinates>108.81996769709617,34.27032987208142,0</coordinates>
    </Point>
  </Placemark>
  <Placemark>
    <name>汉城湖(南区)</name>
    <Point>
      <coordinates>108.91546563913232,34.31193068057601,0</coordinates>
    </Point>
  </Placemark>
  <Placemark>
    <name>艺象树创意美术馆</name>
    <Point>
      <coordinates>108.90508192635436,34.25696285834334,0</coordinates>
    </Point>
  </Placemark>
  <Placemark>
    <name>唐代梨园遗址</name>
    <Point>
      <coordinates>108.89962889915716,34.297867977007094,0</coordinates>
    </Point>
  </Placemark>
  <Placemark>
    <name>天主教西安教区圣安多尼堂</name>
    <Point>
      <coordinates>108.87046742907863,34.25875668582188,0</coordinates>
    </Point>
  </Placemark>
  <Placemark>
    <name>汉长安城长乐宫五号建筑遗址博物馆</name>
    <Point>
      <coordinates>108.89128069479358,34.31642003206321,0</coordinates>
    </Point>
  </Placemark>
  <Placemark>
    <name>凤栖山北区人文纪念园</name>
    <Point>
      <coordinates>108.88603296463182,34.26585973197603,0</coordinates>
    </Point>
  </Placemark>
  <Placemark>
    <name>大唐西市艺术品中心</name>
    <Point>
      <coordinates>108.9031167561161,34.248935207443274,0</coordinates>
    </Point>
  </Placemark>
  <Placemark>
    <name>童心园儿童基地</name>
    <Point>
      <coordinates>108.87298030389562,34.26114974603613,0</coordinates>
    </Point>
  </Placemark>
  <Placemark>
    <name>乐翔儿童主题乐园</name>
    <Point>
      <coordinates>108.87218570470807,34.249197636552594,0</coordinates>
    </Point>
  </Placemark>
  <Placemark>
    <name>花海戏鱼</name>
    <Point>
      <coordinates>108.91462158105205,34.308034525782055,0</coordinates>
    </Point>
  </Placemark>
  <Placemark>
    <name>仁义巷</name>
    <Point>
      <coordinates>108.91962150726235,34.25484377322314,0</coordinates>
    </Point>
  </Placemark>
  <Placemark>
    <name>西安青年艺术馆</name>
    <Point>
      <coordinates>108.8575675289513,34.24701132895123,0</coordinates>
    </Point>
  </Placemark>
  <Placemark>
    <name>公园天下-11栋</name>
    <Point>
      <coordinates>108.89799902096996,34.251200392024444,0</coordinates>
    </Point>
  </Placemark>
  <Placemark>
    <name>钟乳石</name>
    <Point>
      <coordinates>108.92098459177708,34.24920449337771,0</coordinates>
    </Point>
  </Placemark>
  <Placemark>
    <name>丰庆公园-西门自行车租赁点</name>
    <Point>
      <coordinates>108.89025631210245,34.25013441809927,0</coordinates>
    </Point>
  </Placemark>
  <Placemark>
    <name>卡乐奇宝贝乐园</name>
    <Point>
      <coordinates>108.87478137751336,34.24453245178429,0</coordinates>
    </Point>
  </Placemark>
  <Placemark>
    <name>月亮桥</name>
    <Point>
      <coordinates>108.9200199918553,34.25733866357882,0</coordinates>
    </Point>
  </Placemark>
  <Placemark>
    <name>劳动公园-东门自行车租赁点</name>
    <Point>
      <coordinates>108.9007426030843,34.267731740399654,0</coordinates>
    </Point>
  </Placemark>
  <Placemark>
    <name>西北大学太白校区-紫藤园</name>
    <Point>
      <coordinates>108.92156307512367,34.24998513335025,0</coordinates>
    </Point>
  </Placemark>
  <Placemark>
    <name>金桥国际展示中心</name>
    <Point>
      <coordinates>108.82678858005741,34.29048643278787,0</coordinates>
    </Point>
  </Placemark>
  <Placemark>
    <name>自卸车洒水车</name>
    <Point>
      <coordinates>108.84499584403491,34.288177704538704,0</coordinates>
    </Point>
  </Placemark>
  <Placemark>
    <name>结缘寺</name>
    <Point>
      <coordinates>108.80566849724556,34.2963164983462,0</coordinates>
    </Point>
  </Placemark>
  <Placemark>
    <name>恩泽园</name>
    <Point>
      <coordinates>108.92186806553579,34.30013628064594,0</coordinates>
    </Point>
  </Placemark>
  <Placemark>
    <name>西北大学桃园校区-会议中心</name>
    <Point>
      <coordinates>108.89042387318072,34.241004843764316,0</coordinates>
    </Point>
  </Placemark>
  <Placemark>
    <name>安定门箭楼</name>
    <Point>
      <coordinates>108.92015081399897,34.259995197361015,0</coordinates>
    </Point>
  </Placemark>
  <Placemark>
    <name>玉蜓桥</name>
    <Point>
      <coordinates>108.88728497616917,34.29915397512465,0</coordinates>
    </Point>
  </Placemark>
  <Placemark>
    <name>兰池</name>
    <Point>
      <coordinates>108.80991083500922,34.25658855603739,0</coordinates>
    </Point>
  </Placemark>
  <Placemark>
    <name>实际寺纪念亭碑</name>
    <Point>
      <coordinates>108.92284050478717,34.248853351090105,0</coordinates>
    </Point>
  </Placemark>
  <Placemark>
    <name>九龙山公墓(三桥办事处)</name>
    <Point>
      <coordinates>108.83748945066012,34.30190694852597,0</coordinates>
    </Point>
  </Placemark>
  <Placemark>
    <name>顺清古法中推</name>
    <Point>
      <coordinates>108.88402626653244,34.257898793556535,0</coordinates>
    </Point>
  </Placemark>
  <Placemark>
    <name>安定门北洞</name>
    <Point>
      <coordinates>108.9206107901459,34.26158803122787,0</coordinates>
    </Point>
  </Placemark>
  <Placemark>
    <name>蓝溪国际酒店会议中心</name>
    <Point>
      <coordinates>108.89421225122636,34.240774754004065,0</coordinates>
    </Point>
  </Placemark>
  <Placemark>
    <name>齐天大圣串串(玉祥门店)</name>
    <Point>
      <coordinates>108.91147847891168,34.27153422279156,0</coordinates>
    </Point>
  </Placemark>
  <Placemark>
    <name>康吉水族馆</name>
    <Point>
      <coordinates>108.86582775677898,34.24920892640762,0</coordinates>
    </Point>
  </Placemark>
  <Placemark>
    <name>汉长安城长乐宫四号建筑遗址博物馆</name>
    <Point>
      <coordinates>108.88928287222872,34.31749970473341,0</coordinates>
    </Point>
  </Placemark>
  <Placemark>
    <name>吉祥湖游船</name>
    <Point>
      <coordinates>108.89441212713511,34.249842317213485,0</coordinates>
    </Point>
  </Placemark>
  <Placemark>
    <name>神明台</name>
    <Point>
      <coordinates>108.90892986583029,34.300213657538215,0</coordinates>
    </Point>
  </Placemark>
  <Placemark>
    <name>栓马桩</name>
    <Point>
      <coordinates>108.91968995983927,34.261826085791995,0</coordinates>
    </Point>
  </Placemark>
  <Placemark>
    <name>西北联大纪念碑</name>
    <Point>
      <coordinates>108.92106540292264,34.251290826014454,0</coordinates>
    </Point>
  </Placemark>
  <Placemark>
    <name>丫丫儿童乐园</name>
    <Point>
      <coordinates>108.83748857393333,34.30471218195835,0</coordinates>
    </Point>
  </Placemark>
  <Placemark>
    <name>西北工业大学-航空发动机陈列室</name>
    <Point>
      <coordinates>108.90775533348692,34.24379634577876,0</coordinates>
    </Point>
  </Placemark>
  <Placemark>
    <name>刘海滨</name>
    <Point>
      <coordinates>108.90933342099528,34.244975123788976,0</coordinates>
    </Point>
  </Placemark>
  <Placemark>
    <name>西安市未央区和平村志愿消防站</name>
    <Point>
      <coordinates>108.82099881249977,34.256220621401646,0</coordinates>
    </Point>
  </Placemark>
  <Placemark>
    <name>南宫墙遗址</name>
    <Point>
      <coordinates>108.85856891129293,34.29469983145744,0</coordinates>
    </Point>
  </Placemark>
  <Placemark>
    <name>老景点</name>
    <Point>
      <coordinates>108.88316584135441,34.25196643170728,0</coordinates>
    </Point>
  </Placemark>
  <Placemark>
    <name>天翼新商务酒店-商务中心</name>
    <Point>
      <coordinates>108.8860749522971,34.26709095918447,0</coordinates>
    </Point>
  </Placemark>
  <Placemark>
    <name>望长安展示中心</name>
    <Point>
      <coordinates>108.91915432593656,34.293949165950806,0</coordinates>
    </Point>
  </Placemark>
  <Placemark>
    <name>栓马桥</name>
    <Point>
      <coordinates>108.9193838192287,34.26168138316904,0</coordinates>
    </Point>
  </Placemark>
  <Placemark>
    <name>百龙园公墓</name>
    <Point>
      <coordinates>108.8791758641769,34.26465634232111,0</coordinates>
    </Point>
  </Placemark>
  <Placemark>
    <name>弘德园</name>
    <Point>
      <coordinates>108.82588101432974,34.27423638791343,0</coordinates>
    </Point>
  </Placemark>
  <Placemark>
    <name>张伯声</name>
    <Point>
      <coordinates>108.92078498028619,34.24927600850277,0</coordinates>
    </Point>
  </Placemark>
  <Placemark>
    <name>蓝景水族馆</name>
    <Point>
      <coordinates>108.86564848595697,34.249085650913194,0</coordinates>
    </Point>
  </Placemark>
  <Placemark>
    <name>西城墙环涂遗址</name>
    <Point>
      <coordinates>108.84552039884306,34.30876277318663,0</coordinates>
    </Point>
  </Placemark>
  <Placemark>
    <name>天佑国际酒店-西岳厅</name>
    <Point>
      <coordinates>108.88451639461803,34.2574037037925,0</coordinates>
    </Point>
  </Placemark>
  <Placemark>
    <name>皕庆亭纪念碑</name>
    <Point>
      <coordinates>108.92191276342582,34.2506938110852,0</coordinates>
    </Point>
  </Placemark>
  <Placemark>
    <name>戏水轩</name>
    <Point>
      <coordinates>108.89254019695984,34.24887609543031,0</coordinates>
    </Point>
  </Placemark>
  <Placemark>
    <name>绿萝园</name>
    <Point>
      <coordinates>108.9042962602775,34.247347509800996,0</coordinates>
    </Point>
  </Placemark>
  <Placemark>
    <name>天佑国际酒店-太白厅</name>
    <Point>
      <coordinates>108.88451639461803,34.2574037037925,0</coordinates>
    </Point>
  </Placemark>
  <Placemark>
    <name>十二生肖</name>
    <Point>
      <coordinates>108.91910607725339,34.264065985690024,0</coordinates>
    </Point>
  </Placemark>
  <Placemark>
    <name>岳劼恒</name>
    <Point>
      <coordinates>108.92099224110092,34.250069254870894,0</coordinates>
    </Point>
  </Placemark>
  <Placemark>
    <name>中欧画廊</name>
    <Point>
      <coordinates>108.88554140947497,34.25835615885715,0</coordinates>
    </Point>
  </Placemark>
  <Placemark>
    <name>硅化木</name>
    <Point>
      <coordinates>108.92083407305236,34.24917715493776,0</coordinates>
    </Point>
  </Placemark>
  <Placemark>
    <name>儿童主题乐园</name>
    <Point>
      <coordinates>108.88138788161156,34.28768710998719,0</coordinates>
    </Point>
  </Placemark>
  <Placemark>
    <name>汉韵园</name>
    <Point>
      <coordinates>108.90338590021283,34.32106180665361,0</coordinates>
    </Point>
  </Placemark>
  <Placemark>
    <name>少府遗址</name>
    <Point>
      <coordinates>108.85274093994322,34.30883507320697,0</coordinates>
    </Point>
  </Placemark>
  <Placemark>
    <name>伊朗馆</name>
    <Point>
      <coordinates>108.90213335158427,34.24693002367504,0</coordinates>
    </Point>
  </Placemark>
  <Placemark>
    <name>展览区</name>
    <Point>
      <coordinates>108.90177105121894,34.24700820151611,0</coordinates>
    </Point>
  </Placemark>
  <Placemark>
    <name>杨钟健</name>
    <Point>
      <coordinates>108.9211240479443,34.24919502675058,0</coordinates>
    </Point>
  </Placemark>
  <Placemark>
    <name>汉中冷锅鱼</name>
    <Point>
      <coordinates>108.88939573957704,34.24707542474829,0</coordinates>
    </Point>
  </Placemark>
  <Placemark>
    <name>展华会展</name>
    <Point>
      <coordinates>108.9149835532322,34.322198191622654,0</coordinates>
    </Point>
  </Placemark>
  <Placemark>
    <name>瓦当印象</name>
    <Point>
      <coordinates>108.89343172384831,34.29949957344151,0</coordinates>
    </Point>
  </Placemark>
  <Placemark>
    <name>油饼</name>
    <Point>
      <coordinates>108.85115545748178,34.274358863898875,0</coordinates>
    </Point>
  </Placemark>
  <Placemark>
    <name>三圣佛殿</name>
    <Point>
      <coordinates>108.85930034960903,34.28059385143075,0</coordinates>
    </Point>
  </Placemark>
  <Placemark>
    <name>金海书画艺术馆</name>
    <Point>
      <coordinates>108.83747996613329,34.304151512531234,0</coordinates>
    </Point>
  </Placemark>
  <Placemark>
    <name>苗多宝活肤堂(第330分店)</name>
    <Point>
      <coordinates>108.82715882283222,34.28660089915172,0</coordinates>
    </Point>
  </Placemark>
  <Placemark>
    <name>瓮城甜水井</name>
    <Point>
      <coordinates>108.92052807357123,34.26110351747309,0</coordinates>
    </Point>
  </Placemark>
  <Placemark>
    <name>陕西聚和红藏艺术馆</name>
    <Point>
      <coordinates>108.91100906847214,34.27258030976729,0</coordinates>
    </Point>
  </Placemark>
  <Placemark>
    <name>橘逸势勉学之地</name>
    <Point>
      <coordinates>108.9234021576183,34.24855922239585,0</coordinates>
    </Point>
  </Placemark>
  <Placemark>
    <name>西安理工大学莲湖校区第二会议室</name>
    <Point>
      <coordinates>108.90769974857884,34.27175901205214,0</coordinates>
    </Point>
  </Placemark>
  <Placemark>
    <name>第十四通道水房</name>
    <Point>
      <coordinates>108.80270639786141,34.30207821749983,0</coordinates>
    </Point>
  </Placemark>
  <Placemark>
    <name>郭峰烈士</name>
    <Point>
      <coordinates>108.92323823306877,34.25079292951513,0</coordinates>
    </Point>
  </Placemark>
  <Placemark>
    <name>女墙</name>
    <Point>
      <coordinates>108.92082640301518,34.261475242337276,0</coordinates>
    </Point>
  </Placemark>
  <Placemark>
    <name>季文美</name>
    <Point>
      <coordinates>108.9092632643026,34.24498596060781,0</coordinates>
    </Point>
  </Placemark>
  <Placemark>
    <name>安定园-南区</name>
    <Point>
      <coordinates>108.92025688514532,34.271049420450105,0</coordinates>
    </Point>
  </Placemark>
  <Placemark>
    <name>寿松涛</name>
    <Point>
      <coordinates>108.90940458132731,34.244965271252866,0</coordinates>
    </Point>
  </Placemark>
  <Placemark>
    <name>九龙山公墓</name>
    <Point>
      <coordinates>108.88853120349489,34.2658832698574,0</coordinates>
    </Point>
  </Placemark>
  <Placemark>
    <name>西安环城西苑-安定桥</name>
    <Point>
      <coordinates>108.91924673937976,34.260991788263496,0</coordinates>
    </Point>
  </Placemark>
  <Placemark>
    <name>渭河城市运动公园</name>
    <Point>
      <coordinates>108.86757989521875,34.38517492938615,0</coordinates>
    </Point>
  </Placemark>
  <Placemark>
    <name>感业寺庙</name>
    <Point>
      <coordinates>108.88422484532724,34.34425152027714,0</coordinates>
    </Point>
  </Placemark>
  <Placemark>
    <name>渭河生态景观区</name>
    <Point>
      <coordinates>108.91828808718112,34.39573242183321,0</coordinates>
    </Point>
  </Placemark>
  <Placemark>
    <name>大唐感业寺</name>
    <Point>
      <coordinates>108.88415902561297,34.34427684832841,0</coordinates>
    </Point>
  </Placemark>
  <Placemark>
    <name>紫薇湖</name>
    <Point>
      <coordinates>108.89606865631195,34.39245175189204,0</coordinates>
    </Point>
  </Placemark>
  <Placemark>
    <name>西安皇家艺术博物馆</name>
    <Point>
      <coordinates>108.89062990073597,34.328386099554805,0</coordinates>
    </Point>
  </Placemark>
  <Placemark>
    <name>万国动漫亲子水乐园</name>
    <Point>
      <coordinates>108.90890520145012,34.342697968043396,0</coordinates>
    </Point>
  </Placemark>
  <Placemark>
    <name>敦煌寺塔</name>
    <Point>
      <coordinates>108.91322021897348,34.3448199543609,0</coordinates>
    </Point>
  </Placemark>
  <Placemark>
    <name>渭水园温泉度假村-碰碰车</name>
    <Point>
      <coordinates>108.86434748459457,34.379478031649704,0</coordinates>
    </Point>
  </Placemark>
  <Placemark>
    <name>尚稷公园</name>
    <Point>
      <coordinates>108.8204879747611,34.36269795771283,0</coordinates>
    </Point>
  </Placemark>
  <Placemark>
    <name>桃花观赏园</name>
    <Point>
      <coordinates>108.79782120748236,34.33456451512007,0</coordinates>
    </Point>
  </Placemark>
  <Placemark>
    <name>会议中心</name>
    <Point>
      <coordinates>108.90183027695878,34.37011399773365,0</coordinates>
    </Point>
  </Placemark>
  <Placemark>
    <name>沙河滩龙王庙</name>
    <Point>
      <coordinates>108.8046296109922,34.35042146190956,0</coordinates>
    </Point>
  </Placemark>
  <Placemark>
    <name>桐鑫源水族生活馆</name>
    <Point>
      <coordinates>108.91002475488816,34.344882072651664,0</coordinates>
    </Point>
  </Placemark>
  <Placemark>
    <name>重阳宫墓地</name>
    <Point>
      <coordinates>108.90206031580274,34.390757777626774,0</coordinates>
    </Point>
  </Placemark>
  <Placemark>
    <name>儿童乐园</name>
    <Point>
      <coordinates>108.8759475822015,34.326005598992516,0</coordinates>
    </Point>
  </Placemark>
  <Placemark>
    <name>秦镇米皮</name>
    <Point>
      <coordinates>108.8658853329053,34.36989073555178,0</coordinates>
    </Point>
  </Placemark>
  <Placemark>
    <name>贵友雕塑</name>
    <Point>
      <coordinates>108.86339822807162,34.35706642927458,0</coordinates>
    </Point>
  </Placemark>
  <Placemark>
    <name>西乐寺</name>
    <Point>
      <coordinates>108.8165470038796,34.33801900020541,0</coordinates>
    </Point>
  </Placemark>
  <Placemark>
    <name>后母戊鼎</name>
    <Point>
      <coordinates>108.9005124359898,34.37041197767821,0</coordinates>
    </Point>
  </Placemark>
  <Placemark>
    <name>菩萨庙(罗高路)</name>
    <Point>
      <coordinates>108.89081096012585,34.32614461453163,0</coordinates>
    </Point>
  </Placemark>
  <Placemark>
    <name>水源防护区</name>
    <Point>
      <coordinates>108.8894705083934,34.385988283158234,0</coordinates>
    </Point>
  </Placemark>
  <Placemark>
    <name>宝宝儿童乐园</name>
    <Point>
      <coordinates>108.89770961701339,34.34479657690605,0</coordinates>
    </Point>
  </Placemark>
  <Placemark>
    <name>万家福巷宝堂</name>
    <Point>
      <coordinates>108.90723329488105,34.338541260790734,0</coordinates>
    </Point>
  </Placemark>
  <Placemark>
    <name>乐华欢乐世界</name>
    <Point>
      <coordinates>108.91254082379672,34.47665706063236,0</coordinates>
    </Point>
  </Placemark>
  <Placemark>
    <name>秦咸阳宫遗址博物馆</name>
    <Point>
      <coordinates>108.8552775512111,34.41471055439311,0</coordinates>
    </Point>
  </Placemark>
  <Placemark>
    <name>西部芳香园</name>
    <Point>
      <coordinates>108.84511138645253,34.42219909090598,0</coordinates>
    </Point>
  </Placemark>
  <Placemark>
    <name>唐顺陵</name>
    <Point>
      <coordinates>108.80149615557373,34.466745949569194,0</coordinates>
    </Point>
  </Placemark>
  <Placemark>
    <name>长陵</name>
    <Point>
      <coordinates>108.87664379758581,34.4347321111469,0</coordinates>
    </Point>
  </Placemark>
  <Placemark>
    <name>汉惠帝刘盈安陵</name>
    <Point>
      <coordinates>108.84091412508413,34.424564456861475,0</coordinates>
    </Point>
  </Placemark>
  <Placemark>
    <name>汉吕后陵</name>
    <Point>
      <coordinates>108.88133278317,34.43402490813072,0</coordinates>
    </Point>
  </Placemark>
  <Placemark>
    <name>正阳宫</name>
    <Point>
      <coordinates>108.9046778048769,34.439963827817444,0</coordinates>
    </Point>
  </Placemark>
  <Placemark>
    <name>胡登洲太师墓园</name>
    <Point>
      <coordinates>108.84361578593543,34.409965137321684,0</coordinates>
    </Point>
  </Placemark>
  <Placemark>
    <name>汉安陵</name>
    <Point>
      <coordinates>108.8410444604568,34.4240986879926,0</coordinates>
    </Point>
  </Placemark>
  <Placemark>
    <name>时代爱婴儿童乐园</name>
    <Point>
      <coordinates>108.80096997176634,34.482824023331375,0</coordinates>
    </Point>
  </Placemark>
  <Placemark>
    <name>汉惠帝皇后张嫣陵</name>
    <Point>
      <coordinates>108.83713387425398,34.423151928388705,0</coordinates>
    </Point>
  </Placemark>
  <Placemark>
    <name>茯茶镇</name>
    <Point>
      <coordinates>108.89317291510956,34.52101849914672,0</coordinates>
    </Point>
  </Placemark>
  <Placemark>
    <name>伏茶小镇</name>
    <Point>
      <coordinates>108.89744219581723,34.51809838095477,0</coordinates>
    </Point>
  </Placemark>
  <Placemark>
    <name>泾阳文庙</name>
    <Point>
      <coordinates>108.8324421228356,34.52574423609228,0</coordinates>
    </Point>
  </Placemark>
  <Placemark>
    <name>泾干湖公园</name>
    <Point>
      <coordinates>108.83487046024808,34.53300164607437,0</coordinates>
    </Point>
  </Placemark>
  <Placemark>
    <name>太壶寺</name>
    <Point>
      <coordinates>108.83577828623943,34.529236958825855,0</coordinates>
    </Point>
  </Placemark>
  <Placemark>
    <name>泾阳博物馆</name>
    <Point>
      <coordinates>108.83251234285173,34.52597303173893,0</coordinates>
    </Point>
  </Placemark>
  <Placemark>
    <name>西咸新区泾河新城科技生态园</name>
    <Point>
      <coordinates>108.88322372738543,34.52056658416144,0</coordinates>
    </Point>
  </Placemark>
  <Placemark>
    <name>宝峰寺</name>
    <Point>
      <coordinates>108.82626030968287,34.545413615683934,0</coordinates>
    </Point>
  </Placemark>
  <Placemark>
    <name>泾河新城第二届花博会</name>
    <Point>
      <coordinates>108.8528095209475,34.52323251812042,0</coordinates>
    </Point>
  </Placemark>
  <Placemark>
    <name>森森水族(精河新城海洋之惜水族馆)</name>
    <Point>
      <coordinates>108.82104236874487,34.52825039861706,0</coordinates>
    </Point>
  </Placemark>
  <Placemark>
    <name>天主堂</name>
    <Point>
      <coordinates>108.81875028959111,34.50839279652071,0</coordinates>
    </Point>
  </Placemark>
  <Placemark>
    <name>爱儿玛儿童乐园</name>
    <Point>
      <coordinates>108.83545655860989,34.53247495786014,0</coordinates>
    </Point>
  </Placemark>
  <Placemark>
    <name>中国茯茶博物馆(建设中)</name>
    <Point>
      <coordinates>108.89573170776544,34.52022918355507,0</coordinates>
    </Point>
  </Placemark>
  <Placemark>
    <name>泾阳县基督教堂</name>
    <Point>
      <coordinates>108.84484294396312,34.52627341813925,0</coordinates>
    </Point>
  </Placemark>
  <Placemark>
    <name>泾阳县太壶寺大殿</name>
    <Point>
      <coordinates>108.83573822694437,34.529469711384664,0</coordinates>
    </Point>
  </Placemark>
  <Placemark>
    <name>茅山道馆</name>
    <Point>
      <coordinates>108.8112872743259,34.524593208259205,0</coordinates>
    </Point>
  </Placemark>
  <Placemark>
    <name>宝莱屋儿童乐园</name>
    <Point>
      <coordinates>108.89158975124431,34.57406813647395,0</coordinates>
    </Point>
  </Placemark>
  <Placemark>
    <name>自由国王艺术馆</name>
    <Point>
      <coordinates>108.83210817359392,34.521974864792845,0</coordinates>
    </Point>
  </Placemark>
  <Placemark>
    <name>太壸寺</name>
    <Point>
      <coordinates>108.83576226370381,34.52939881123239,0</coordinates>
    </Point>
  </Placemark>
  <Placemark>
    <name>护国兴教寺</name>
    <Point>
      <coordinates>109.03416182936161,34.09125945604873,0</coordinates>
    </Point>
  </Placemark>
  <Placemark>
    <name>航天城中湖公园</name>
    <Point>
      <coordinates>108.96663250014345,34.15402029268962,0</coordinates>
    </Point>
  </Placemark>
  <Placemark>
    <name>揽月阁</name>
    <Point>
      <coordinates>108.95966861307569,34.14520855028028,0</coordinates>
    </Point>
  </Placemark>
  <Placemark>
    <name>杨虎城将军陵园</name>
    <Point>
      <coordinates>108.94992731840244,34.14646112540238,0</coordinates>
    </Point>
  </Placemark>
  <Placemark>
    <name>星河运动公园</name>
    <Point>
      <coordinates>108.95783928721099,34.15406350527303,0</coordinates>
    </Point>
  </Placemark>
  <Placemark>
    <name>华严寺</name>
    <Point>
      <coordinates>108.96868830149249,34.13624703724984,0</coordinates>
    </Point>
  </Placemark>
  <Placemark>
    <name>蒋介石西北行宫</name>
    <Point>
      <coordinates>108.93590136661508,34.10717203749064,0</coordinates>
    </Point>
  </Placemark>
  <Placemark>
    <name>杜公祠</name>
    <Point>
      <coordinates>108.95045403082092,34.147261509860606,0</coordinates>
    </Point>
  </Placemark>
  <Placemark>
    <name>君悦水上乐园</name>
    <Point>
      <coordinates>108.94502663636436,34.142218391787566,0</coordinates>
    </Point>
  </Placemark>
  <Placemark>
    <name>牛头禅寺</name>
    <Point>
      <coordinates>108.95032260947927,34.14763439567914,0</coordinates>
    </Point>
  </Placemark>
  <Placemark>
    <name>碧海银滩水上乐园</name>
    <Point>
      <coordinates>109.01052977347953,34.09861196568242,0</coordinates>
    </Point>
  </Placemark>
  <Placemark>
    <name>杜甫纪念馆</name>
    <Point>
      <coordinates>108.95068730580692,34.14696497542297,0</coordinates>
    </Point>
  </Placemark>
  <Placemark>
    <name>淳风观</name>
    <Point>
      <coordinates>108.97116258140703,34.13446866664875,0</coordinates>
    </Point>
  </Placemark>
  <Placemark>
    <name>护国道安寺</name>
    <Point>
      <coordinates>109.00976166622505,34.071809173975915,0</coordinates>
    </Point>
  </Placemark>
  <Placemark>
    <name>禅经寺</name>
    <Point>
      <coordinates>108.95364544896836,34.1171114823166,0</coordinates>
    </Point>
  </Placemark>
  <Placemark>
    <name>陕西红石传统文化艺术中心</name>
    <Point>
      <coordinates>109.03130678509422,34.153369162695874,0</coordinates>
    </Point>
  </Placemark>
  <Placemark>
    <name>宏福寺</name>
    <Point>
      <coordinates>108.97023131922198,34.106707718028055,0</coordinates>
    </Point>
  </Placemark>
  <Placemark>
    <name>少陵原畔</name>
    <Point>
      <coordinates>108.9500586968539,34.14716420807595,0</coordinates>
    </Point>
  </Placemark>
  <Placemark>
    <name>茹桂书画艺术馆</name>
    <Point>
      <coordinates>108.92501951008624,34.15269473316893,0</coordinates>
    </Point>
  </Placemark>
  <Placemark>
    <name>杜曲西</name>
    <Point>
      <coordinates>108.9937768512319,34.116276218319854,0</coordinates>
    </Point>
  </Placemark>
  <Placemark>
    <name>长运国际展示接待中心</name>
    <Point>
      <coordinates>108.9423589539493,34.15071718803936,0</coordinates>
    </Point>
  </Placemark>
  <Placemark>
    <name>钦承景福</name>
    <Point>
      <coordinates>108.92705605761651,34.15418635812081,0</coordinates>
    </Point>
  </Placemark>
  <Placemark>
    <name>陕西美术家协会培华美术馆</name>
    <Point>
      <coordinates>108.9287225324714,34.12354075269841,0</coordinates>
    </Point>
  </Placemark>
  <Placemark>
    <name>大唐芙蓉园</name>
    <Point>
      <coordinates>108.96952570061798,34.21423557914152,0</coordinates>
    </Point>
  </Placemark>
  <Placemark>
    <name>大雁塔文化休闲景区</name>
    <Point>
      <coordinates>108.9600096594652,34.22085039825844,0</coordinates>
    </Point>
  </Placemark>
  <Placemark>
    <name>陕西历史博物馆</name>
    <Point>
      <coordinates>108.95038385478861,34.22577670002375,0</coordinates>
    </Point>
  </Placemark>
  <Placemark>
    <name>曲江海洋极地公园</name>
    <Point>
      <coordinates>108.97570827384051,34.216737344824246,0</coordinates>
    </Point>
  </Placemark>
  <Placemark>
    <name>曲江海洋极地公园-海洋馆</name>
    <Point>
      <coordinates>108.97496082872381,34.21678826854682,0</coordinates>
    </Point>
  </Placemark>
  <Placemark>
    <name>陕西自然博物馆</name>
    <Point>
      <coordinates>108.94194496823249,34.19749012265299,0</coordinates>
    </Point>
  </Placemark>
  <Placemark>
    <name>大唐芙蓉园·新天地</name>
    <Point>
      <coordinates>108.97012625767108,34.21179649733604,0</coordinates>
    </Point>
  </Placemark>
  <Placemark>
    <name>曲江池</name>
    <Point>
      <coordinates>108.97849327311808,34.203032328038724,0</coordinates>
    </Point>
  </Placemark>
  <Placemark>
    <name>曲江国际会展中心</name>
    <Point>
      <coordinates>108.9460397051301,34.197488408694944,0</coordinates>
    </Point>
  </Placemark>
  <Placemark>
    <name>大雁塔音乐喷泉</name>
    <Point>
      <coordinates>108.95943343100328,34.2227766486269,0</coordinates>
    </Point>
  </Placemark>
  <Placemark>
    <name>大唐不夜城</name>
    <Point>
      <coordinates>108.95976293299674,34.216440426449246,0</coordinates>
    </Point>
  </Placemark>
  <Placemark>
    <name>大兴善寺</name>
    <Point>
      <coordinates>108.93879107431026,34.22858796061336,0</coordinates>
    </Point>
  </Placemark>
  <Placemark>
    <name>清凉山森林公园</name>
    <Point>
      <coordinates>108.92844225534564,34.176409395824386,0</coordinates>
    </Point>
  </Placemark>
  <Placemark>
    <name>隋大兴、唐长安城遗址青龙寺遗址</name>
    <Point>
      <coordinates>108.9844209016312,34.23472047717488,0</coordinates>
    </Point>
  </Placemark>
  <Placemark>
    <name>曲江国际会议中心</name>
    <Point>
      <coordinates>108.95033748189698,34.195299284110796,0</coordinates>
    </Point>
  </Placemark>
  <Placemark>
    <name>中国唐苑</name>
    <Point>
      <coordinates>109.03220246955637,34.19834726028737,0</coordinates>
    </Point>
  </Placemark>
  <Placemark>
    <name>西安美术馆</name>
    <Point>
      <coordinates>108.95865442406779,34.21263865492837,0</coordinates>
    </Point>
  </Placemark>
  <Placemark>
    <name>长安广场</name>
    <Point>
      <coordinates>108.92422713035951,34.159194822149324,0</coordinates>
    </Point>
  </Placemark>
  <Placemark>
    <name>曲江寒窑</name>
    <Point>
      <coordinates>108.98658775772317,34.20042435436762,0</coordinates>
    </Point>
  </Placemark>
  <Placemark>
    <name>雁鸣湖</name>
    <Point>
      <coordinates>109.04169473954876,34.22166344369287,0</coordinates>
    </Point>
  </Placemark>
  <Placemark>
    <name>西安植物园</name>
    <Point>
      <coordinates>109.02470968772174,34.21081457373344,0</coordinates>
    </Point>
  </Placemark>
  <Placemark>
    <name>大慈恩寺</name>
    <Point>
      <coordinates>108.95938479306038,34.2191734507992,0</coordinates>
    </Point>
  </Placemark>
  <Placemark>
    <name>清凉寺</name>
    <Point>
      <coordinates>108.92477649758058,34.17740814674463,0</coordinates>
    </Point>
  </Placemark>
  <Placemark>
    <name>唐城墙遗址公园-9区</name>
    <Point>
      <coordinates>108.98804096833426,34.21162990744723,0</coordinates>
    </Point>
  </Placemark>
  <Placemark>
    <name>西安曲江艺术博物馆</name>
    <Point>
      <coordinates>108.95771849760953,34.216271489731035,0</coordinates>
    </Point>
  </Placemark>
  <Placemark>
    <name>3D错觉体验馆</name>
    <Point>
      <coordinates>108.97560138896624,34.217839427176806,0</coordinates>
    </Point>
  </Placemark>
  <Placemark>
    <name>秦二世陵遗址公园</name>
    <Point>
      <coordinates>108.97979257744453,34.19420934144601,0</coordinates>
    </Point>
  </Placemark>
  <Placemark>
    <name>乐游原</name>
    <Point>
      <coordinates>108.97078734008903,34.23115813517406,0</coordinates>
    </Point>
  </Placemark>
  <Placemark>
    <name>西安烈士陵园</name>
    <Point>
      <coordinates>108.92894469630146,34.21088571446398,0</coordinates>
    </Point>
  </Placemark>
  <Placemark>
    <name>曲江城市运动公园</name>
    <Point>
      <coordinates>108.9871062401172,34.1825280050674,0</coordinates>
    </Point>
  </Placemark>
  <Placemark>
    <name>唐大慈恩寺遗址公园</name>
    <Point>
      <coordinates>108.96256201209445,34.21906316153939,0</coordinates>
    </Point>
  </Placemark>
  <Placemark>
    <name>唐城墙遗址(雁南二路)</name>
    <Point>
      <coordinates>108.96776270374139,34.206105904466234,0</coordinates>
    </Point>
  </Placemark>
  <Placemark>
    <name>陕西省美术博物馆</name>
    <Point>
      <coordinates>108.94050842616379,34.232974564475796,0</coordinates>
    </Point>
  </Placemark>
  <Placemark>
    <name>大雁塔天幕</name>
    <Point>
      <coordinates>108.95735075435192,34.21800071487616,0</coordinates>
    </Point>
  </Placemark>
  <Placemark>
    <name>鼓楼</name>
    <Point>
      <coordinates>108.93720831705548,34.23922767382825,0</coordinates>
    </Point>
  </Placemark>
  <Placemark>
    <name>鹿苑</name>
    <Point>
      <coordinates>109.0109145598787,34.182028850934834,0</coordinates>
    </Point>
  </Placemark>
  <Placemark>
    <name>中国杜陵秦砖汉瓦博物馆</name>
    <Point>
      <coordinates>109.01849485692699,34.17987673657436,0</coordinates>
    </Point>
  </Placemark>
  <Placemark>
    <name>牛背梁国家级自然保护区生物多样性展示馆</name>
    <Point>
      <coordinates>108.94733143393289,34.17455116370966,0</coordinates>
    </Point>
  </Placemark>
  <Placemark>
    <name>电视塔会展中心</name>
    <Point>
      <coordinates>108.94172856963418,34.212278294110405,0</coordinates>
    </Point>
  </Placemark>
  <Placemark>
    <name>曲江海洋公园-海底大观园</name>
    <Point>
      <coordinates>108.97586262214799,34.217099042028394,0</coordinates>
    </Point>
  </Placemark>
  <Placemark>
    <name>民俗大观园</name>
    <Point>
      <coordinates>108.95644809096963,34.21992265771199,0</coordinates>
    </Point>
  </Placemark>
  <Placemark>
    <name>明秦王墓遗址</name>
    <Point>
      <coordinates>109.00838153548837,34.172597129118735,0</coordinates>
    </Point>
  </Placemark>
  <Placemark>
    <name>OCAT当代艺术中心西安馆</name>
    <Point>
      <coordinates>108.97458823005364,34.2130460076325,0</coordinates>
    </Point>
  </Placemark>
  <Placemark>
    <name>贾平凹文学艺术馆</name>
    <Point>
      <coordinates>108.96358945680338,34.236353214124115,0</coordinates>
    </Point>
  </Placemark>
  <Placemark>
    <name>小寨邮局营业部</name>
    <Point>
      <coordinates>108.94105763021007,34.224596434643786,0</coordinates>
    </Point>
  </Placemark>
  <Placemark>
    <name>青华宫</name>
    <Point>
      <coordinates>108.99226812250444,34.191071209061526,0</coordinates>
    </Point>
  </Placemark>
  <Placemark>
    <name>亮宝楼·传世珍宝</name>
    <Point>
      <coordinates>108.96555828847474,34.219196870436576,0</coordinates>
    </Point>
  </Placemark>
  <Placemark>
    <name>曲江国际会展中心-B4馆</name>
    <Point>
      <coordinates>108.94721489978511,34.19639467628726,0</coordinates>
    </Point>
  </Placemark>
  <Placemark>
    <name>鼓楼</name>
    <Point>
      <coordinates>108.95931464696427,34.21841978707864,0</coordinates>
    </Point>
  </Placemark>
  <Placemark>
    <name>陕西历史博物馆-东展馆(翠华路)</name>
    <Point>
      <coordinates>108.95135083898481,34.22571464279256,0</coordinates>
    </Point>
  </Placemark>
  <Placemark>
    <name>曲江轻轨</name>
    <Point>
      <coordinates>108.96033231131163,34.210481905683565,0</coordinates>
    </Point>
  </Placemark>
  <Placemark>
    <name>九天门</name>
    <Point>
      <coordinates>108.96922794149367,34.21097590463622,0</coordinates>
    </Point>
  </Placemark>
  <Placemark>
    <name>陕西自然博物馆-自然展馆</name>
    <Point>
      <coordinates>108.9415119280006,34.19634957460033,0</coordinates>
    </Point>
  </Placemark>
  <Placemark>
    <name>曲江国际会展中心-B2馆</name>
    <Point>
      <coordinates>108.94490700148127,34.19676888692332,0</coordinates>
    </Point>
  </Placemark>
  <Placemark>
    <name>玄奘法师</name>
    <Point>
      <coordinates>108.95950045034411,34.217449523921715,0</coordinates>
    </Point>
  </Placemark>
  <Placemark>
    <name>毛泽东敬览馆</name>
    <Point>
      <coordinates>109.02045503623623,34.223274594189554,0</coordinates>
    </Point>
  </Placemark>
  <Placemark>
    <name>御苑门</name>
    <Point>
      <coordinates>108.96615992800137,34.21324804771199,0</coordinates>
    </Point>
  </Placemark>
  <Placemark>
    <name>西安旅游景点</name>
    <Point>
      <coordinates>108.92795262671729,34.228025458849345,0</coordinates>
    </Point>
  </Placemark>
  <Placemark>
    <name>红色革命纪念园</name>
    <Point>
      <coordinates>109.02089130888622,34.222664459405436,0</coordinates>
    </Point>
  </Placemark>
  <Placemark>
    <name>陕西省西安植物园</name>
    <Point>
      <coordinates>108.95212943712747,34.208609880595475,0</coordinates>
    </Point>
  </Placemark>
  <Placemark>
    <name>西安美术学院-西部美术馆</name>
    <Point>
      <coordinates>108.92652468706754,34.220390324297156,0</coordinates>
    </Point>
  </Placemark>
  <Placemark>
    <name>曲江寒窑遗址公园-寒窑故事馆</name>
    <Point>
      <coordinates>108.98642061017921,34.20020911236814,0</coordinates>
    </Point>
  </Placemark>
  <Placemark>
    <name>曲江国际会展中心-A区</name>
    <Point>
      <coordinates>108.94585331489975,34.19796500907481,0</coordinates>
    </Point>
  </Placemark>
  <Placemark>
    <name>西安柴窑文化博物馆</name>
    <Point>
      <coordinates>108.95842492577322,34.206089687018476,0</coordinates>
    </Point>
  </Placemark>
  <Placemark>
    <name>西安曲江国际会展中心A馆一楼北厅</name>
    <Point>
      <coordinates>108.9477920843614,34.19847609870655,0</coordinates>
    </Point>
  </Placemark>
  <Placemark>
    <name>基督教长安西街聚会点</name>
    <Point>
      <coordinates>108.93383722309959,34.1661976959157,0</coordinates>
    </Point>
  </Placemark>
  <Placemark>
    <name>玄奘纪念馆</name>
    <Point>
      <coordinates>108.95947936440996,34.22069874945218,0</coordinates>
    </Point>
  </Placemark>
  <Placemark>
    <name>西安国际会议中心</name>
    <Point>
      <coordinates>108.95860244775417,34.19925216723136,0</coordinates>
    </Point>
  </Placemark>
  <Placemark>
    <name>陕西戏曲大观园</name>
    <Point>
      <coordinates>108.96284870828741,34.22170389006185,0</coordinates>
    </Point>
  </Placemark>