邑区农民画展览馆,108.60753357078747,34.11292124179561,1bf85b258170f6a4a0a934ae,"{'name': '邑区农民画展览馆', 'location': {'lat': 34.117518, 'lng': 108.618407}, 'address': '近郊邑区画展街14号', 'province': '陕西省', 'city': '西安市', 'area': '邑区', 'street_id': '1bf85b258170f6a4a0a934ae', 'detail': 1, 'uid': '1bf85b258170f6a4a0a934ae', 'detail_info': {'tag': '文化传媒;展览馆', 'navi_location': {'lng': 108.6185485699, 'lat': 34.11794849747}, 'type': 'scope', 'detail_url': 'http://api.map.baidu.com/place/detail?uid=1bf85b258170f6a4a0a934ae&output=html&source=placeapi_v2', 'overall_rating': '4.3', 'comment_num': '4', 'children': []}}"
"{'name': '邑区农民画展览馆', 'location': {'lat': 34.117518, 'lng': 108.618407}, 'address': '近郊邑区画展街14号', 'province': '陕西省', 'city': '西安市', 'area': '邑区', 'street_id': '1bf85b258170f6a4a0a934ae', 'detail': 1, 'uid': '1bf85b258170f6a4a0a934ae', 'detail_info': {'tag': '文化传媒;展览馆', 'navi_location': {'lng': 108.6185485699, 'lat': 34.11794849747}, 'type': 'scope', 'detail_url': 'http://api.map.baidu.com/place/detail?uid=1bf85b258170f6a4a0a934ae&output=html&source=placeapi_v2', 'overall_rating': '4.3', 'comment_num': '4', 'children': []}}"
西郡会展花苑国际会议中心,108.62800169573548,34.09923597516202,ae38555cdd9c71cfd7851fe0,"{'name': '西郡会展花苑国际会议中心', 'location': {'lat': 34.103541, 'lng': 108.638997}, 'address': '吕公东路与宏桥路交叉口东北150米', 'province': '陕西省', 'city': '西安市', 'area': '邑区', 'street_id': 'ae38555cdd9c71cfd7851fe0', 'detail': 1, 'uid': 'ae38555cdd9c71cfd7851fe0', 'detail_info': {'tag': '文化传媒;展览馆', 'type': 'enterprise', 'detail_url': 'http://api.map.baidu.com/place/detail?uid=ae38555cdd9c71cfd7851fe0&output=html&source=placeapi_v2', 'children': []}}"
"{'name': '西郡会展花苑国际会议中心', 'location': {'lat': 34.103541, 'lng': 108.638997}, 'address': '吕公东路与宏桥路交叉口东北150米', 'province': '陕西省', 'city': '西安市', 'area': '邑区', 'street_id': 'ae38555cdd9c71cfd7851fe0', 'detail': 1, 'uid': 'ae38555cdd9c71cfd7851fe0', 'detail_info': {'tag': '文化传媒;展览馆', 'type': 'enterprise', 'detail_url': 'http://api.map.baidu.com/place/detail?uid=ae38555cdd9c71cfd7851fe0&output=html&source=placeapi_v2', 'children': []}}"
邑区文化馆,108.59978902825934,34.109827893875,22e693db2c0a94c5a20464d5,"{'name': '邑区文化馆', 'location': {'lat': 34.114474, 'lng': 108.610639}, 'address': '丰东四巷与人民路交叉口东南100米', 'province': '陕西省', 'city': '西安市', 'area': '邑区', 'street_id': '22e693db2c0a94c5a20464d5', 'detail': 1, 'uid': '22e693db2c0a94c5a20464d5', 'detail_info': {'tag': '文化传媒;文化宫', 'type': 'life', 'detail_url': 'http://api.map.baidu.com/place/detail?uid=22e693db2c0a94c5a20464d5&output=html&source=placeapi_v2', 'overall_rating': '0.0', 'image_num': '1', 'children': []}}"
"{'name': '邑区文化馆', 'location': {'lat': 34.114474, 'lng': 108.610639}, 'address': '丰东四巷与人民路交叉口东南100米', 'province': '陕西省', 'city': '西安市', 'area': '邑区', 'street_id': '22e693db2c0a94c5a20464d5', 'detail': 1, 'uid': '22e693db2c0a94c5a20464d5', 'detail_info': {'tag': '文化传媒;文化宫', 'type': 'life', 'detail_url': 'http://api.map.baidu.com/place/detail?uid=22e693db2c0a94c5a20464d5&output=html&source=placeapi_v2', 'overall_rating': '0.0', 'image_num': '1', 'children': []}}"
陕西国防工业职业技术学院-大学生活动中心,108.61511515903521,34.09700193056017,037c33405c5921d87dc87615,"{'name': '陕西国防工业职业技术学院-大学生活动中心', 'location': {'lat': 34.101504, 'lng': 108.626021}, 'address': '陕西省西安市邑区时间大道', 'province': '陕西省', 'city': '西安市', 'area': '邑区', 'street_id': '037c33405c5921d87dc87615', 'detail': 1, 'uid': '037c33405c5921d87dc87615', 'detail_info': {'tag': '文化传媒;文化宫', 'type': 'education', 'detail_url': 'http://api.map.baidu.com/place/detail?uid=037c33405c5921d87dc87615&output=html&source=placeapi_v2', 'overall_rating': '4.0', 'children': []}}"
"{'name': '陕西国防工业职业技术学院-大学生活动中心', 'location': {'lat': 34.101504, 'lng': 108.626021}, 'address': '陕西省西安市邑区时间大道', 'province': '陕西省', 'city': '西安市', 'area': '邑区', 'street_id': '037c33405c5921d87dc87615', 'detail': 1, 'uid': '037c33405c5921d87dc87615', 'detail_info': {'tag': '文化传媒;文化宫', 'type': 'education', 'detail_url': 'http://api.map.baidu.com/place/detail?uid=037c33405c5921d87dc87615&output=html&source=placeapi_v2', 'overall_rating': '4.0', 'children': []}}"
陕西省户县人民剧团,108.59881940286802,34.11162750741971,87248d96e52146b02806ce61,"{'name': '陕西省户县人民剧团', 'location': {'lat': 34.116277, 'lng': 108.609668}, 'address': '北街与南巷交叉口北100米', 'province': '陕西省', 'city': '西安市', 'area': '邑区', 'street_id': '87248d96e52146b02806ce61', 'detail': 1, 'uid': '87248d96e52146b02806ce61', 'detail_info': {'tag': '文化传媒;艺术团体', 'navi_location': {'lng': 108.60987542211, 'lat': 34.116274529007}, 'type': 'enterprise', 'detail_url': 'http://api.map.baidu.com/place/detail?uid=87248d96e52146b02806ce61&output=html&source=placeapi_v2', 'comment_num': '1', 'children': []}}"
"{'name': '陕西省户县人民剧团', 'location': {'lat': 34.116277, 'lng': 108.609668}, 'address': '北街与南巷交叉口北100米', 'province': '陕西省', 'city': '西安市', 'area': '邑区', 'street_id': '87248d96e52146b02806ce61', 'detail': 1, 'uid': '87248d96e52146b02806ce61', 'detail_info': {'tag': '文化传媒;艺术团体', 'navi_location': {'lng': 108.60987542211, 'lat': 34.116274529007}, 'type': 'enterprise', 'detail_url': 'http://api.map.baidu.com/place/detail?uid=87248d96e52146b02806ce61&output=html&source=placeapi_v2', 'comment_num': '1', 'children': []}}"
西安三原色广告传媒有限公司,108.61214160637923,34.112107625495035,1cbfc6761f3cbbf91b11d5d1,"{'name': '西安三原色广告传媒有限公司', 'location': {'lat': 34.116654, 'lng': 108.623037}, 'address': '陕西省西安市邑区东环北路23号附近', 'province': '陕西省', 'city': '西安市', 'area': '邑区', 'street_id': '1cbfc6761f3cbbf91b11d5d1', 'detail': 1, 'uid': '1cbfc6761f3cbbf91b11d5d1', 'detail_info': {'tag': '文化传媒;其他', 'navi_location': {'lng': 108.62291325401, 'lat': 34.11677056884}, 'type': 'enterprise', 'detail_url': 'http://api.map.baidu.com/place/detail?uid=1cbfc6761f3cbbf91b11d5d1&output=html&source=placeapi_v2', 'overall_rating': '5.0', 'comment_num': '1', 'children': []}}"
"{'name': '西安三原色广告传媒有限公司', 'location': {'lat': 34.116654, 'lng': 108.623037}, 'address': '陕西省西安市邑区东环北路23号附近', 'province': '陕西省', 'city': '西安市', 'area': '邑区', 'street_id': '1cbfc6761f3cbbf91b11d5d1', 'detail': 1, 'uid': '1cbfc6761f3cbbf91b11d5d1', 'detail_info': {'tag': '文化传媒;其他', 'navi_location': {'lng': 108.62291325401, 'lat': 34.11677056884}, 'type': 'enterprise', 'detail_url': 'http://api.map.baidu.com/place/detail?uid=1cbfc6761f3cbbf91b11d5d1&output=html&source=placeapi_v2', 'overall_rating': '5.0', 'comment_num': '1', 'children': []}}"
户县工人文化宫,108.60250401434583,34.10980012866261,dfc496b627e270d28936ee54,"{'name': '户县工人文化宫', 'location': {'lat': 34.114434, 'lng': 108.61336}, 'address': '甘亭镇东大街13号', 'province': '陕西省', 'city': '西安市', 'area': '邑区', 'street_id': 'dfc496b627e270d28936ee54', 'detail': 1, 'uid': 'dfc496b627e270d28936ee54', 'detail_info': {'tag': '文化传媒;文化宫', 'type': 'life', 'detail_url': 'http://api.map.baidu.com/place/detail?uid=dfc496b627e270d28936ee54&output=html&source=placeapi_v2', 'image_num': '3', 'comment_num': '1', 'children': []}}"
"{'name': '户县工人文化宫', 'location': {'lat': 34.114434, 'lng': 108.61336}, 'address': '甘亭镇东大街13号', 'province': '陕西省', 'city': '西安市', 'area': '邑区', 'street_id': 'dfc496b627e270d28936ee54', 'detail': 1, 'uid': 'dfc496b627e270d28936ee54', 'detail_info': {'tag': '文化传媒;文化宫', 'type': 'life', 'detail_url': 'http://api.map.baidu.com/place/detail?uid=dfc496b627e270d28936ee54&output=html&source=placeapi_v2', 'image_num': '3', 'comment_num': '1', 'children': []}}"
中国工商银行(西安户县支行)-职工活动中心,108.61809433822361,34.11010267204488,b714360cc23bcd4a46572656,"{'name': '中国工商银行(西安户县支行)-职工活动中心', 'location': {'lat': 34.114567, 'lng': 108.629025}, 'address': '丰京路与工交巷交叉口西北50米', 'province': '陕西省', 'city': '西安市', 'area': '邑区', 'street_id': 'b714360cc23bcd4a46572656', 'detail': 1, 'uid': 'b714360cc23bcd4a46572656', 'detail_info': {'tag': '文化传媒;文化宫', 'type': 'life', 'detail_url': 'http://api.map.baidu.com/place/detail?uid=b714360cc23bcd4a46572656&output=html&source=placeapi_v2', 'image_num': '1', 'children': []}}"
"{'name': '中国工商银行(西安户县支行)-职工活动中心', 'location': {'lat': 34.114567, 'lng': 108.629025}, 'address': '丰京路与工交巷交叉口西北50米', 'province': '陕西省', 'city': '西安市', 'area': '邑区', 'street_id': 'b714360cc23bcd4a46572656', 'detail': 1, 'uid': 'b714360cc23bcd4a46572656', 'detail_info': {'tag': '文化传媒;文化宫', 'type': 'life', 'detail_url': 'http://api.map.baidu.com/place/detail?uid=b714360cc23bcd4a46572656&output=html&source=placeapi_v2', 'image_num': '1', 'children': []}}"
西安恒远文化广告传媒有限公司,108.57581363519097,34.13428556873126,2d2bf3684ec23060a80dd82a,"{'name': '西安恒远文化广告传媒有限公司', 'location': {'lat': 34.138788, 'lng': 108.586702}, 'address': '东西4号路', 'province': '陕西省', 'city': '西安市', 'area': '邑区', 'detail': 1, 'uid': '2d2bf3684ec23060a80dd82a', 'detail_info': {'tag': '公司企业;公司', 'type': 'enterprise', 'detail_url': 'http://api.map.baidu.com/place/detail?uid=2d2bf3684ec23060a80dd82a&output=html&source=placeapi_v2', 'children': []}}"
"{'name': '西安恒远文化广告传媒有限公司', 'location': {'lat': 34.138788, 'lng': 108.586702}, 'address': '东西4号路', 'province': '陕西省', 'city': '西安市', 'area': '邑区', 'detail': 1, 'uid': '2d2bf3684ec23060a80dd82a', 'detail_info': {'tag': '公司企业;公司', 'type': 'enterprise', 'detail_url': 'http://api.map.baidu.com/place/detail?uid=2d2bf3684ec23060a80dd82a&output=html&source=placeapi_v2', 'children': []}}"
西安守和广告文化传播有限公司,108.62643332364222,34.106301386566535,3fb35234cabdf3ea9e95ded8,"{'name': '西安守和广告文化传播有限公司', 'location': {'lat': 34.110634, 'lng': 108.637421}, 'address': '陕西省西安市邑区朱雀・锦园(东新路北)', 'province': '陕西省', 'city': '西安市', 'area': '邑区', 'detail': 1, 'uid': '3fb35234cabdf3ea9e95ded8', 'detail_info': {'tag': '文化传媒;其他', 'type': 'enterprise', 'detail_url': 'http://api.map.baidu.com/place/detail?uid=3fb35234cabdf3ea9e95ded8&output=html&source=placeapi_v2', 'children': []}}"
"{'name': '西安守和广告文化传播有限公司', 'location': {'lat': 34.110634, 'lng': 108.637421}, 'address': '陕西省西安市邑区朱雀・锦园(东新路北)', 'province': '陕西省', 'city': '西安市', 'area': '邑区', 'detail': 1, 'uid': '3fb35234cabdf3ea9e95ded8', 'detail_info': {'tag': '文化传媒;其他', 'type': 'enterprise', 'detail_url': 'http://api.map.baidu.com/place/detail?uid=3fb35234cabdf3ea9e95ded8&output=html&source=placeapi_v2', 'children': []}}"
麦张寨中老年活动中心,108.60917566130087,34.08533832261828,32343136e705e1c61e5800ae,"{'name': '麦张寨中老年活动中心', 'location': {'lat': 34.089907, 'lng': 108.620039}, 'address': '麦张寨村附近', 'province': '陕西省', 'city': '西安市', 'area': '邑区', 'detail': 1, 'uid': '32343136e705e1c61e5800ae', 'detail_info': {'tag': '文化传媒;文化宫', 'type': 'life', 'detail_url': 'http://api.map.baidu.com/place/detail?uid=32343136e705e1c61e5800ae&output=html&source=placeapi_v2', 'overall_rating': '0.0', 'image_num': '1', 'comment_num': '0', 'children': []}}"
"{'name': '麦张寨中老年活动中心', 'location': {'lat': 34.089907, 'lng': 108.620039}, 'address': '麦张寨村附近', 'province': '陕西省', 'city': '西安市', 'area': '邑区', 'detail': 1, 'uid': '32343136e705e1c61e5800ae', 'detail_info': {'tag': '文化传媒;文化宫', 'type': 'life', 'detail_url': 'http://api.map.baidu.com/place/detail?uid=32343136e705e1c61e5800ae&output=html&source=placeapi_v2', 'overall_rating': '0.0', 'image_num': '1', 'comment_num': '0', 'children': []}}"
西安展浩广告文化传媒有限公司,108.62097787263511,34.114621522656655,8b0e429751ffe565c72ba14b,"{'name': '西安展浩广告文化传媒有限公司', 'location': {'lat': 34.119043, 'lng': 108.631928}, 'address': '西安邑区人民路旺角楼二楼东户', 'province': '陕西省', 'city': '西安市', 'area': '邑区', 'street_id': '8b0e429751ffe565c72ba14b', 'telephone': '17629001266', 'detail': 1, 'uid': '8b0e429751ffe565c72ba14b', 'detail_info': {'tag': '公司企业;公司', 'type': 'enterprise', 'detail_url': 'http://api.map.baidu.com/place/detail?uid=8b0e429751ffe565c72ba14b&output=html&source=placeapi_v2', 'children': []}}"
"{'name': '西安展浩广告文化传媒有限公司', 'location': {'lat': 34.119043, 'lng': 108.631928}, 'address': '西安邑区人民路旺角楼二楼东户', 'province': '陕西省', 'city': '西安市', 'area': '邑区', 'street_id': '8b0e429751ffe565c72ba14b', 'telephone': '17629001266', 'detail': 1, 'uid': '8b0e429751ffe565c72ba14b', 'detail_info': {'tag': '公司企业;公司', 'type': 'enterprise', 'detail_url': 'http://api.map.baidu.com/place/detail?uid=8b0e429751ffe565c72ba14b&output=html&source=placeapi_v2', 'children': []}}"
西安歆艺隆演艺文化传播公司,108.5988098527042,34.10853837033184,96f542b628ebe9620f0a70f6,"{'name': '西安歆艺隆演艺文化传播公司', 'location': {'lat': 34.113187, 'lng': 108.609658}, 'address': '南街16', 'province': '陕西省', 'city': '西安市', 'area': '邑区', 'street_id': '96f542b628ebe9620f0a70f6', 'telephone': '(029)84820058', 'detail': 1, 'uid': '96f542b628ebe9620f0a70f6', 'detail_info': {'tag': '公司企业;公司', 'type': 'enterprise', 'detail_url': 'http://api.map.baidu.com/place/detail?uid=96f542b628ebe9620f0a70f6&output=html&source=placeapi_v2', 'children': []}}"
"{'name': '西安歆艺隆演艺文化传播公司', 'location': {'lat': 34.113187, 'lng': 108.609658}, 'address': '南街16', 'province': '陕西省', 'city': '西安市', 'area': '邑区', 'street_id': '96f542b628ebe9620f0a70f6', 'telephone': '(029)84820058', 'detail': 1, 'uid': '96f542b628ebe9620f0a70f6', 'detail_info': {'tag': '公司企业;公司', 'type': 'enterprise', 'detail_url': 'http://api.map.baidu.com/place/detail?uid=96f542b628ebe9620f0a70f6&output=html&source=placeapi_v2', 'children': []}}"
东升演艺影视文化传播有限公司,108.63179826597812,34.10255778010084,51651864726ae1bd128824aa,"{'name': '东升演艺影视文化传播有限公司', 'location': {'lat': 34.106806, 'lng': 108.642823}, 'address': '东城南路与兆丰东路交叉口东100米', 'province': '陕西省', 'city': '西安市', 'area': '邑区', 'street_id': '51651864726ae1bd128824aa', 'detail': 1, 'uid': '51651864726ae1bd128824aa', 'detail_info': {'tag': '公司企业;公司', 'type': 'enterprise', 'detail_url': 'http://api.map.baidu.com/place/detail?uid=51651864726ae1bd128824aa&output=html&source=placeapi_v2', 'children': []}}"
"{'name': '东升演艺影视文化传播有限公司', 'location': {'lat': 34.106806, 'lng': 108.642823}, 'address': '东城南路与兆丰东路交叉口东100米', 'province': '陕西省', 'city': '西安市', 'area': '邑区', 'street_id': '51651864726ae1bd128824aa', 'detail': 1, 'uid': '51651864726ae1bd128824aa', 'detail_info': {'tag': '公司企业;公司', 'type': 'enterprise', 'detail_url': 'http://api.map.baidu.com/place/detail?uid=51651864726ae1bd128824aa&output=html&source=placeapi_v2', 'children': []}}"
东升演艺影视文化传播有限公司-北门,108.63179726874723,34.10256576213256,18c224fd33282c284d776e38,"{'name': '东升演艺影视文化传播有限公司-北门', 'location': {'lat': 34.106814, 'lng': 108.642822}, 'address': '东城南路与兆丰东路交叉口东100米', 'province': '陕西省', 'city': '西安市', 'area': '邑区', 'street_id': '18c224fd33282c284d776e38', 'detail': 1, 'uid': '18c224fd33282c284d776e38', 'detail_info': {'tag': '出入口;门', 'type': 'life', 'detail_url': 'http://api.map.baidu.com/place/detail?uid=18c224fd33282c284d776e38&output=html&source=placeapi_v2', 'image_num': '1', 'children': []}}"
"{'name': '东升演艺影视文化传播有限公司-北门', 'location': {'lat': 34.106814, 'lng': 108.642822}, 'address': '东城南路与兆丰东路交叉口东100米', 'province': '陕西省', 'city': '西安市', 'area': '邑区', 'street_id': '18c224fd33282c284d776e38', 'detail': 1, 'uid': '18c224fd33282c284d776e38', 'detail_info': {'tag': '出入口;门', 'type': 'life', 'detail_url': 'http://api.map.baidu.com/place/detail?uid=18c224fd33282c284d776e38&output=html&source=placeapi_v2', 'image_num': '1', 'children': []}}"
西安海洋文化传播有限公司,108.60137808110947,34.10834676581792,edbb9285a0a8b17fede4a5df,"{'name': '西安海洋文化传播有限公司', 'location': {'lat': 34.112986, 'lng': 108.612231}, 'address': '府兴巷与景家巷交叉口北100米', 'province': '陕西省', 'city': '西安市', 'area': '邑区', 'street_id': '1356bd5c7cbea3aca11de912', 'detail': 1, 'uid': 'edbb9285a0a8b17fede4a5df', 'detail_info': {'tag': '文化传媒;其他', 'navi_location': {'lng': 108.61209081777, 'lat': 34.112997661855}, 'type': 'enterprise', 'detail_url': 'http://api.map.baidu.com/place/detail?uid=edbb9285a0a8b17fede4a5df&output=html&source=placeapi_v2', 'comment_num': '1', 'children': []}}"
"{'name': '西安海洋文化传播有限公司', 'location': {'lat': 34.112986, 'lng': 108.612231}, 'address': '府兴巷与景家巷交叉口北100米', 'province': '陕西省', 'city': '西安市', 'area': '邑区', 'street_id': '1356bd5c7cbea3aca11de912', 'detail': 1, 'uid': 'edbb9285a0a8b17fede4a5df', 'detail_info': {'tag': '文化传媒;其他', 'navi_location': {'lng': 108.61209081777, 'lat': 34.112997661855}, 'type': 'enterprise', 'detail_url': 'http://api.map.baidu.com/place/detail?uid=edbb9285a0a8b17fede4a5df&output=html&source=placeapi_v2', 'comment_num': '1', 'children': []}}"
户县杨柯文化传播演艺婚庆公司,108.60096433026204,34.12524273644713,2c8b0a1341b42723a80dd80b,"{'name': '户县杨柯文化传播演艺婚庆公司', 'location': {'lat': 34.129887, 'lng': 108.611813}, 'address': '陕西省西安市邑区甘亭街道古城西路秦宝温泉花园', 'province': '陕西省', 'city': '西安市', 'area': '邑区', 'street_id': '2c8b0a1341b42723a80dd80b', 'detail': 1, 'uid': '2c8b0a1341b42723a80dd80b', 'detail_info': {'tag': '文化传媒;其他', 'type': 'enterprise', 'detail_url': 'http://api.map.baidu.com/place/detail?uid=2c8b0a1341b42723a80dd80b&output=html&source=placeapi_v2', 'comment_num': '2', 'children': []}}"
"{'name': '户县杨柯文化传播演艺婚庆公司', 'location': {'lat': 34.129887, 'lng': 108.611813}, 'address': '陕西省西安市邑区甘亭街道古城西路秦宝温泉花园', 'province': '陕西省', 'city': '西安市', 'area': '邑区', 'street_id': '2c8b0a1341b42723a80dd80b', 'detail': 1, 'uid': '2c8b0a1341b42723a80dd80b', 'detail_info': {'tag': '文化传媒;其他', 'type': 'enterprise', 'detail_url': 'http://api.map.baidu.com/place/detail?uid=2c8b0a1341b42723a80dd80b&output=html&source=placeapi_v2', 'comment_num': '2', 'children': []}}"
西安市东升演艺文化传播有限公司,108.60964041330143,34.11002229969041,86b9f6e490702e314d55470f,"{'name': '西安市东升演艺文化传播有限公司', 'location': {'lat': 34.114597, 'lng': 108.620523}, 'address': '东街与丰京路交叉口北50米', 'province': '陕西省', 'city': '西安市', 'area': '邑区', 'street_id': '86b9f6e490702e314d55470f', 'telephone': '18792958887', 'detail': 1, 'uid': '86b9f6e490702e314d55470f', 'detail_info': {'tag': '文化传媒;其他', 'type': 'enterprise', 'detail_url': 'http://api.map.baidu.com/place/detail?uid=86b9f6e490702e314d55470f&output=html&source=placeapi_v2', 'children': []}}"
"{'name': '西安市东升演艺文化传播有限公司', 'location': {'lat': 34.114597, 'lng': 108.620523}, 'address': '东街与丰京路交叉口北50米', 'province': '陕西省', 'city': '西安市', 'area': '邑区', 'street_id': '86b9f6e490702e314d55470f', 'telephone': '18792958887', 'detail': 1, 'uid': '86b9f6e490702e314d55470f', 'detail_info': {'tag': '文化传媒;其他', 'type': 'enterprise', 'detail_url': 'http://api.map.baidu.com/place/detail?uid=86b9f6e490702e314d55470f&output=html&source=placeapi_v2', 'children': []}}"
老年活动中心,108.65687084538503,34.127651791590715,93557d2e631050e55bf6be4f,"{'name': '老年活动中心', 'location': {'lat': 34.131729, 'lng': 108.668022}, 'address': '陕西省西安市邑区五竹镇大庞路户县五竹中心学校东', 'province': '陕西省', 'city': '西安市', 'area': '邑区', 'detail': 1, 'uid': '93557d2e631050e55bf6be4f', 'detail_info': {'tag': '文化传媒;文化宫', 'type': 'life', 'detail_url': 'http://api.map.baidu.com/place/detail?uid=93557d2e631050e55bf6be4f&output=html&source=placeapi_v2', 'image_num': '1', 'children': []}}"
"{'name': '老年活动中心', 'location': {'lat': 34.131729, 'lng': 108.668022}, 'address': '陕西省西安市邑区五竹镇大庞路户县五竹中心学校东', 'province': '陕西省', 'city': '西安市', 'area': '邑区', 'detail': 1, 'uid': '93557d2e631050e55bf6be4f', 'detail_info': {'tag': '文化传媒;文化宫', 'type': 'life', 'detail_url': 'http://api.map.baidu.com/place/detail?uid=93557d2e631050e55bf6be4f&output=html&source=placeapi_v2', 'image_num': '1', 'children': []}}"
户县中老年艺术协会活动中心,108.60167496987617,34.11082946430891,e8d9f35849489e6677026977,"{'name': '户县中老年艺术协会活动中心', 'location': {'lat': 34.115468, 'lng': 108.612529}, 'address': '府东巷附近', 'province': '陕西省', 'city': '西安市', 'area': '邑区', 'street_id': 'e8d9f35849489e6677026977', 'detail': 1, 'uid': 'e8d9f35849489e6677026977', 'detail_info': {'tag': '文化传媒;文化宫', 'type': 'life', 'detail_url': 'http://api.map.baidu.com/place/detail?uid=e8d9f35849489e6677026977&output=html&source=placeapi_v2', 'overall_rating': '0.0', 'image_num': '1', 'comment_num': '0', 'children': []}}"
"{'name': '户县中老年艺术协会活动中心', 'location': {'lat': 34.115468, 'lng': 108.612529}, 'address': '府东巷附近', 'province': '陕西省', 'city': '西安市', 'area': '邑区', 'street_id': 'e8d9f35849489e6677026977', 'detail': 1, 'uid': 'e8d9f35849489e6677026977', 'detail_info': {'tag': '文化传媒;文化宫', 'type': 'life', 'detail_url': 'http://api.map.baidu.com/place/detail?uid=e8d9f35849489e6677026977&output=html&source=placeapi_v2', 'overall_rating': '0.0', 'image_num': '1', 'comment_num': '0', 'children': []}}"
户县农民画庄,108.6038040132204,34.20176326127176,53d6bcbbc3929692f8dc85f8,"{'name': '户县农民画庄', 'location': {'lat': 34.206411, 'lng': 108.614652}, 'address': '陕西西安市邑区大张路', 'province': '陕西省', 'city': '西安市', 'area': '邑区', 'detail': 1, 'uid': '53d6bcbbc3929692f8dc85f8', 'detail_info': {'tag': '文化传媒;文化宫', 'type': 'life', 'detail_url': 'http://api.map.baidu.com/place/detail?uid=53d6bcbbc3929692f8dc85f8&output=html&source=placeapi_v2', 'overall_rating': '0.0', 'image_num': '1', 'comment_num': '0', 'children': []}}"
"{'name': '户县农民画庄', 'location': {'lat': 34.206411, 'lng': 108.614652}, 'address': '陕西西安市邑区大张路', 'province': '陕西省', 'city': '西安市', 'area': '邑区', 'detail': 1, 'uid': '53d6bcbbc3929692f8dc85f8', 'detail_info': {'tag': '文化传媒;文化宫', 'type': 'life', 'detail_url': 'http://api.map.baidu.com/place/detail?uid=53d6bcbbc3929692f8dc85f8&output=html&source=placeapi_v2', 'overall_rating': '0.0', 'image_num': '1', 'comment_num': '0', 'children': []}}"
凿齿北村活动中心,108.6557502903606,34.186601524766864,e49f00e153b2df81c4f02586,"{'name': '凿齿北村活动中心', 'location': {'lat': 34.190685, 'lng': 108.666877}, 'address': '393村道卓北村附近', 'province': '陕西省', 'city': '西安市', 'area': '邑区', 'detail': 1, 'uid': 'e49f00e153b2df81c4f02586', 'detail_info': {'tag': '文化传媒;文化宫', 'type': 'life', 'detail_url': 'http://api.map.baidu.com/place/detail?uid=e49f00e153b2df81c4f02586&output=html&source=placeapi_v2', 'image_num': '1', 'comment_num': '0', 'children': []}}"
"{'name': '凿齿北村活动中心', 'location': {'lat': 34.190685, 'lng': 108.666877}, 'address': '393村道卓北村附近', 'province': '陕西省', 'city': '西安市', 'area': '邑区', 'detail': 1, 'uid': 'e49f00e153b2df81c4f02586', 'detail_info': {'tag': '文化传媒;文化宫', 'type': 'life', 'detail_url': 'http://api.map.baidu.com/place/detail?uid=e49f00e153b2df81c4f02586&output=html&source=placeapi_v2', 'image_num': '1', 'comment_num': '0', 'children': []}}"
户县大王镇凿齿南村文体广场,108.65578158467385,34.17970487014686,4757dbec3569b63a3b221c49,"{'name': '户县大王镇凿齿南村文体广场', 'location': {'lat': 34.183785, 'lng': 108.666904}, 'address': '文化路附近', 'province': '陕西省', 'city': '西安市', 'area': '邑区', 'detail': 1, 'uid': '4757dbec3569b63a3b221c49', 'detail_info': {'tag': '文化传媒;文化宫', 'type': 'life', 'detail_url': 'http://api.map.baidu.com/place/detail?uid=4757dbec3569b63a3b221c49&output=html&source=placeapi_v2', 'image_num': '1', 'comment_num': '0', 'children': []}}"
"{'name': '户县大王镇凿齿南村文体广场', 'location': {'lat': 34.183785, 'lng': 108.666904}, 'address': '文化路附近', 'province': '陕西省', 'city': '西安市', 'area': '邑区', 'detail': 1, 'uid': '4757dbec3569b63a3b221c49', 'detail_info': {'tag': '文化传媒;文化宫', 'type': 'life', 'detail_url': 'http://api.map.baidu.com/place/detail?uid=4757dbec3569b63a3b221c49&output=html&source=placeapi_v2', 'image_num': '1', 'comment_num': '0', 'children': []}}"
西安友爱文化传媒(沣西新城大王分公司),108.64007201684424,34.20038997122744,928270f2183f01c2744ff11b,"{'name': '西安友爱文化传媒(沣西新城大王分公司)', 'location': {'lat': 34.204554, 'lng': 108.651142}, 'address': '陕西省西安市邑区大王街道电信局隔壁', 'province': '陕西省', 'city': '西安市', 'area': '邑区', 'detail': 1, 'uid': '928270f2183f01c2744ff11b', 'detail_info': {'tag': '文化传媒;其他', 'type': 'enterprise', 'detail_url': 'http://api.map.baidu.com/place/detail?uid=928270f2183f01c2744ff11b&output=html&source=placeapi_v2', 'price': '0.0', 'comment_num': '2', 'children': []}}"
"{'name': '西安友爱文化传媒(沣西新城大王分公司)', 'location': {'lat': 34.204554, 'lng': 108.651142}, 'address': '陕西省西安市邑区大王街道电信局隔壁', 'province': '陕西省', 'city': '西安市', 'area': '邑区', 'detail': 1, 'uid': '928270f2183f01c2744ff11b', 'detail_info': {'tag': '文化传媒;其他', 'type': 'enterprise', 'detail_url': 'http://api.map.baidu.com/place/detail?uid=928270f2183f01c2744ff11b&output=html&source=placeapi_v2', 'price': '0.0', 'comment_num': '2', 'children': []}}"
西橡职工活动中心,108.64193697311859,34.312664021268944,cb5d935f3d841ab1a2a934d1,"{'name': '西橡职工活动中心', 'location': {'lat': 34.316851, 'lng': 108.65302}, 'address': '陕西省咸阳市秦都区西橡职工活动中心(渭滨镇政府北)', 'province': '陕西省', 'city': '咸阳市', 'area': '秦都区', 'street_id': 'cb5d935f3d841ab1a2a934d1', 'detail': 1, 'uid': 'cb5d935f3d841ab1a2a934d1', 'detail_info': {'tag': '文化传媒;文化宫', 'navi_location': {'lng': 108.65293429268, 'lat': 34.316923995321}, 'type': 'life', 'detail_url': 'http://api.map.baidu.com/place/detail?uid=cb5d935f3d841ab1a2a934d1&output=html&source=placeapi_v2', 'overall_rating': '0.0', 'image_num': '3', 'children': []}}"
"{'name': '西橡职工活动中心', 'location': {'lat': 34.316851, 'lng': 108.65302}, 'address': '陕西省咸阳市秦都区西橡职工活动中心(渭滨镇政府北)', 'province': '陕西省', 'city': '咸阳市', 'area': '秦都区', 'street_id': 'cb5d935f3d841ab1a2a934d1', 'detail': 1, 'uid': 'cb5d935f3d841ab1a2a934d1', 'detail_info': {'tag': '文化传媒;文化宫', 'navi_location': {'lng': 108.65293429268, 'lat': 34.316923995321}, 'type': 'life', 'detail_url': 'http://api.map.baidu.com/place/detail?uid=cb5d935f3d841ab1a2a934d1&output=html&source=placeapi_v2', 'overall_rating': '0.0', 'image_num': '3', 'children': []}}"
咸阳市高新区群众文化站,108.6395694677569,34.31931971554224,36af26de8b91ddd7931fc927,"{'name': '咸阳市高新区群众文化站', 'location': {'lat': 34.323536, 'lng': 108.650645}, 'address': '陕西省咸阳市秦都区咸兴路与西华路交叉口东北50米', 'province': '陕西省', 'city': '咸阳市', 'area': '秦都区', 'street_id': '36af26de8b91ddd7931fc927', 'detail': 1, 'uid': '36af26de8b91ddd7931fc927', 'detail_info': {'tag': '文化传媒;文化宫', 'type': 'life', 'detail_url': 'http://api.map.baidu.com/place/detail?uid=36af26de8b91ddd7931fc927&output=html&source=placeapi_v2', 'overall_rating': '5.0', 'image_num': '6', 'comment_num': '1', 'children': []}}"
"{'name': '咸阳市高新区群众文化站', 'location': {'lat': 34.323536, 'lng': 108.650645}, 'address': '陕西省咸阳市秦都区咸兴路与西华路交叉口东北50米', 'province': '陕西省', 'city': '咸阳市', 'area': '秦都区', 'street_id': '36af26de8b91ddd7931fc927', 'detail': 1, 'uid': '36af26de8b91ddd7931fc927', 'detail_info': {'tag': '文化传媒;文化宫', 'type': 'life', 'detail_url': 'http://api.map.baidu.com/place/detail?uid=36af26de8b91ddd7931fc927&output=html&source=placeapi_v2', 'overall_rating': '5.0', 'image_num': '6', 'comment_num': '1', 'children': []}}"
吕村文化活动广场,108.65199265224722,34.285194092404566,0b29dff92e78f1d5a2046412,"{'name': '吕村文化活动广场', 'location': {'lat': 34.289311, 'lng': 108.663112}, 'address': '陕西省咸阳市秦都区北里老年公寓西门对面', 'province': '陕西省', 'city': '咸阳市', 'area': '秦都区', 'detail': 1, 'uid': '0b29dff92e78f1d5a2046412', 'detail_info': {'tag': '文化传媒;文化宫', 'type': 'enterprise', 'detail_url': 'http://api.map.baidu.com/place/detail?uid=0b29dff92e78f1d5a2046412&output=html&source=placeapi_v2', 'children': []}}"
"{'name': '吕村文化活动广场', 'location': {'lat': 34.289311, 'lng': 108.663112}, 'address': '陕西省咸阳市秦都区北里老年公寓西门对面', 'province': '陕西省', 'city': '咸阳市', 'area': '秦都区', 'detail': 1, 'uid': '0b29dff92e78f1d5a2046412', 'detail_info': {'tag': '文化传媒;文化宫', 'type': 'enterprise', 'detail_url': 'http://api.map.baidu.com/place/detail?uid=0b29dff92e78f1d5a2046412&output=html&source=placeapi_v2', 'children': []}}"
社区活动室,108.66430857277878,34.314475505357834,cac3c87d534e44f328fc4892,"{'name': '社区活动室', 'location': {'lat': 34.318662, 'lng': 108.675464}, 'address': '陕西省咸阳市秦都区渭滨街道西安路枫景苑旁', 'province': '陕西省', 'city': '咸阳市', 'area': '秦都区', 'street_id': 'cac3c87d534e44f328fc4892', 'detail': 1, 'uid': 'cac3c87d534e44f328fc4892', 'detail_info': {'tag': '文化传媒;文化宫', 'type': 'life', 'detail_url': 'http://api.map.baidu.com/place/detail?uid=cac3c87d534e44f328fc4892&output=html&source=placeapi_v2', 'image_num': '1', 'children': []}}"
"{'name': '社区活动室', 'location': {'lat': 34.318662, 'lng': 108.675464}, 'address': '陕西省咸阳市秦都区渭滨街道西安路枫景苑旁', 'province': '陕西省', 'city': '咸阳市', 'area': '秦都区', 'street_id': 'cac3c87d534e44f328fc4892', 'detail': 1, 'uid': 'cac3c87d534e44f328fc4892', 'detail_info': {'tag': '文化传媒;文化宫', 'type': 'life', 'detail_url': 'http://api.map.baidu.com/place/detail?uid=cac3c87d534e44f328fc4892&output=html&source=placeapi_v2', 'image_num': '1', 'children': []}}"
咸阳市书法家协会创作中心,108.6395694677569,34.31931971554224,d9195da233b50bba4354d782,"{'name': '咸阳市书法家协会创作中心', 'location': {'lat': 34.323536, 'lng': 108.650645}, 'address': '陕西省咸阳市秦都区咸兴路与西华路交叉口东北50米', 'province': '陕西省', 'city': '咸阳市', 'area': '秦都区', 'street_id': 'd9195da233b50bba4354d782', 'detail': 1, 'uid': 'd9195da233b50bba4354d782', 'detail_info': {'tag': '文化传媒;文化宫', 'type': 'life', 'detail_url': 'http://api.map.baidu.com/place/detail?uid=d9195da233b50bba4354d782&output=html&source=placeapi_v2', 'overall_rating': '3.5', 'image_num': '3', 'children': []}}"
"{'name': '咸阳市书法家协会创作中心', 'location': {'lat': 34.323536, 'lng': 108.650645}, 'address': '陕西省咸阳市秦都区咸兴路与西华路交叉口东北50米', 'province': '陕西省', 'city': '咸阳市', 'area': '秦都区', 'street_id': 'd9195da233b50bba4354d782', 'detail': 1, 'uid': 'd9195da233b50bba4354d782', 'detail_info': {'tag': '文化传媒;文化宫', 'type': 'life', 'detail_url': 'http://api.map.baidu.com/place/detail?uid=d9195da233b50bba4354d782&output=html&source=placeapi_v2', 'overall_rating': '3.5', 'image_num': '3', 'children': []}}"
陕西灵浚文化传媒有限公司,108.65090961030555,34.32373295407863,8b6d5b32e5a458a0da2f2877,"{'name': '陕西灵浚文化传媒有限公司', 'location': {'lat': 34.327875, 'lng': 108.662048}, 'address': '宝泉路南100米', 'province': '陕西省', 'city': '咸阳市', 'area': '秦都区', 'street_id': '8b6d5b32e5a458a0da2f2877', 'detail': 1, 'uid': '8b6d5b32e5a458a0da2f2877', 'detail_info': {'tag': '文化传媒;其他', 'type': 'enterprise', 'detail_url': 'http://api.map.baidu.com/place/detail?uid=8b6d5b32e5a458a0da2f2877&output=html&source=placeapi_v2', 'children': []}}"
"{'name': '陕西灵浚文化传媒有限公司', 'location': {'lat': 34.327875, 'lng': 108.662048}, 'address': '宝泉路南100米', 'province': '陕西省', 'city': '咸阳市', 'area': '秦都区', 'street_id': '8b6d5b32e5a458a0da2f2877', 'detail': 1, 'uid': '8b6d5b32e5a458a0da2f2877', 'detail_info': {'tag': '文化传媒;其他', 'type': 'enterprise', 'detail_url': 'http://api.map.baidu.com/place/detail?uid=8b6d5b32e5a458a0da2f2877&output=html&source=placeapi_v2', 'children': []}}"
陕西英雄影音文化传媒有限公司,108.6616216071662,34.31790283688406,06d8d55d96dd9abf9222e0f0,"{'name': '陕西英雄影音文化传媒有限公司', 'location': {'lat': 34.322069, 'lng': 108.672779}, 'address': '陕西省咸阳市秦都区劳动路h苑小区1号楼四单元一层2号', 'province': '陕西省', 'city': '咸阳市', 'area': '秦都区', 'street_id': '06d8d55d96dd9abf9222e0f0', 'detail': 1, 'uid': '06d8d55d96dd9abf9222e0f0', 'detail_info': {'tag': '文化传媒;其他', 'type': 'enterprise', 'detail_url': 'http://api.map.baidu.com/place/detail?uid=06d8d55d96dd9abf9222e0f0&output=html&source=placeapi_v2', 'children': []}}"
"{'name': '陕西英雄影音文化传媒有限公司', 'location': {'lat': 34.322069, 'lng': 108.672779}, 'address': '陕西省咸阳市秦都区劳动路h苑小区1号楼四单元一层2号', 'province': '陕西省', 'city': '咸阳市', 'area': '秦都区', 'street_id': '06d8d55d96dd9abf9222e0f0', 'detail': 1, 'uid': '06d8d55d96dd9abf9222e0f0', 'detail_info': {'tag': '文化传媒;其他', 'type': 'enterprise', 'detail_url': 'http://api.map.baidu.com/place/detail?uid=06d8d55d96dd9abf9222e0f0&output=html&source=placeapi_v2', 'children': []}}"
国家新闻出版广电总局五九四台,108.60797498115308,34.36926988906774,05e9661ffe50aa0e8b2fb574,"{'name': '国家新闻出版广电总局五九四台', 'location': {'lat': 34.373958, 'lng': 108.618862}, 'address': '陕西省咸阳市秦都区国家广播电影电视总局五九四台附近', 'province': '陕西省', 'city': '咸阳市', 'area': '秦都区', 'detail': 1, 'uid': '05e9661ffe50aa0e8b2fb574', 'detail_info': {'tag': '文化传媒;广播电视', 'type': 'enterprise', 'detail_url': 'http://api.map.baidu.com/place/detail?uid=05e9661ffe50aa0e8b2fb574&output=html&source=placeapi_v2', 'children': []}}"
"{'name': '国家新闻出版广电总局五九四台', 'location': {'lat': 34.373958, 'lng': 108.618862}, 'address': '陕西省咸阳市秦都区国家广播电影电视总局五九四台附近', 'province': '陕西省', 'city': '咸阳市', 'area': '秦都区', 'detail': 1, 'uid': '05e9661ffe50aa0e8b2fb574', 'detail_info': {'tag': '文化传媒;广播电视', 'type': 'enterprise', 'detail_url': 'http://api.map.baidu.com/place/detail?uid=05e9661ffe50aa0e8b2fb574&output=html&source=placeapi_v2', 'children': []}}"
双照文化站,108.61955303740898,34.400037841971134,738c5ff25e708b6db04c4909,"{'name': '双照文化站', 'location': {'lat': 34.404585, 'lng': 108.630481}, 'address': '312国道附近', 'province': '陕西省', 'city': '咸阳市', 'area': '秦都区', 'detail': 1, 'uid': '738c5ff25e708b6db04c4909', 'detail_info': {'tag': '文化传媒;文化宫', 'type': 'life', 'detail_url': 'http://api.map.baidu.com/place/detail?uid=738c5ff25e708b6db04c4909&output=html&source=placeapi_v2', 'overall_rating': '5.0', 'image_num': '1', 'comment_num': '0', 'children': []}}"
"{'name': '双照文化站', 'location': {'lat': 34.404585, 'lng': 108.630481}, 'address': '312国道附近', 'province': '陕西省', 'city': '咸阳市', 'area': '秦都区', 'detail': 1, 'uid': '738c5ff25e708b6db04c4909', 'detail_info': {'tag': '文化传媒;文化宫', 'type': 'life', 'detail_url': 'http://api.map.baidu.com/place/detail?uid=738c5ff25e708b6db04c4909&output=html&source=placeapi_v2', 'overall_rating': '5.0', 'image_num': '1', 'comment_num': '0', 'children': []}}"
秦时明月影视文化传媒(咸阳)有限公司,108.65865239086459,34.370195555910605,cb1be8365a6bfc1cdbd89157,"{'name': '秦时明月影视文化传媒(咸阳)有限公司', 'location': {'lat': 34.374374, 'lng': 108.669825}, 'address': '陕西省咸阳市秦都区广场路', 'province': '陕西省', 'city': '咸阳市', 'area': '秦都区', 'detail': 1, 'uid': 'cb1be8365a6bfc1cdbd89157', 'detail_info': {'tag': '公司企业;公司', 'type': 'enterprise', 'detail_url': 'http://api.map.baidu.com/place/detail?uid=cb1be8365a6bfc1cdbd89157&output=html&source=placeapi_v2', 'children': []}}"
"{'name': '秦时明月影视文化传媒(咸阳)有限公司', 'location': {'lat': 34.374374, 'lng': 108.669825}, 'address': '陕西省咸阳市秦都区广场路', 'province': '陕西省', 'city': '咸阳市', 'area': '秦都区', 'detail': 1, 'uid': 'cb1be8365a6bfc1cdbd89157', 'detail_info': {'tag': '公司企业;公司', 'type': 'enterprise', 'detail_url': 'http://api.map.baidu.com/place/detail?uid=cb1be8365a6bfc1cdbd89157&output=html&source=placeapi_v2', 'children': []}}"
陕西连大文化传媒有限公司,108.66680154167581,34.3706906774921,0f5fb99de34f58afeb1e9739,"{'name': '陕西连大文化传媒有限公司', 'location': {'lat': 34.374937, 'lng': 108.677979}, 'address': '汽车城商务港C栋601', 'province': '陕西省', 'city': '咸阳市', 'area': '秦都区', 'detail': 1, 'uid': '0f5fb99de34f58afeb1e9739', 'detail_info': {'tag': '文化传媒;其他', 'type': 'enterprise', 'detail_url': 'http://api.map.baidu.com/place/detail?uid=0f5fb99de34f58afeb1e9739&output=html&source=placeapi_v2', 'price': '0', 'children': []}}"
"{'name': '陕西连大文化传媒有限公司', 'location': {'lat': 34.374937, 'lng': 108.677979}, 'address': '汽车城商务港C栋601', 'province': '陕西省', 'city': '咸阳市', 'area': '秦都区', 'detail': 1, 'uid': '0f5fb99de34f58afeb1e9739', 'detail_info': {'tag': '文化传媒;其他', 'type': 'enterprise', 'detail_url': 'http://api.map.baidu.com/place/detail?uid=0f5fb99de34f58afeb1e9739&output=html&source=placeapi_v2', 'price': '0', 'children': []}}"
书法报咸阳工作站,108.66158402083263,34.374574485192404,75ece78fe677a08dbca82235,"{'name': '书法报咸阳工作站', 'location': {'lat': 34.378772, 'lng': 108.672757}, 'address': '陕西省咸阳市秦都区X105', 'province': '陕西省', 'city': '咸阳市', 'area': '秦都区', 'detail': 1, 'uid': '75ece78fe677a08dbca82235', 'detail_info': {'tag': '文化传媒;新闻出版', 'type': 'life', 'detail_url': 'http://api.map.baidu.com/place/detail?uid=75ece78fe677a08dbca82235&output=html&source=placeapi_v2', 'image_num': '1', 'children': []}}"
"{'name': '书法报咸阳工作站', 'location': {'lat': 34.378772, 'lng': 108.672757}, 'address': '陕西省咸阳市秦都区X105', 'province': '陕西省', 'city': '咸阳市', 'area': '秦都区', 'detail': 1, 'uid': '75ece78fe677a08dbca82235', 'detail_info': {'tag': '文化传媒;新闻出版', 'type': 'life', 'detail_url': 'http://api.map.baidu.com/place/detail?uid=75ece78fe677a08dbca82235&output=html&source=placeapi_v2', 'image_num': '1', 'children': []}}"
马庄综合文化站,108.6547263810485,34.43689974372385,2f244fee5bad5c2d7169d3aa,"{'name': '马庄综合文化站', 'location': {'lat': 34.441099, 'lng': 108.66588}, 'address': '陕西省咸阳市秦都区马庄镇106县道西(咸阳市秦都区地主税务局马庄地税所西南)', 'province': '陕西省', 'city': '咸阳市', 'area': '秦都区', 'detail': 1, 'uid': '2f244fee5bad5c2d7169d3aa', 'detail_info': {'tag': '文化传媒;文化宫', 'type': 'life', 'detail_url': 'http://api.map.baidu.com/place/detail?uid=2f244fee5bad5c2d7169d3aa&output=html&source=placeapi_v2', 'image_num': '1', 'children': []}}"
"{'name': '马庄综合文化站', 'location': {'lat': 34.441099, 'lng': 108.66588}, 'address': '陕西省咸阳市秦都区马庄镇106县道西(咸阳市秦都区地主税务局马庄地税所西南)', 'province': '陕西省', 'city': '咸阳市', 'area': '秦都区', 'detail': 1, 'uid': '2f244fee5bad5c2d7169d3aa', 'detail_info': {'tag': '文化传媒;文化宫', 'type': 'life', 'detail_url': 'http://api.map.baidu.com/place/detail?uid=2f244fee5bad5c2d7169d3aa&output=html&source=placeapi_v2', 'image_num': '1', 'children': []}}"
开拓影视广告中心,108.564868193345,34.50463166788367,f5bac412c63ffc99d52ce276,"{'name': '开拓影视广告中心', 'location': {'lat': 34.50914, 'lng': 108.575842}, 'address': '322县道大都饭店旁', 'province': '陕西省', 'city': '咸阳市', 'area': '礼泉县', 'detail': 1, 'uid': 'f5bac412c63ffc99d52ce276', 'detail_info': {'tag': '文化传媒;广播电视', 'type': 'enterprise', 'detail_url': 'http://api.map.baidu.com/place/detail?uid=f5bac412c63ffc99d52ce276&output=html&source=placeapi_v2', 'children': []}}"
"{'name': '开拓影视广告中心', 'location': {'lat': 34.50914, 'lng': 108.575842}, 'address': '322县道大都饭店旁', 'province': '陕西省', 'city': '咸阳市', 'area': '礼泉县', 'detail': 1, 'uid': 'f5bac412c63ffc99d52ce276', 'detail_info': {'tag': '文化传媒;广播电视', 'type': 'enterprise', 'detail_url': 'http://api.map.baidu.com/place/detail?uid=f5bac412c63ffc99d52ce276&output=html&source=placeapi_v2', 'children': []}}"
北牛村中老年活动中心,108.6983053886561,34.1165906014732,8f1d3f2371c81762b23c81bc,"{'name': '北牛村中老年活动中心', 'location': {'lat': 34.121271, 'lng': 108.709402}, 'address': '牛北村附近', 'province': '陕西省', 'city': '西安市', 'area': '邑区', 'detail': 1, 'uid': '8f1d3f2371c81762b23c81bc', 'detail_info': {'tag': '文化传媒;文化宫', 'type': 'life', 'detail_url': 'http://api.map.baidu.com/place/detail?uid=8f1d3f2371c81762b23c81bc&output=html&source=placeapi_v2', 'overall_rating': '5.0', 'image_num': '1', 'comment_num': '0', 'children': []}}"
"{'name': '北牛村中老年活动中心', 'location': {'lat': 34.121271, 'lng': 108.709402}, 'address': '牛北村附近', 'province': '陕西省', 'city': '西安市', 'area': '邑区', 'detail': 1, 'uid': '8f1d3f2371c81762b23c81bc', 'detail_info': {'tag': '文化传媒;文化宫', 'type': 'life', 'detail_url': 'http://api.map.baidu.com/place/detail?uid=8f1d3f2371c81762b23c81bc&output=html&source=placeapi_v2', 'overall_rating': '5.0', 'image_num': '1', 'comment_num': '0', 'children': []}}"
西安飞天演艺文化传播公司,108.70807916721776,34.10958676477036,6933071aea1b8a40b817e74b,"{'name': '西安飞天演艺文化传播公司', 'location': {'lat': 34.114378, 'lng': 108.719166}, 'address': '陕西省西安市邑区西祖路', 'province': '陕西省', 'city': '西安市', 'area': '邑区', 'detail': 1, 'uid': '6933071aea1b8a40b817e74b', 'detail_info': {'tag': '文化传媒;其他', 'type': 'enterprise', 'detail_url': 'http://api.map.baidu.com/place/detail?uid=6933071aea1b8a40b817e74b&output=html&source=placeapi_v2', 'children': []}}"
"{'name': '西安飞天演艺文化传播公司', 'location': {'lat': 34.114378, 'lng': 108.719166}, 'address': '陕西省西安市邑区西祖路', 'province': '陕西省', 'city': '西安市', 'area': '邑区', 'detail': 1, 'uid': '6933071aea1b8a40b817e74b', 'detail_info': {'tag': '文化传媒;其他', 'type': 'enterprise', 'detail_url': 'http://api.map.baidu.com/place/detail?uid=6933071aea1b8a40b817e74b&output=html&source=placeapi_v2', 'children': []}}"
牛东崔家乐园,108.69465956838778,34.10936405283922,e588f239e6df06bd1df74d32,"{'name': '牛东崔家乐园', 'location': {'lat': 34.113985, 'lng': 108.705764}, 'address': '105县道附近', 'province': '陕西省', 'city': '西安市', 'area': '邑区', 'detail': 1, 'uid': 'e588f239e6df06bd1df74d32', 'detail_info': {'tag': '文化传媒;文化宫', 'type': 'life', 'detail_url': 'http://api.map.baidu.com/place/detail?uid=e588f239e6df06bd1df74d32&output=html&source=placeapi_v2', 'overall_rating': '1.0', 'image_num': '1', 'comment_num': '1', 'children': []}}"
"{'name': '牛东崔家乐园', 'location': {'lat': 34.113985, 'lng': 108.705764}, 'address': '105县道附近', 'province': '陕西省', 'city': '西安市', 'area': '邑区', 'detail': 1, 'uid': 'e588f239e6df06bd1df74d32', 'detail_info': {'tag': '文化传媒;文化宫', 'type': 'life', 'detail_url': 'http://api.map.baidu.com/place/detail?uid=e588f239e6df06bd1df74d32&output=html&source=placeapi_v2', 'overall_rating': '1.0', 'image_num': '1', 'comment_num': '1', 'children': []}}"
西安医学高等专科学校-文化活动中心,108.72627583452774,34.11507460152674,88363b7ab46bb077adcb6649,"{'name': '西安医学高等专科学校-文化活动中心', 'location': {'lat': 34.119858, 'lng': 108.737402}, 'address': '西安医学高等专科学校内', 'province': '陕西省', 'city': '西安市', 'area': '邑区', 'detail': 1, 'uid': '88363b7ab46bb077adcb6649', 'detail_info': {'tag': '文化传媒;文化宫', 'type': 'life', 'detail_url': 'http://api.map.baidu.com/place/detail?uid=88363b7ab46bb077adcb6649&output=html&source=placeapi_v2', 'image_num': '1', 'children': []}}"
"{'name': '西安医学高等专科学校-文化活动中心', 'location': {'lat': 34.119858, 'lng': 108.737402}, 'address': '西安医学高等专科学校内', 'province': '陕西省', 'city': '西安市', 'area': '邑区', 'detail': 1, 'uid': '88363b7ab46bb077adcb6649', 'detail_info': {'tag': '文化传媒;文化宫', 'type': 'life', 'detail_url': 'http://api.map.baidu.com/place/detail?uid=88363b7ab46bb077adcb6649&output=html&source=placeapi_v2', 'image_num': '1', 'children': []}}"
秦二村文化室,108.74483996685471,34.110331726729555,bd8d114053c4d01d2dfaa71e,"{'name': '秦二村文化室', 'location': {'lat': 34.114854, 'lng': 108.756067}, 'address': '长安大街28号附近', 'province': '陕西省', 'city': '西安市', 'area': '邑区', 'detail': 1, 'uid': 'bd8d114053c4d01d2dfaa71e', 'detail_info': {'tag': '文化传媒;文化宫', 'type': 'life', 'detail_url': 'http://api.map.baidu.com/place/detail?uid=bd8d114053c4d01d2dfaa71e&output=html&source=placeapi_v2', 'image_num': '1', 'children': []}}"
"{'name': '秦二村文化室', 'location': {'lat': 34.114854, 'lng': 108.756067}, 'address': '长安大街28号附近', 'province': '陕西省', 'city': '西安市', 'area': '邑区', 'detail': 1, 'uid': 'bd8d114053c4d01d2dfaa71e', 'detail_info': {'tag': '文化传媒;文化宫', 'type': 'life', 'detail_url': 'http://api.map.baidu.com/place/detail?uid=bd8d114053c4d01d2dfaa71e&output=html&source=placeapi_v2', 'image_num': '1', 'children': []}}"
革命烈士张周勤事迹展览室,108.71249362299987,34.204106900700125,dcfb3b46f0f5310543ab9ab1,"{'name': '革命烈士张周勤事迹展览室', 'location': {'lat': 34.208947, 'lng': 108.723574}, 'address': '丰镐遗址保管所西南', 'province': '陕西省', 'city': '西安市', 'area': '长安区', 'detail': 1, 'uid': 'dcfb3b46f0f5310543ab9ab1', 'detail_info': {'tag': '文化传媒;展览馆', 'type': 'scope', 'detail_url': 'http://api.map.baidu.com/place/detail?uid=dcfb3b46f0f5310543ab9ab1&output=html&source=placeapi_v2', 'comment_num': '0', 'children': []}}"
"{'name': '革命烈士张周勤事迹展览室', 'location': {'lat': 34.208947, 'lng': 108.723574}, 'address': '丰镐遗址保管所西南', 'province': '陕西省', 'city': '西安市', 'area': '长安区', 'detail': 1, 'uid': 'dcfb3b46f0f5310543ab9ab1', 'detail_info': {'tag': '文化传媒;展览馆', 'type': 'scope', 'detail_url': 'http://api.map.baidu.com/place/detail?uid=dcfb3b46f0f5310543ab9ab1&output=html&source=placeapi_v2', 'comment_num': '0', 'children': []}}"
学子之家图书文化传播有限公司,108.72256358946571,34.160763300883815,80e217f5570d779e1b94c6c2,"{'name': '学子之家图书文化传播有限公司', 'location': {'lat': 34.165575, 'lng': 108.733644}, 'address': '陕西省西安市长安区Y244中国移动西南100米', 'province': '陕西省', 'city': '西安市', 'area': '长安区', 'detail': 1, 'uid': '80e217f5570d779e1b94c6c2', 'detail_info': {'tag': '公司企业;公司', 'type': 'enterprise', 'detail_url': 'http://api.map.baidu.com/place/detail?uid=80e217f5570d779e1b94c6c2&output=html&source=placeapi_v2', 'price': '0.0', 'children': []}}"
"{'name': '学子之家图书文化传播有限公司', 'location': {'lat': 34.165575, 'lng': 108.733644}, 'address': '陕西省西安市长安区Y244中国移动西南100米', 'province': '陕西省', 'city': '西安市', 'area': '长安区', 'detail': 1, 'uid': '80e217f5570d779e1b94c6c2', 'detail_info': {'tag': '公司企业;公司', 'type': 'enterprise', 'detail_url': 'http://api.map.baidu.com/place/detail?uid=80e217f5570d779e1b94c6c2&output=html&source=placeapi_v2', 'price': '0.0', 'children': []}}"
陕西天约国际教育中心,108.76071401003462,34.22885743228637,dfe4eadd8a142e1614c8f6fd,"{'name': '陕西天约国际教育中心', 'location': {'lat': 34.233168, 'lng': 108.77203}, 'address': '花园村附近', 'province': '陕西省', 'city': '西安市', 'area': '长安区', 'detail': 1, 'uid': 'dfe4eadd8a142e1614c8f6fd', 'detail_info': {'tag': '文化传媒;文化宫', 'type': 'life', 'detail_url': 'http://api.map.baidu.com/place/detail?uid=dfe4eadd8a142e1614c8f6fd&output=html&source=placeapi_v2', 'overall_rating': '2.2', 'image_num': '1', 'comment_num': '0', 'children': []}}"
"{'name': '陕西天约国际教育中心', 'location': {'lat': 34.233168, 'lng': 108.77203}, 'address': '花园村附近', 'province': '陕西省', 'city': '西安市', 'area': '长安区', 'detail': 1, 'uid': 'dfe4eadd8a142e1614c8f6fd', 'detail_info': {'tag': '文化传媒;文化宫', 'type': 'life', 'detail_url': 'http://api.map.baidu.com/place/detail?uid=dfe4eadd8a142e1614c8f6fd&output=html&source=placeapi_v2', 'overall_rating': '2.2', 'image_num': '1', 'comment_num': '0', 'children': []}}"
咸阳日报,108.6762083202847,34.32441135873796,cc0849a07386db50940319e4,"{'name': '咸阳日报', 'location': {'lat': 34.328769, 'lng': 108.687362}, 'address': '渭阳西路与彩虹一路十字路口西', 'province': '陕西省', 'city': '咸阳市', 'area': '秦都区', 'street_id': 'cc0849a07386db50940319e4', 'telephone': '13225690921', 'detail': 1, 'uid': 'cc0849a07386db50940319e4', 'detail_info': {'tag': '文化传媒;新闻出版', 'navi_location': {'lng': 108.68727859999, 'lat': 34.328982845666}, 'type': 'enterprise', 'detail_url': 'http://api.map.baidu.com/place/detail?uid=cc0849a07386db50940319e4&output=html&source=placeapi_v2', 'children': []}}"
"{'name': '咸阳日报', 'location': {'lat': 34.328769, 'lng': 108.687362}, 'address': '渭阳西路与彩虹一路十字路口西', 'province': '陕西省', 'city': '咸阳市', 'area': '秦都区', 'street_id': 'cc0849a07386db50940319e4', 'telephone': '13225690921', 'detail': 1, 'uid': 'cc0849a07386db50940319e4', 'detail_info': {'tag': '文化传媒;新闻出版', 'navi_location': {'lng': 108.68727859999, 'lat': 34.328982845666}, 'type': 'enterprise', 'detail_url': 'http://api.map.baidu.com/place/detail?uid=cc0849a07386db50940319e4&output=html&source=placeapi_v2', 'children': []}}"
咸阳文体中心,108.71074872866342,34.34115414088662,922d4968716cb0ef1e1d119c,"{'name': '咸阳文体中心', 'location': {'lat': 34.346047, 'lng': 108.721852}, 'address': '咸阳市秦都区乐育北路18号', 'province': '陕西省', 'city': '咸阳市', 'area': '秦都区', 'street_id': '922d4968716cb0ef1e1d119c', 'telephone': '13468507558', 'detail': 1, 'uid': '922d4968716cb0ef1e1d119c', 'detail_info': {'tag': '文化传媒;文化宫', 'type': 'enterprise', 'detail_url': 'http://api.map.baidu.com/place/detail?uid=922d4968716cb0ef1e1d119c&output=html&source=placeapi_v2', 'children': []}}"
"{'name': '咸阳文体中心', 'location': {'lat': 34.346047, 'lng': 108.721852}, 'address': '咸阳市秦都区乐育北路18号', 'province': '陕西省', 'city': '咸阳市', 'area': '秦都区', 'street_id': '922d4968716cb0ef1e1d119c', 'telephone': '13468507558', 'detail': 1, 'uid': '922d4968716cb0ef1e1d119c', 'detail_info': {'tag': '文化传媒;文化宫', 'type': 'enterprise', 'detail_url': 'http://api.map.baidu.com/place/detail?uid=922d4968716cb0ef1e1d119c&output=html&source=placeapi_v2', 'children': []}}"
工人文化宫,108.70804720870856,34.33712455642862,72a6596cb3640046f7231001,"{'name': '工人文化宫', 'location': {'lat': 34.341997, 'lng': 108.719147}, 'address': '人民中路11号', 'province': '陕西省', 'city': '咸阳市', 'area': '秦都区', 'street_id': '72a6596cb3640046f7231001', 'detail': 1, 'uid': '72a6596cb3640046f7231001', 'detail_info': {'tag': '文化传媒;文化宫', 'navi_location': {'lng': 108.71918500406, 'lat': 34.342518341887}, 'type': 'life', 'detail_url': 'http://api.map.baidu.com/place/detail?uid=72a6596cb3640046f7231001&output=html&source=placeapi_v2', 'overall_rating': '4.0', 'image_num': '2', 'comment_num': '1', 'children': []}}"
"{'name': '工人文化宫', 'location': {'lat': 34.341997, 'lng': 108.719147}, 'address': '人民中路11号', 'province': '陕西省', 'city': '咸阳市', 'area': '秦都区', 'street_id': '72a6596cb3640046f7231001', 'detail': 1, 'uid': '72a6596cb3640046f7231001', 'detail_info': {'tag': '文化传媒;文化宫', 'navi_location': {'lng': 108.71918500406, 'lat': 34.342518341887}, 'type': 'life', 'detail_url': 'http://api.map.baidu.com/place/detail?uid=72a6596cb3640046f7231001&output=html&source=placeapi_v2', 'overall_rating': '4.0', 'image_num': '2', 'comment_num': '1', 'children': []}}"
彩虹俱乐部,108.6792592303586,34.32928991243818,62822e24913c1b890a5cb368,"{'name': '彩虹俱乐部', 'location': {'lat': 34.333705, 'lng': 108.690411}, 'address': '陕西省咸阳市秦都区彩虹老生活区(南区)内', 'province': '陕西省', 'city': '咸阳市', 'area': '秦都区', 'street_id': '62822e24913c1b890a5cb368', 'detail': 1, 'uid': '62822e24913c1b890a5cb368', 'detail_info': {'tag': '文化传媒;文化宫', 'type': 'life', 'detail_url': 'http://api.map.baidu.com/place/detail?uid=62822e24913c1b890a5cb368&output=html&source=placeapi_v2', 'overall_rating': '4.0', 'image_num': '13', 'comment_num': '2', 'children': []}}"
"{'name': '彩虹俱乐部', 'location': {'lat': 34.333705, 'lng': 108.690411}, 'address': '陕西省咸阳市秦都区彩虹老生活区(南区)内', 'province': '陕西省', 'city': '咸阳市', 'area': '秦都区', 'street_id': '62822e24913c1b890a5cb368', 'detail': 1, 'uid': '62822e24913c1b890a5cb368', 'detail_info': {'tag': '文化传媒;文化宫', 'type': 'life', 'detail_url': 'http://api.map.baidu.com/place/detail?uid=62822e24913c1b890a5cb368&output=html&source=placeapi_v2', 'overall_rating': '4.0', 'image_num': '13', 'comment_num': '2', 'children': []}}"
华商报咸阳记者站,108.68337768138585,34.32569869470079,20b943b6fe29392cc929150b,"{'name': '华商报咸阳记者站', 'location': {'lat': 34.330187, 'lng': 108.694515}, 'address': '渭阳西路63号中华大厦B楼301/302室', 'province': '陕西省', 'city': '咸阳市', 'area': '秦都区', 'street_id': '20b943b6fe29392cc929150b', 'detail': 1, 'uid': '20b943b6fe29392cc929150b', 'detail_info': {'tag': '文化传媒;新闻出版', 'navi_location': {'lng': 108.69445816934, 'lat': 34.330308926524}, 'type': 'enterprise', 'detail_url': 'http://api.map.baidu.com/place/detail?uid=20b943b6fe29392cc929150b&output=html&source=placeapi_v2', 'children': []}}"
"{'name': '华商报咸阳记者站', 'location': {'lat': 34.330187, 'lng': 108.694515}, 'address': '渭阳西路63号中华大厦B楼301/302室', 'province': '陕西省', 'city': '咸阳市', 'area': '秦都区', 'street_id': '20b943b6fe29392cc929150b', 'detail': 1, 'uid': '20b943b6fe29392cc929150b', 'detail_info': {'tag': '文化传媒;新闻出版', 'navi_location': {'lng': 108.69445816934, 'lat': 34.330308926524}, 'type': 'enterprise', 'detail_url': 'http://api.map.baidu.com/place/detail?uid=20b943b6fe29392cc929150b&output=html&source=placeapi_v2', 'children': []}}"
咸阳市群众艺术馆,108.70005645105819,34.331150063622765,fcf50abcdb95fa30c6f50dac,"{'name': '咸阳市群众艺术馆', 'location': {'lat': 34.335931, 'lng': 108.711158}, 'address': '文苑大厦5层', 'province': '陕西省', 'city': '咸阳市', 'area': '秦都区', 'street_id': 'fcf50abcdb95fa30c6f50dac', 'detail': 1, 'uid': 'fcf50abcdb95fa30c6f50dac', 'detail_info': {'tag': '文化传媒;美术馆', 'navi_location': {'lng': 108.71099245781, 'lat': 34.335766929399}, 'type': 'scope', 'detail_url': 'http://api.map.baidu.com/place/detail?uid=fcf50abcdb95fa30c6f50dac&output=html&source=placeapi_v2', 'overall_rating': '0.0', 'children': []}}"
"{'name': '咸阳市群众艺术馆', 'location': {'lat': 34.335931, 'lng': 108.711158}, 'address': '文苑大厦5层', 'province': '陕西省', 'city': '咸阳市', 'area': '秦都区', 'street_id': 'fcf50abcdb95fa30c6f50dac', 'detail': 1, 'uid': 'fcf50abcdb95fa30c6f50dac', 'detail_info': {'tag': '文化传媒;美术馆', 'navi_location': {'lng': 108.71099245781, 'lat': 34.335766929399}, 'type': 'scope', 'detail_url': 'http://api.map.baidu.com/place/detail?uid=fcf50abcdb95fa30c6f50dac&output=html&source=placeapi_v2', 'overall_rating': '0.0', 'children': []}}"
渭城区文化馆,108.72215311121009,34.335117905800686,e56bf5e3c3af40440682c2e3,"{'name': '渭城区文化馆', 'location': {'lat': 34.340008, 'lng': 108.733275}, 'address': '中山街89号', 'province': '陕西省', 'city': '咸阳市', 'area': '渭城区', 'street_id': 'e56bf5e3c3af40440682c2e3', 'telephone': '15229506781', 'detail': 1, 'uid': 'e56bf5e3c3af40440682c2e3', 'detail_info': {'tag': '文化传媒;文化宫', 'type': 'life', 'detail_url': 'http://api.map.baidu.com/place/detail?uid=e56bf5e3c3af40440682c2e3&output=html&source=placeapi_v2', 'image_num': '7', 'comment_num': '1', 'children': []}}"
"{'name': '渭城区文化馆', 'location': {'lat': 34.340008, 'lng': 108.733275}, 'address': '中山街89号', 'province': '陕西省', 'city': '咸阳市', 'area': '渭城区', 'street_id': 'e56bf5e3c3af40440682c2e3', 'telephone': '15229506781', 'detail': 1, 'uid': 'e56bf5e3c3af40440682c2e3', 'detail_info': {'tag': '文化传媒;文化宫', 'type': 'life', 'detail_url': 'http://api.map.baidu.com/place/detail?uid=e56bf5e3c3af40440682c2e3&output=html&source=placeapi_v2', 'image_num': '7', 'comment_num': '1', 'children': []}}"
沐鸣艺术活动中心,108.72118482387535,34.35533060183674,6a0ec2ce65bb76f316c8f666,"{'name': '沐鸣艺术活动中心', 'location': {'lat': 34.360237, 'lng': 108.732311}, 'address': '新兴北路361号', 'province': '陕西省', 'city': '咸阳市', 'area': '渭城区', 'street_id': '6a0ec2ce65bb76f316c8f666', 'detail': 1, 'uid': '6a0ec2ce65bb76f316c8f666', 'detail_info': {'tag': '文化传媒;文化宫', 'type': 'life', 'detail_url': 'http://api.map.baidu.com/place/detail?uid=6a0ec2ce65bb76f316c8f666&output=html&source=placeapi_v2', 'image_num': '2', 'comment_num': '1', 'children': []}}"
"{'name': '沐鸣艺术活动中心', 'location': {'lat': 34.360237, 'lng': 108.732311}, 'address': '新兴北路361号', 'province': '陕西省', 'city': '咸阳市', 'area': '渭城区', 'street_id': '6a0ec2ce65bb76f316c8f666', 'detail': 1, 'uid': '6a0ec2ce65bb76f316c8f666', 'detail_info': {'tag': '文化传媒;文化宫', 'type': 'life', 'detail_url': 'http://api.map.baidu.com/place/detail?uid=6a0ec2ce65bb76f316c8f666&output=html&source=placeapi_v2', 'image_num': '2', 'comment_num': '1', 'children': []}}"
建行大厦-会议室,108.69990610432843,34.32720320333233,c645609cad8297b049fd3f7e,"{'name': '建行大厦-会议室', 'location': {'lat': 34.331979, 'lng': 108.711004}, 'address': '秦皇路4号', 'province': '陕西省', 'city': '咸阳市', 'area': '秦都区', 'street_id': 'c645609cad8297b049fd3f7e', 'telephone': '(029)33250991', 'detail': 1, 'uid': 'c645609cad8297b049fd3f7e', 'detail_info': {'tag': '文化传媒;展览馆', 'navi_location': {'lng': 108.71121865114, 'lat': 34.332010790276}, 'type': 'scope', 'detail_url': 'http://api.map.baidu.com/place/detail?uid=c645609cad8297b049fd3f7e&output=html&source=placeapi_v2', 'children': []}}"
"{'name': '建行大厦-会议室', 'location': {'lat': 34.331979, 'lng': 108.711004}, 'address': '秦皇路4号', 'province': '陕西省', 'city': '咸阳市', 'area': '秦都区', 'street_id': 'c645609cad8297b049fd3f7e', 'telephone': '(029)33250991', 'detail': 1, 'uid': 'c645609cad8297b049fd3f7e', 'detail_info': {'tag': '文化传媒;展览馆', 'navi_location': {'lng': 108.71121865114, 'lat': 34.332010790276}, 'type': 'scope', 'detail_url': 'http://api.map.baidu.com/place/detail?uid=c645609cad8297b049fd3f7e&output=html&source=placeapi_v2', 'children': []}}"
民间艺术馆,108.71989790350929,34.335380520296354,530bff30486e91f1b35c6a34,"{'name': '民间艺术馆', 'location': {'lat': 34.34028, 'lng': 108.731013}, 'address': '陕西省咸阳市渭城区中山街53号', 'province': '陕西省', 'city': '咸阳市', 'area': '渭城区', 'street_id': '530bff30486e91f1b35c6a34', 'detail': 1, 'uid': '530bff30486e91f1b35c6a34', 'detail_info': {'tag': '文化传媒;美术馆', 'type': 'scope', 'detail_url': 'http://api.map.baidu.com/place/detail?uid=530bff30486e91f1b35c6a34&output=html&source=placeapi_v2', 'overall_rating': '0.0', 'children': []}}"
"{'name': '民间艺术馆', 'location': {'lat': 34.34028, 'lng': 108.731013}, 'address': '陕西省咸阳市渭城区中山街53号', 'province': '陕西省', 'city': '咸阳市', 'area': '渭城区', 'street_id': '530bff30486e91f1b35c6a34', 'detail': 1, 'uid': '530bff30486e91f1b35c6a34', 'detail_info': {'tag': '文化传媒;美术馆', 'type': 'scope', 'detail_url': 'http://api.map.baidu.com/place/detail?uid=530bff30486e91f1b35c6a34&output=html&source=placeapi_v2', 'overall_rating': '0.0', 'children': []}}"
花为媒文化传媒有限公司,108.7124003201769,34.33312811437056,6fddd7fdb428d27f3517dce5,"{'name': '花为媒文化传媒有限公司', 'location': {'lat': 34.338023, 'lng': 108.723499}, 'address': '陕西省咸阳市秦都区乐育南路333号', 'province': '陕西省', 'city': '咸阳市', 'area': '秦都区', 'street_id': '6fddd7fdb428d27f3517dce5', 'telephone': '(029)33166008', 'detail': 1, 'uid': '6fddd7fdb428d27f3517dce5', 'detail_info': {'tag': '文化传媒;其他', 'navi_location': {'lng': 108.72360012983, 'lat': 34.338084430103}, 'type': 'enterprise', 'detail_url': 'http://api.map.baidu.com/place/detail?uid=6fddd7fdb428d27f3517dce5&output=html&source=placeapi_v2', 'overall_rating': '2.0', 'comment_num': '1', 'children': []}}"
"{'name': '花为媒文化传媒有限公司', 'location': {'lat': 34.338023, 'lng': 108.723499}, 'address': '陕西省咸阳市秦都区乐育南路333号', 'province': '陕西省', 'city': '咸阳市', 'area': '秦都区', 'street_id': '6fddd7fdb428d27f3517dce5', 'telephone': '(029)33166008', 'detail': 1, 'uid': '6fddd7fdb428d27f3517dce5', 'detail_info': {'tag': '文化传媒;其他', 'navi_location': {'lng': 108.72360012983, 'lat': 34.338084430103}, 'type': 'enterprise', 'detail_url': 'http://api.map.baidu.com/place/detail?uid=6fddd7fdb428d27f3517dce5&output=html&source=placeapi_v2', 'overall_rating': '2.0', 'comment_num': '1', 'children': []}}"
咸阳市演艺公司-豫剧团,108.72367071002515,34.34474331048432,fa835ce299b95cb7e812e4df,"{'name': '咸阳市演艺公司-豫剧团', 'location': {'lat': 34.349631, 'lng': 108.734804}, 'address': '新兴南路127号付1号', 'province': '陕西省', 'city': '咸阳市', 'area': '渭城区', 'street_id': 'fa835ce299b95cb7e812e4df', 'telephone': '(029)36819998', 'detail': 1, 'uid': 'fa835ce299b95cb7e812e4df', 'detail_info': {'tag': '文化传媒;艺术团体', 'type': 'enterprise', 'detail_url': 'http://api.map.baidu.com/place/detail?uid=fa835ce299b95cb7e812e4df&output=html&source=placeapi_v2', 'comment_num': '1', 'children': []}}"
"{'name': '咸阳市演艺公司-豫剧团', 'location': {'lat': 34.349631, 'lng': 108.734804}, 'address': '新兴南路127号付1号', 'province': '陕西省', 'city': '咸阳市', 'area': '渭城区', 'street_id': 'fa835ce299b95cb7e812e4df', 'telephone': '(029)36819998', 'detail': 1, 'uid': 'fa835ce299b95cb7e812e4df', 'detail_info': {'tag': '文化传媒;艺术团体', 'type': 'enterprise', 'detail_url': 'http://api.map.baidu.com/place/detail?uid=fa835ce299b95cb7e812e4df&output=html&source=placeapi_v2', 'comment_num': '1', 'children': []}}"
汇丰印务,108.70245828930588,34.344749474594565,c29e3846319893f300ec01b2,"{'name': '汇丰印务', 'location': {'lat': 34.349571, 'lng': 108.713566}, 'address': '陕西省咸阳市秦都区联盟三路副2号', 'province': '陕西省', 'city': '咸阳市', 'area': '秦都区', 'street_id': 'c29e3846319893f300ec01b2', 'telephone': '(029)33211082', 'detail': 1, 'uid': 'c29e3846319893f300ec01b2', 'detail_info': {'tag': '文化传媒', 'type': 'enterprise', 'detail_url': 'http://api.map.baidu.com/place/detail?uid=c29e3846319893f300ec01b2&output=html&source=placeapi_v2', 'children': []}}"
"{'name': '汇丰印务', 'location': {'lat': 34.349571, 'lng': 108.713566}, 'address': '陕西省咸阳市秦都区联盟三路副2号', 'province': '陕西省', 'city': '咸阳市', 'area': '秦都区', 'street_id': 'c29e3846319893f300ec01b2', 'telephone': '(029)33211082', 'detail': 1, 'uid': 'c29e3846319893f300ec01b2', 'detail_info': {'tag': '文化传媒', 'type': 'enterprise', 'detail_url': 'http://api.map.baidu.com/place/detail?uid=c29e3846319893f300ec01b2&output=html&source=placeapi_v2', 'children': []}}"
蒙趣少儿美术馆,108.7139678577999,34.33752704586649,d3addf1f07df26e30bf5eb93,"{'name': '蒙趣少儿美术馆', 'location': {'lat': 34.34243, 'lng': 108.725072}, 'address': '咸阳市人民东路银都国际办公中心8楼801室', 'province': '陕西省', 'city': '咸阳市', 'area': '渭城区', 'street_id': 'd3addf1f07df26e30bf5eb93', 'detail': 1, 'uid': 'd3addf1f07df26e30bf5eb93', 'detail_info': {'tag': '文化传媒;美术馆', 'navi_location': {'lng': 108.7249009319, 'lat': 34.342398847846}, 'type': 'life', 'detail_url': 'http://api.map.baidu.com/place/detail?uid=d3addf1f07df26e30bf5eb93&output=html&source=placeapi_v2', 'overall_rating': '4.8', 'image_num': '4', 'children': []}}"
"{'name': '蒙趣少儿美术馆', 'location': {'lat': 34.34243, 'lng': 108.725072}, 'address': '咸阳市人民东路银都国际办公中心8楼801室', 'province': '陕西省', 'city': '咸阳市', 'area': '渭城区', 'street_id': 'd3addf1f07df26e30bf5eb93', 'detail': 1, 'uid': 'd3addf1f07df26e30bf5eb93', 'detail_info': {'tag': '文化传媒;美术馆', 'navi_location': {'lng': 108.7249009319, 'lat': 34.342398847846}, 'type': 'life', 'detail_url': 'http://api.map.baidu.com/place/detail?uid=d3addf1f07df26e30bf5eb93&output=html&source=placeapi_v2', 'overall_rating': '4.8', 'image_num': '4', 'children': []}}"
铁原宾馆-小会议室,108.72063528822198,34.35871901134202,6695a680232a1a390c0a708e,"{'name': '铁原宾馆-小会议室', 'location': {'lat': 34.363629, 'lng': 108.731759}, 'address': '新兴北路铁原宾馆3/5层', 'province': '陕西省', 'city': '咸阳市', 'area': '渭城区', 'street_id': '6695a680232a1a390c0a708e', 'telephone': '(029)33784639', 'detail': 1, 'uid': '6695a680232a1a390c0a708e', 'detail_info': {'tag': '文化传媒;展览馆', 'type': 'scope', 'detail_url': 'http://api.map.baidu.com/place/detail?uid=6695a680232a1a390c0a708e&output=html&source=placeapi_v2', 'children': []}}"
"{'name': '铁原宾馆-小会议室', 'location': {'lat': 34.363629, 'lng': 108.731759}, 'address': '新兴北路铁原宾馆3/5层', 'province': '陕西省', 'city': '咸阳市', 'area': '渭城区', 'street_id': '6695a680232a1a390c0a708e', 'telephone': '(029)33784639', 'detail': 1, 'uid': '6695a680232a1a390c0a708e', 'detail_info': {'tag': '文化传媒;展览馆', 'type': 'scope', 'detail_url': 'http://api.map.baidu.com/place/detail?uid=6695a680232a1a390c0a708e&output=html&source=placeapi_v2', 'children': []}}"
渭阳西路办事处七里铺社区老年活动中心,108.6778228599025,34.33236415895942,17504504b5154e48fea7784c,"{'name': '渭阳西路办事处七里铺社区老年活动中心', 'location': {'lat': 34.336756, 'lng': 108.688981}, 'address': '陕西省咸阳市秦都区金海岸饭店东南(人民西路南)', 'province': '陕西省', 'city': '咸阳市', 'area': '秦都区', 'street_id': '17504504b5154e48fea7784c', 'detail': 1, 'uid': '17504504b5154e48fea7784c', 'detail_info': {'tag': '文化传媒;文化宫', 'type': 'life', 'detail_url': 'http://api.map.baidu.com/place/detail?uid=17504504b5154e48fea7784c&output=html&source=placeapi_v2', 'overall_rating': '0.0', 'image_num': '1', 'children': []}}"
"{'name': '渭阳西路办事处七里铺社区老年活动中心', 'location': {'lat': 34.336756, 'lng': 108.688981}, 'address': '陕西省咸阳市秦都区金海岸饭店东南(人民西路南)', 'province': '陕西省', 'city': '咸阳市', 'area': '秦都区', 'street_id': '17504504b5154e48fea7784c', 'detail': 1, 'uid': '17504504b5154e48fea7784c', 'detail_info': {'tag': '文化传媒;文化宫', 'type': 'life', 'detail_url': 'http://api.map.baidu.com/place/detail?uid=17504504b5154e48fea7784c&output=html&source=placeapi_v2', 'overall_rating': '0.0', 'image_num': '1', 'children': []}}"
中铁一局集团新运工程公司离退休职工活动中心,108.71905767956778,34.358438355788266,5607430c502673cd14948ea8,"{'name': '中铁一局集团新运工程公司离退休职工活动中心', 'location': {'lat': 34.363353, 'lng': 108.730177}, 'address': '文林路新运花园', 'province': '陕西省', 'city': '咸阳市', 'area': '渭城区', 'street_id': '5607430c502673cd14948ea8', 'detail': 1, 'uid': '5607430c502673cd14948ea8', 'detail_info': {'tag': '文化传媒;文化宫', 'type': 'life', 'detail_url': 'http://api.map.baidu.com/place/detail?uid=5607430c502673cd14948ea8&output=html&source=placeapi_v2', 'image_num': '1', 'children': []}}"
"{'name': '中铁一局集团新运工程公司离退休职工活动中心', 'location': {'lat': 34.363353, 'lng': 108.730177}, 'address': '文林路新运花园', 'province': '陕西省', 'city': '咸阳市', 'area': '渭城区', 'street_id': '5607430c502673cd14948ea8', 'detail': 1, 'uid': '5607430c502673cd14948ea8', 'detail_info': {'tag': '文化传媒;文化宫', 'type': 'life', 'detail_url': 'http://api.map.baidu.com/place/detail?uid=5607430c502673cd14948ea8&output=html&source=placeapi_v2', 'image_num': '1', 'children': []}}"
咸阳尚程广告文化传媒有限公司,108.6727502508679,34.33097437164294,82bed640c980dee9e507388b,"{'name': '咸阳尚程广告文化传媒有限公司', 'location': {'lat': 34.335281, 'lng': 108.683917}, 'address': '宝泉路3号丽彩天禧大厦a座21层', 'province': '陕西省', 'city': '咸阳市', 'area': '秦都区', 'detail': 1, 'uid': '82bed640c980dee9e507388b', 'detail_info': {'tag': '文化传媒;其他', 'type': 'enterprise', 'detail_url': 'http://api.map.baidu.com/place/detail?uid=82bed640c980dee9e507388b&output=html&source=placeapi_v2', 'children': []}}"
"{'name': '咸阳尚程广告文化传媒有限公司', 'location': {'lat': 34.335281, 'lng': 108.683917}, 'address': '宝泉路3号丽彩天禧大厦a座21层', 'province': '陕西省', 'city': '咸阳市', 'area': '秦都区', 'detail': 1, 'uid': '82bed640c980dee9e507388b', 'detail_info': {'tag': '文化传媒;其他', 'type': 'enterprise', 'detail_url': 'http://api.map.baidu.com/place/detail?uid=82bed640c980dee9e507388b&output=html&source=placeapi_v2', 'children': []}}"
中老年活动中心,108.72461970782803,34.341433809342874,e0db1ac5657047b44e55470f,"{'name': '中老年活动中心', 'location': {'lat': 34.346313, 'lng': 108.735755}, 'address': '陕西省咸阳市渭城区新兴南路35号', 'province': '陕西省', 'city': '咸阳市', 'area': '渭城区', 'street_id': 'e0db1ac5657047b44e55470f', 'detail': 1, 'uid': 'e0db1ac5657047b44e55470f', 'detail_info': {'tag': '文化传媒;文化宫', 'type': 'life', 'detail_url': 'http://api.map.baidu.com/place/detail?uid=e0db1ac5657047b44e55470f&output=html&source=placeapi_v2', 'image_num': '1', 'children': []}}"
"{'name': '中老年活动中心', 'location': {'lat': 34.346313, 'lng': 108.735755}, 'address': '陕西省咸阳市渭城区新兴南路35号', 'province': '陕西省', 'city': '咸阳市', 'area': '渭城区', 'street_id': 'e0db1ac5657047b44e55470f', 'detail': 1, 'uid': 'e0db1ac5657047b44e55470f', 'detail_info': {'tag': '文化传媒;文化宫', 'type': 'life', 'detail_url': 'http://api.map.baidu.com/place/detail?uid=e0db1ac5657047b44e55470f&output=html&source=placeapi_v2', 'image_num': '1', 'children': []}}"
咸阳市老干部活动中心,108.70304852443421,34.33007563289599,64ff3be12c1deabb90114ce4,"{'name': '咸阳市老干部活动中心', 'location': {'lat': 34.334894, 'lng': 108.714145}, 'address': '陕西省咸阳市秦都区渭阳中路副6号', 'province': '陕西省', 'city': '咸阳市', 'area': '秦都区', 'street_id': '64ff3be12c1deabb90114ce4', 'detail': 1, 'uid': '64ff3be12c1deabb90114ce4', 'detail_info': {'tag': '文化传媒;文化宫', 'navi_location': {'lng': 108.71411730336, 'lat': 34.335184463963}, 'type': 'life', 'detail_url': 'http://api.map.baidu.com/place/detail?uid=64ff3be12c1deabb90114ce4&output=html&source=placeapi_v2', 'overall_rating': '0.0', 'image_num': '3', 'comment_num': '2', 'children': []}}"
"{'name': '咸阳市老干部活动中心', 'location': {'lat': 34.334894, 'lng': 108.714145}, 'address': '陕西省咸阳市秦都区渭阳中路副6号', 'province': '陕西省', 'city': '咸阳市', 'area': '秦都区', 'street_id': '64ff3be12c1deabb90114ce4', 'detail': 1, 'uid': '64ff3be12c1deabb90114ce4', 'detail_info': {'tag': '文化传媒;文化宫', 'navi_location': {'lng': 108.71411730336, 'lat': 34.335184463963}, 'type': 'life', 'detail_url': 'http://api.map.baidu.com/place/detail?uid=64ff3be12c1deabb90114ce4&output=html&source=placeapi_v2', 'overall_rating': '0.0', 'image_num': '3', 'comment_num': '2', 'children': []}}"
时代喷绘,108.6977605678944,34.34109922188568,bb59e1b554e2f1fc9ff77916,"{'name': '时代喷绘', 'location': {'lat': 34.345854, 'lng': 108.708874}, 'address': '陕西省咸阳市秦都区西兰路41号-副5号', 'province': '陕西省', 'city': '咸阳市', 'area': '秦都区', 'street_id': 'bb59e1b554e2f1fc9ff77916', 'telephone': '(029)33152686', 'detail': 1, 'uid': 'bb59e1b554e2f1fc9ff77916', 'detail_info': {'tag': '文化传媒', 'type': 'enterprise', 'detail_url': 'http://api.map.baidu.com/place/detail?uid=bb59e1b554e2f1fc9ff77916&output=html&source=placeapi_v2', 'children': []}}"
"{'name': '时代喷绘', 'location': {'lat': 34.345854, 'lng': 108.708874}, 'address': '陕西省咸阳市秦都区西兰路41号-副5号', 'province': '陕西省', 'city': '咸阳市', 'area': '秦都区', 'street_id': 'bb59e1b554e2f1fc9ff77916', 'telephone': '(029)33152686', 'detail': 1, 'uid': 'bb59e1b554e2f1fc9ff77916', 'detail_info': {'tag': '文化传媒', 'type': 'enterprise', 'detail_url': 'http://api.map.baidu.com/place/detail?uid=bb59e1b554e2f1fc9ff77916&output=html&source=placeapi_v2', 'children': []}}"
光线广告传媒有限公司,108.69871859775941,34.34075618349617,df13e19b941244159e9d68e1,"{'name': '光线广告传媒有限公司', 'location': {'lat': 34.345525, 'lng': 108.70983}, 'address': '陕西省咸阳市秦都区秦皇北路荔枝湾大酒店斜对面', 'province': '陕西省', 'city': '咸阳市', 'area': '秦都区', 'street_id': 'df13e19b941244159e9d68e1', 'telephone': '(029)33233083', 'detail': 1, 'uid': 'df13e19b941244159e9d68e1', 'detail_info': {'tag': '文化传媒;其他', 'type': 'enterprise', 'detail_url': 'http://api.map.baidu.com/place/detail?uid=df13e19b941244159e9d68e1&output=html&source=placeapi_v2', 'children': []}}"
"{'name': '光线广告传媒有限公司', 'location': {'lat': 34.345525, 'lng': 108.70983}, 'address': '陕西省咸阳市秦都区秦皇北路荔枝湾大酒店斜对面', 'province': '陕西省', 'city': '咸阳市', 'area': '秦都区', 'street_id': 'df13e19b941244159e9d68e1', 'telephone': '(029)33233083', 'detail': 1, 'uid': 'df13e19b941244159e9d68e1', 'detail_info': {'tag': '文化传媒;其他', 'type': 'enterprise', 'detail_url': 'http://api.map.baidu.com/place/detail?uid=df13e19b941244159e9d68e1&output=html&source=placeapi_v2', 'children': []}}"
金桥国际商务酒店-会议中心,108.68022514761925,34.34077495727544,dc881c177ac1425cca09f0f5,"{'name': '金桥国际商务酒店-会议中心', 'location': {'lat': 34.345216, 'lng': 108.691384}, 'address': '玉泉西路1号', 'province': '陕西省', 'city': '咸阳市', 'area': '秦都区', 'street_id': 'dc881c177ac1425cca09f0f5', 'telephone': '(029)33569100', 'detail': 1, 'uid': 'dc881c177ac1425cca09f0f5', 'detail_info': {'tag': '文化传媒;展览馆', 'type': 'scope', 'detail_url': 'http://api.map.baidu.com/place/detail?uid=dc881c177ac1425cca09f0f5&output=html&source=placeapi_v2', 'children': []}}"
"{'name': '金桥国际商务酒店-会议中心', 'location': {'lat': 34.345216, 'lng': 108.691384}, 'address': '玉泉西路1号', 'province': '陕西省', 'city': '咸阳市', 'area': '秦都区', 'street_id': 'dc881c177ac1425cca09f0f5', 'telephone': '(029)33569100', 'detail': 1, 'uid': 'dc881c177ac1425cca09f0f5', 'detail_info': {'tag': '文化传媒;展览馆', 'type': 'scope', 'detail_url': 'http://api.map.baidu.com/place/detail?uid=dc881c177ac1425cca09f0f5&output=html&source=placeapi_v2', 'children': []}}"
阳光假日酒店-大会议室,108.7043258483165,34.33683026571652,7a2f1e849b1ccded76e5b602,"{'name': '阳光假日酒店-大会议室', 'location': {'lat': 34.341668, 'lng': 108.715427}, 'address': '人民中路21号阳光假日酒店8层', 'province': '陕西省', 'city': '咸阳市', 'area': '秦都区', 'street_id': '7a2f1e849b1ccded76e5b602', 'telephone': '(029)33635555', 'detail': 1, 'uid': '7a2f1e849b1ccded76e5b602', 'detail_info': {'tag': '文化传媒;展览馆', 'navi_location': {'lng': 108.71571664649, 'lat': 34.341710585881}, 'type': 'scope', 'detail_url': 'http://api.map.baidu.com/place/detail?uid=7a2f1e849b1ccded76e5b602&output=html&source=placeapi_v2', 'children': []}}"
"{'name': '阳光假日酒店-大会议室', 'location': {'lat': 34.341668, 'lng': 108.715427}, 'address': '人民中路21号阳光假日酒店8层', 'province': '陕西省', 'city': '咸阳市', 'area': '秦都区', 'street_id': '7a2f1e849b1ccded76e5b602', 'telephone': '(029)33635555', 'detail': 1, 'uid': '7a2f1e849b1ccded76e5b602', 'detail_info': {'tag': '文化传媒;展览馆', 'navi_location': {'lng': 108.71571664649, 'lat': 34.341710585881}, 'type': 'scope', 'detail_url': 'http://api.map.baidu.com/place/detail?uid=7a2f1e849b1ccded76e5b602&output=html&source=placeapi_v2', 'children': []}}"
众寻文化传媒,108.67353471027705,34.33078428204534,21e151eae1042e384d776e6d,"{'name': '众寻文化传媒', 'location': {'lat': 34.335103, 'lng': 108.6847}, 'address': '陕西省咸阳市秦都区彩虹路一号', 'province': '陕西省', 'city': '咸阳市', 'area': '秦都区', 'street_id': '21e151eae1042e384d776e6d', 'detail': 1, 'uid': '21e151eae1042e384d776e6d', 'detail_info': {'tag': '文化传媒;其他', 'type': 'enterprise', 'detail_url': 'http://api.map.baidu.com/place/detail?uid=21e151eae1042e384d776e6d&output=html&source=placeapi_v2', 'children': []}}"
"{'name': '众寻文化传媒', 'location': {'lat': 34.335103, 'lng': 108.6847}, 'address': '陕西省咸阳市秦都区彩虹路一号', 'province': '陕西省', 'city': '咸阳市', 'area': '秦都区', 'street_id': '21e151eae1042e384d776e6d', 'detail': 1, 'uid': '21e151eae1042e384d776e6d', 'detail_info': {'tag': '文化传媒;其他', 'type': 'enterprise', 'detail_url': 'http://api.map.baidu.com/place/detail?uid=21e151eae1042e384d776e6d&output=html&source=placeapi_v2', 'children': []}}"
喜羊羊文化传媒有限公司,108.7481240034102,34.355066917157835,b77d425188f3e7880bccddce,"{'name': '喜羊羊文化传媒有限公司', 'location': {'lat': 34.359624, 'lng': 108.75939}, 'address': '陕西省咸阳市渭城区朝阳二路', 'province': '陕西省', 'city': '咸阳市', 'area': '渭城区', 'street_id': 'b77d425188f3e7880bccddce', 'detail': 1, 'uid': 'b77d425188f3e7880bccddce', 'detail_info': {'tag': '文化传媒;其他', 'type': 'enterprise', 'detail_url': 'http://api.map.baidu.com/place/detail?uid=b77d425188f3e7880bccddce&output=html&source=placeapi_v2', 'children': []}}"
"{'name': '喜羊羊文化传媒有限公司', 'location': {'lat': 34.359624, 'lng': 108.75939}, 'address': '陕西省咸阳市渭城区朝阳二路', 'province': '陕西省', 'city': '咸阳市', 'area': '渭城区', 'street_id': 'b77d425188f3e7880bccddce', 'detail': 1, 'uid': 'b77d425188f3e7880bccddce', 'detail_info': {'tag': '文化传媒;其他', 'type': 'enterprise', 'detail_url': 'http://api.map.baidu.com/place/detail?uid=b77d425188f3e7880bccddce&output=html&source=placeapi_v2', 'children': []}}"
陕西添翼广告文化传媒有限公司,108.68715880195026,34.343140841136616,fc8247966abc23ed75e5b638,"{'name': '陕西添翼广告文化传媒有限公司', 'location': {'lat': 34.347713, 'lng': 108.6983}, 'address': '陕西省咸阳市秦都区玉泉路丽彩广场逸景阁1号楼', 'province': '陕西省', 'city': '咸阳市', 'area': '秦都区', 'detail': 1, 'uid': 'fc8247966abc23ed75e5b638', 'detail_info': {'tag': '文化传媒;其他', 'type': 'enterprise', 'detail_url': 'http://api.map.baidu.com/place/detail?uid=fc8247966abc23ed75e5b638&output=html&source=placeapi_v2', 'children': []}}"
"{'name': '陕西添翼广告文化传媒有限公司', 'location': {'lat': 34.347713, 'lng': 108.6983}, 'address': '陕西省咸阳市秦都区玉泉路丽彩广场逸景阁1号楼', 'province': '陕西省', 'city': '咸阳市', 'area': '秦都区', 'detail': 1, 'uid': 'fc8247966abc23ed75e5b638', 'detail_info': {'tag': '文化传媒;其他', 'type': 'enterprise', 'detail_url': 'http://api.map.baidu.com/place/detail?uid=fc8247966abc23ed75e5b638&output=html&source=placeapi_v2', 'children': []}}"
陕西迟骋影视文化传媒有限公司,108.68933409143894,34.329802953725554,a6070a373b74792a9d09f7a4,"{'name': '陕西迟骋影视文化传媒有限公司', 'location': {'lat': 34.334406, 'lng': 108.700459}, 'address': '陕西省咸阳市秦都区渭阳西路53号', 'province': '陕西省', 'city': '咸阳市', 'area': '秦都区', 'street_id': 'a6070a373b74792a9d09f7a4', 'detail': 1, 'uid': 'a6070a373b74792a9d09f7a4', 'detail_info': {'tag': '文化传媒;广播电视', 'type': 'enterprise', 'detail_url': 'http://api.map.baidu.com/place/detail?uid=a6070a373b74792a9d09f7a4&output=html&source=placeapi_v2', 'price': '0', 'children': []}}"
"{'name': '陕西迟骋影视文化传媒有限公司', 'location': {'lat': 34.334406, 'lng': 108.700459}, 'address': '陕西省咸阳市秦都区渭阳西路53号', 'province': '陕西省', 'city': '咸阳市', 'area': '秦都区', 'street_id': 'a6070a373b74792a9d09f7a4', 'detail': 1, 'uid': 'a6070a373b74792a9d09f7a4', 'detail_info': {'tag': '文化传媒;广播电视', 'type': 'enterprise', 'detail_url': 'http://api.map.baidu.com/place/detail?uid=a6070a373b74792a9d09f7a4&output=html&source=placeapi_v2', 'price': '0', 'children': []}}"
陕西第七工坊文化传媒有限公司,108.67313274385886,34.33109535286051,794ec3de68e6bc7332f71d2d,"{'name': '陕西第七工坊文化传媒有限公司', 'location': {'lat': 34.335408, 'lng': 108.684299}, 'address': '人民西路丽彩天禧大厦A座17层', 'province': '陕西省', 'city': '咸阳市', 'area': '秦都区', 'detail': 1, 'uid': '794ec3de68e6bc7332f71d2d', 'detail_info': {'tag': '文化传媒;其他', 'type': 'enterprise', 'detail_url': 'http://api.map.baidu.com/place/detail?uid=794ec3de68e6bc7332f71d2d&output=html&source=placeapi_v2', 'price': '0.0', 'children': []}}"
"{'name': '陕西第七工坊文化传媒有限公司', 'location': {'lat': 34.335408, 'lng': 108.684299}, 'address': '人民西路丽彩天禧大厦A座17层', 'province': '陕西省', 'city': '咸阳市', 'area': '秦都区', 'detail': 1, 'uid': '794ec3de68e6bc7332f71d2d', 'detail_info': {'tag': '文化传媒;其他', 'type': 'enterprise', 'detail_url': 'http://api.map.baidu.com/place/detail?uid=794ec3de68e6bc7332f71d2d&output=html&source=placeapi_v2', 'price': '0.0', 'children': []}}"
一八五职工活动中心,108.72743918555503,34.36628882245729,172b17031c756bdae115f92a,"{'name': '一八五职工活动中心', 'location': {'lat': 34.371156, 'lng': 108.738585}, 'address': '迎宾大道附近', 'province': '陕西省', 'city': '咸阳市', 'area': '渭城区', 'detail': 1, 'uid': '172b17031c756bdae115f92a', 'detail_info': {'tag': '文化传媒;文化宫', 'navi_location': {'lng': 108.73995938437, 'lat': 34.370953124313}, 'type': 'life', 'detail_url': 'http://api.map.baidu.com/place/detail?uid=172b17031c756bdae115f92a&output=html&source=placeapi_v2', 'image_num': '1', 'children': []}}"
"{'name': '一八五职工活动中心', 'location': {'lat': 34.371156, 'lng': 108.738585}, 'address': '迎宾大道附近', 'province': '陕西省', 'city': '咸阳市', 'area': '渭城区', 'detail': 1, 'uid': '172b17031c756bdae115f92a', 'detail_info': {'tag': '文化传媒;文化宫', 'navi_location': {'lng': 108.73995938437, 'lat': 34.370953124313}, 'type': 'life', 'detail_url': 'http://api.map.baidu.com/place/detail?uid=172b17031c756bdae115f92a&output=html&source=placeapi_v2', 'image_num': '1', 'children': []}}"
海艺舞蹈艺术团,108.71146220771985,34.33954860839791,4323c355b424ccd6f7eafc01,"{'name': '海艺舞蹈艺术团', 'location': {'lat': 34.344444, 'lng': 108.722565}, 'address': '乐育北路长邮商务酒店院内南五楼', 'province': '陕西省', 'city': '咸阳市', 'area': '渭城区', 'street_id': '4323c355b424ccd6f7eafc01', 'telephone': '13892011680', 'detail': 1, 'uid': '4323c355b424ccd6f7eafc01', 'detail_info': {'tag': '文化传媒;艺术团体', 'navi_location': {'lng': 108.72251133953, 'lat': 34.343948214699}, 'type': 'enterprise', 'detail_url': 'http://api.map.baidu.com/place/detail?uid=4323c355b424ccd6f7eafc01&output=html&source=placeapi_v2', 'children': []}}"
"{'name': '海艺舞蹈艺术团', 'location': {'lat': 34.344444, 'lng': 108.722565}, 'address': '乐育北路长邮商务酒店院内南五楼', 'province': '陕西省', 'city': '咸阳市', 'area': '渭城区', 'street_id': '4323c355b424ccd6f7eafc01', 'telephone': '13892011680', 'detail': 1, 'uid': '4323c355b424ccd6f7eafc01', 'detail_info': {'tag': '文化传媒;艺术团体', 'navi_location': {'lng': 108.72251133953, 'lat': 34.343948214699}, 'type': 'enterprise', 'detail_url': 'http://api.map.baidu.com/place/detail?uid=4323c355b424ccd6f7eafc01&output=html&source=placeapi_v2', 'children': []}}"
诚信印务,108.68661914095601,34.327202536211935,783889b0cb33a1334afc8dbb,"{'name': '诚信印务', 'location': {'lat': 34.331753, 'lng': 108.697749}, 'address': '咸通南路御花园酒店', 'province': '陕西省', 'city': '咸阳市', 'area': '秦都区', 'street_id': '783889b0cb33a1334afc8dbb', 'detail': 1, 'uid': '783889b0cb33a1334afc8dbb', 'detail_info': {'tag': '文化传媒', 'type': 'enterprise', 'detail_url': 'http://api.map.baidu.com/place/detail?uid=783889b0cb33a1334afc8dbb&output=html&source=placeapi_v2', 'children': []}}"
"{'name': '诚信印务', 'location': {'lat': 34.331753, 'lng': 108.697749}, 'address': '咸通南路御花园酒店', 'province': '陕西省', 'city': '咸阳市', 'area': '秦都区', 'street_id': '783889b0cb33a1334afc8dbb', 'detail': 1, 'uid': '783889b0cb33a1334afc8dbb', 'detail_info': {'tag': '文化传媒', 'type': 'enterprise', 'detail_url': 'http://api.map.baidu.com/place/detail?uid=783889b0cb33a1334afc8dbb&output=html&source=placeapi_v2', 'children': []}}"
阳光假日酒店-小会议室,108.70432584755832,34.33683126501882,f7691f2f3f496c88a2d2300d,"{'name': '阳光假日酒店-小会议室', 'location': {'lat': 34.341669, 'lng': 108.715427}, 'address': '人民中路21号阳光假日酒店8层', 'province': '陕西省', 'city': '咸阳市', 'area': '秦都区', 'street_id': 'f7691f2f3f496c88a2d2300d', 'telephone': '(029)33635555', 'detail': 1, 'uid': 'f7691f2f3f496c88a2d2300d', 'detail_info': {'tag': '文化传媒;展览馆', 'navi_location': {'lng': 108.71573353463, 'lat': 34.341712672346}, 'type': 'scope', 'detail_url': 'http://api.map.baidu.com/place/detail?uid=f7691f2f3f496c88a2d2300d&output=html&source=placeapi_v2', 'children': []}}"
"{'name': '阳光假日酒店-小会议室', 'location': {'lat': 34.341669, 'lng': 108.715427}, 'address': '人民中路21号阳光假日酒店8层', 'province': '陕西省', 'city': '咸阳市', 'area': '秦都区', 'street_id': 'f7691f2f3f496c88a2d2300d', 'telephone': '(029)33635555', 'detail': 1, 'uid': 'f7691f2f3f496c88a2d2300d', 'detail_info': {'tag': '文化传媒;展览馆', 'navi_location': {'lng': 108.71573353463, 'lat': 34.341712672346}, 'type': 'scope', 'detail_url': 'http://api.map.baidu.com/place/detail?uid=f7691f2f3f496c88a2d2300d&output=html&source=placeapi_v2', 'children': []}}"
阳光假日酒店-多功能厅,108.70432584755832,34.33683126501882,3617a0b20185a18f4c3a59d4,"{'name': '阳光假日酒店-多功能厅', 'location': {'lat': 34.341669, 'lng': 108.715427}, 'address': '人民中路21号阳光假日酒店5层', 'province': '陕西省', 'city': '咸阳市', 'area': '秦都区', 'street_id': '3617a0b20185a18f4c3a59d4', 'telephone': '(029)33635555', 'detail': 1, 'uid': '3617a0b20185a18f4c3a59d4', 'detail_info': {'tag': '文化传媒;展览馆', 'navi_location': {'lng': 108.71573353463, 'lat': 34.341712672346}, 'type': 'scope', 'detail_url': 'http://api.map.baidu.com/place/detail?uid=3617a0b20185a18f4c3a59d4&output=html&source=placeapi_v2', 'children': []}}"
"{'name': '阳光假日酒店-多功能厅', 'location': {'lat': 34.341669, 'lng': 108.715427}, 'address': '人民中路21号阳光假日酒店5层', 'province': '陕西省', 'city': '咸阳市', 'area': '秦都区', 'street_id': '3617a0b20185a18f4c3a59d4', 'telephone': '(029)33635555', 'detail': 1, 'uid': '3617a0b20185a18f4c3a59d4', 'detail_info': {'tag': '文化传媒;展览馆', 'navi_location': {'lng': 108.71573353463, 'lat': 34.341712672346}, 'type': 'scope', 'detail_url': 'http://api.map.baidu.com/place/detail?uid=3617a0b20185a18f4c3a59d4&output=html&source=placeapi_v2', 'children': []}}"
咸阳市演艺公司-歌舞剧团,108.72367170632769,34.34474331686088,593be8fbf5182a3df82d6123,"{'name': '咸阳市演艺公司-歌舞剧团', 'location': {'lat': 34.349631, 'lng': 108.734805}, 'address': '陕西省咸阳市渭城区新兴南路127号', 'province': '陕西省', 'city': '咸阳市', 'area': '渭城区', 'street_id': '593be8fbf5182a3df82d6123', 'detail': 1, 'uid': '593be8fbf5182a3df82d6123', 'detail_info': {'tag': '文化传媒;艺术团体', 'type': 'enterprise', 'detail_url': 'http://api.map.baidu.com/place/detail?uid=593be8fbf5182a3df82d6123&output=html&source=placeapi_v2', 'children': []}}"
"{'name': '咸阳市演艺公司-歌舞剧团', 'location': {'lat': 34.349631, 'lng': 108.734805}, 'address': '陕西省咸阳市渭城区新兴南路127号', 'province': '陕西省', 'city': '咸阳市', 'area': '渭城区', 'street_id': '593be8fbf5182a3df82d6123', 'detail': 1, 'uid': '593be8fbf5182a3df82d6123', 'detail_info': {'tag': '文化传媒;艺术团体', 'type': 'enterprise', 'detail_url': 'http://api.map.baidu.com/place/detail?uid=593be8fbf5182a3df82d6123&output=html&source=placeapi_v2', 'children': []}}"
鑫海雅林活动站,108.73510857717744,34.3437736396085,f7c45a35e599994e2b06ced6,"{'name': '鑫海雅林活动站', 'location': {'lat': 34.348538, 'lng': 108.746296}, 'address': '陕西省咸阳市渭城区民生路2号', 'province': '陕西省', 'city': '咸阳市', 'area': '渭城区', 'street_id': 'f7c45a35e599994e2b06ced6', 'detail': 1, 'uid': 'f7c45a35e599994e2b06ced6', 'detail_info': {'tag': '文化传媒;文化宫', 'type': 'life', 'detail_url': 'http://api.map.baidu.com/place/detail?uid=f7c45a35e599994e2b06ced6&output=html&source=placeapi_v2', 'image_num': '1', 'children': []}}"
"{'name': '鑫海雅林活动站', 'location': {'lat': 34.348538, 'lng': 108.746296}, 'address': '陕西省咸阳市渭城区民生路2号', 'province': '陕西省', 'city': '咸阳市', 'area': '渭城区', 'street_id': 'f7c45a35e599994e2b06ced6', 'detail': 1, 'uid': 'f7c45a35e599994e2b06ced6', 'detail_info': {'tag': '文化传媒;文化宫', 'type': 'life', 'detail_url': 'http://api.map.baidu.com/place/detail?uid=f7c45a35e599994e2b06ced6&output=html&source=placeapi_v2', 'image_num': '1', 'children': []}}"
阳光活动站,108.7356890757633,34.34428076514353,4a506382beccb49cadcb6674,"{'name': '阳光活动站', 'location': {'lat': 34.349037, 'lng': 108.74688}, 'address': '东风路与民生路交叉口北100米', 'province': '陕西省', 'city': '咸阳市', 'area': '渭城区', 'street_id': '4a506382beccb49cadcb6674', 'detail': 1, 'uid': '4a506382beccb49cadcb6674', 'detail_info': {'tag': '文化传媒;文化宫', 'type': 'life', 'detail_url': 'http://api.map.baidu.com/place/detail?uid=4a506382beccb49cadcb6674&output=html&source=placeapi_v2', 'overall_rating': '3.5', 'image_num': '1', 'comment_num': '0', 'children': []}}"
"{'name': '阳光活动站', 'location': {'lat': 34.349037, 'lng': 108.74688}, 'address': '东风路与民生路交叉口北100米', 'province': '陕西省', 'city': '咸阳市', 'area': '渭城区', 'street_id': '4a506382beccb49cadcb6674', 'detail': 1, 'uid': '4a506382beccb49cadcb6674', 'detail_info': {'tag': '文化传媒;文化宫', 'type': 'life', 'detail_url': 'http://api.map.baidu.com/place/detail?uid=4a506382beccb49cadcb6674&output=html&source=placeapi_v2', 'overall_rating': '3.5', 'image_num': '1', 'comment_num': '0', 'children': []}}"
红螺湾假日酒店-会议厅,108.6929431920179,34.330291808532664,5168eb5adfa63f2c047ce80f,"{'name': '红螺湾假日酒店-会议厅', 'location': {'lat': 34.33496, 'lng': 108.704059}, 'address': '陕西省咸阳市秦都区渭阳西路中段红螺湾假日酒店3层', 'province': '陕西省', 'city': '咸阳市', 'area': '秦都区', 'street_id': '5168eb5adfa63f2c047ce80f', 'telephone': '(029)33318888', 'detail': 1, 'uid': '5168eb5adfa63f2c047ce80f', 'detail_info': {'tag': '文化传媒;展览馆', 'navi_location': {'lng': 108.70394821549, 'lat': 34.334958138971}, 'type': 'scope', 'detail_url': 'http://api.map.baidu.com/place/detail?uid=5168eb5adfa63f2c047ce80f&output=html&source=placeapi_v2', 'children': []}}"
"{'name': '红螺湾假日酒店-会议厅', 'location': {'lat': 34.33496, 'lng': 108.704059}, 'address': '陕西省咸阳市秦都区渭阳西路中段红螺湾假日酒店3层', 'province': '陕西省', 'city': '咸阳市', 'area': '秦都区', 'street_id': '5168eb5adfa63f2c047ce80f', 'telephone': '(029)33318888', 'detail': 1, 'uid': '5168eb5adfa63f2c047ce80f', 'detail_info': {'tag': '文化传媒;展览馆', 'navi_location': {'lng': 108.70394821549, 'lat': 34.334958138971}, 'type': 'scope', 'detail_url': 'http://api.map.baidu.com/place/detail?uid=5168eb5adfa63f2c047ce80f&output=html&source=placeapi_v2', 'children': []}}"
蒙记商务酒店-会议厅,108.7276269543844,34.33453381780695,61a92993f59d1d722ce67b5b,"{'name': '蒙记商务酒店-会议厅', 'location': {'lat': 34.339383, 'lng': 108.73877}, 'address': '花店巷南口', 'province': '陕西省', 'city': '咸阳市', 'area': '渭城区', 'street_id': '61a92993f59d1d722ce67b5b', 'telephone': '(029)33282333', 'detail': 1, 'uid': '61a92993f59d1d722ce67b5b', 'detail_info': {'tag': '文化传媒;展览馆', 'type': 'scope', 'detail_url': 'http://api.map.baidu.com/place/detail?uid=61a92993f59d1d722ce67b5b&output=html&source=placeapi_v2', 'children': []}}"
"{'name': '蒙记商务酒店-会议厅', 'location': {'lat': 34.339383, 'lng': 108.73877}, 'address': '花店巷南口', 'province': '陕西省', 'city': '咸阳市', 'area': '渭城区', 'street_id': '61a92993f59d1d722ce67b5b', 'telephone': '(029)33282333', 'detail': 1, 'uid': '61a92993f59d1d722ce67b5b', 'detail_info': {'tag': '文化传媒;展览馆', 'type': 'scope', 'detail_url': 'http://api.map.baidu.com/place/detail?uid=61a92993f59d1d722ce67b5b&output=html&source=placeapi_v2', 'children': []}}"
西部机场集团广告传媒(西安)有限公司,108.7686428977281,34.438474100284736,1020060f8cf91fdb1894c631,"{'name': '西部机场集团广告传媒(西安)有限公司', 'location': {'lat': 34.442803, 'lng': 108.779974}, 'address': '空港南五路东50米', 'province': '陕西省', 'city': '咸阳市', 'area': '渭城区', 'street_id': '1020060f8cf91fdb1894c631', 'detail': 1, 'uid': '1020060f8cf91fdb1894c631', 'detail_info': {'tag': '文化传媒;其他', 'navi_location': {'lng': 108.77928991787, 'lat': 34.443253891549}, 'type': 'enterprise', 'detail_url': 'http://api.map.baidu.com/place/detail?uid=1020060f8cf91fdb1894c631&output=html&source=placeapi_v2', 'children': []}}"
"{'name': '西部机场集团广告传媒(西安)有限公司', 'location': {'lat': 34.442803, 'lng': 108.779974}, 'address': '空港南五路东50米', 'province': '陕西省', 'city': '咸阳市', 'area': '渭城区', 'street_id': '1020060f8cf91fdb1894c631', 'detail': 1, 'uid': '1020060f8cf91fdb1894c631', 'detail_info': {'tag': '文化传媒;其他', 'navi_location': {'lng': 108.77928991787, 'lat': 34.443253891549}, 'type': 'enterprise', 'detail_url': 'http://api.map.baidu.com/place/detail?uid=1020060f8cf91fdb1894c631&output=html&source=placeapi_v2', 'children': []}}"
陕西师大-新勇学生活动中心,108.88893424013834,34.15295281897329,e4c2a841d7d93415a5da3910,"{'name': '陕西师大-新勇学生活动中心', 'location': {'lat': 34.156981, 'lng': 108.900095}, 'address': '西安市长安区昆明湖路', 'province': '陕西省', 'city': '西安市', 'area': '长安区', 'street_id': '0c9913e8efa9c32e49fc8d41', 'detail': 1, 'uid': 'e4c2a841d7d93415a5da3910', 'detail_info': {'tag': '文化传媒;文化宫', 'navi_location': {'lng': 108.90004622335, 'lat': 34.156554106366}, 'type': 'education', 'detail_url': 'http://api.map.baidu.com/place/detail?uid=e4c2a841d7d93415a5da3910&output=html&source=placeapi_v2', 'overall_rating': '0.0', 'children': []}}"
"{'name': '陕西师大-新勇学生活动中心', 'location': {'lat': 34.156981, 'lng': 108.900095}, 'address': '西安市长安区昆明湖路', 'province': '陕西省', 'city': '西安市', 'area': '长安区', 'street_id': '0c9913e8efa9c32e49fc8d41', 'detail': 1, 'uid': 'e4c2a841d7d93415a5da3910', 'detail_info': {'tag': '文化传媒;文化宫', 'navi_location': {'lng': 108.90004622335, 'lat': 34.156554106366}, 'type': 'education', 'detail_url': 'http://api.map.baidu.com/place/detail?uid=e4c2a841d7d93415a5da3910&output=html&source=placeapi_v2', 'overall_rating': '0.0', 'children': []}}"
西安电子科技大学长安校区-大学生活动中心,108.82388960744704,34.12853738609774,435d7aea316162485abbbcca,"{'name': '西安电子科技大学长安校区-大学生活动中心', 'location': {'lat': 34.13323, 'lng': 108.834957}, 'address': '西沣路兴隆段266号西安电子科技大学新校区', 'province': '陕西省', 'city': '西安市', 'area': '长安区', 'street_id': '435d7aea316162485abbbcca', 'detail': 1, 'uid': '435d7aea316162485abbbcca', 'detail_info': {'tag': '文化传媒;文化宫', 'navi_location': {'lng': 108.83538980483, 'lat': 34.133119135921}, 'type': 'education', 'detail_url': 'http://api.map.baidu.com/place/detail?uid=435d7aea316162485abbbcca&output=html&source=placeapi_v2', 'overall_rating': '5.0', 'comment_num': '2', 'children': []}}"
"{'name': '西安电子科技大学长安校区-大学生活动中心', 'location': {'lat': 34.13323, 'lng': 108.834957}, 'address': '西沣路兴隆段266号西安电子科技大学新校区', 'province': '陕西省', 'city': '西安市', 'area': '长安区', 'street_id': '435d7aea316162485abbbcca', 'detail': 1, 'uid': '435d7aea316162485abbbcca', 'detail_info': {'tag': '文化传媒;文化宫', 'navi_location': {'lng': 108.83538980483, 'lat': 34.133119135921}, 'type': 'education', 'detail_url': 'http://api.map.baidu.com/place/detail?uid=435d7aea316162485abbbcca&output=html&source=placeapi_v2', 'overall_rating': '5.0', 'comment_num': '2', 'children': []}}"
毓秀苑,108.8947465015069,34.1141619816746,2527be1e69b197b34afc8d46,"{'name': '毓秀苑', 'location': {'lat': 34.118169, 'lng': 108.905941}, 'address': '子午大道中段(近香积寺)', 'province': '陕西省', 'city': '西安市', 'area': '长安区', 'detail': 1, 'uid': '2527be1e69b197b34afc8d46', 'detail_info': {'tag': '文化传媒;文化宫', 'type': 'cater', 'detail_url': 'http://api.map.baidu.com/place/detail?uid=2527be1e69b197b34afc8d46&output=html&source=placeapi_v2', 'overall_rating': '4.5', 'comment_num': '3', 'di_review_keyword': [], 'children': []}}"
"{'name': '毓秀苑', 'location': {'lat': 34.118169, 'lng': 108.905941}, 'address': '子午大道中段(近香积寺)', 'province': '陕西省', 'city': '西安市', 'area': '长安区', 'detail': 1, 'uid': '2527be1e69b197b34afc8d46', 'detail_info': {'tag': '文化传媒;文化宫', 'type': 'cater', 'detail_url': 'http://api.map.baidu.com/place/detail?uid=2527be1e69b197b34afc8d46&output=html&source=placeapi_v2', 'overall_rating': '4.5', 'comment_num': '3', 'di_review_keyword': [], 'children': []}}"
西安电子科技大学-校史展览馆,108.83413811487443,34.12434163768224,19f1f0f7fb3b27a4e115f9f9,"{'name': '西安电子科技大学-校史展览馆', 'location': {'lat': 34.129072, 'lng': 108.845173}, 'address': '陕西省西安市长安区西沣路兴隆段266号', 'province': '陕西省', 'city': '西安市', 'area': '长安区', 'street_id': '19f1f0f7fb3b27a4e115f9f9', 'detail': 1, 'uid': '19f1f0f7fb3b27a4e115f9f9', 'detail_info': {'tag': '文化传媒;展览馆', 'type': 'scope', 'detail_url': 'http://api.map.baidu.com/place/detail?uid=19f1f0f7fb3b27a4e115f9f9&output=html&source=placeapi_v2', 'overall_rating': '0.0', 'comment_num': '1', 'children': []}}"
"{'name': '西安电子科技大学-校史展览馆', 'location': {'lat': 34.129072, 'lng': 108.845173}, 'address': '陕西省西安市长安区西沣路兴隆段266号', 'province': '陕西省', 'city': '西安市', 'area': '长安区', 'street_id': '19f1f0f7fb3b27a4e115f9f9', 'detail': 1, 'uid': '19f1f0f7fb3b27a4e115f9f9', 'detail_info': {'tag': '文化传媒;展览馆', 'type': 'scope', 'detail_url': 'http://api.map.baidu.com/place/detail?uid=19f1f0f7fb3b27a4e115f9f9&output=html&source=placeapi_v2', 'overall_rating': '0.0', 'comment_num': '1', 'children': []}}"
甫张村活动室,108.84711032282024,34.145525204697854,8c3732fcc7033f1ebadf8f1c,"{'name': '甫张村活动室', 'location': {'lat': 34.150175, 'lng': 108.858126}, 'address': '逍遥寺附近', 'province': '陕西省', 'city': '西安市', 'area': '长安区', 'detail': 1, 'uid': '8c3732fcc7033f1ebadf8f1c', 'detail_info': {'tag': '文化传媒;文化宫', 'type': 'life', 'detail_url': 'http://api.map.baidu.com/place/detail?uid=8c3732fcc7033f1ebadf8f1c&output=html&source=placeapi_v2', 'overall_rating': '5.0', 'image_num': '1', 'comment_num': '0', 'children': []}}"
"{'name': '甫张村活动室', 'location': {'lat': 34.150175, 'lng': 108.858126}, 'address': '逍遥寺附近', 'province': '陕西省', 'city': '西安市', 'area': '长安区', 'detail': 1, 'uid': '8c3732fcc7033f1ebadf8f1c', 'detail_info': {'tag': '文化传媒;文化宫', 'type': 'life', 'detail_url': 'http://api.map.baidu.com/place/detail?uid=8c3732fcc7033f1ebadf8f1c&output=html&source=placeapi_v2', 'overall_rating': '5.0', 'image_num': '1', 'comment_num': '0', 'children': []}}"
HipHop街舞文化传媒,108.87710171818904,34.1413137136019,f976077820d6d832ca09f072,"{'name': 'HipHop街舞文化传媒', 'location': {'lat': 34.145469, 'lng': 108.888236}, 'address': '西安市长安区', 'province': '陕西省', 'city': '西安市', 'area': '长安区', 'detail': 1, 'uid': 'f976077820d6d832ca09f072', 'detail_info': {'tag': '教育培训;培训机构', 'type': 'education', 'detail_url': 'http://api.map.baidu.com/place/detail?uid=f976077820d6d832ca09f072&output=html&source=placeapi_v2', 'children': []}}"
"{'name': 'HipHop街舞文化传媒', 'location': {'lat': 34.145469, 'lng': 108.888236}, 'address': '西安市长安区', 'province': '陕西省', 'city': '西安市', 'area': '长安区', 'detail': 1, 'uid': 'f976077820d6d832ca09f072', 'detail_info': {'tag': '教育培训;培训机构', 'type': 'education', 'detail_url': 'http://api.map.baidu.com/place/detail?uid=f976077820d6d832ca09f072&output=html&source=placeapi_v2', 'children': []}}"
西安外国语大学(长安校区)-学生活动中心,108.86879892435093,34.138947207010325,92869cb97cb3270fc51e5147,"{'name': '西安外国语大学(长安校区)-学生活动中心', 'location': {'lat': 34.143241, 'lng': 108.879899}, 'address': '开水房与栾树大道交叉口东100米', 'province': '陕西省', 'city': '西安市', 'area': '长安区', 'street_id': '92869cb97cb3270fc51e5147', 'detail': 1, 'uid': '92869cb97cb3270fc51e5147', 'detail_info': {'tag': '文化传媒;文化宫', 'navi_location': {'lng': 108.87605683368, 'lat': 34.143792313352}, 'type': 'education', 'detail_url': 'http://api.map.baidu.com/place/detail?uid=92869cb97cb3270fc51e5147&output=html&source=placeapi_v2', 'children': []}}"
"{'name': '西安外国语大学(长安校区)-学生活动中心', 'location': {'lat': 34.143241, 'lng': 108.879899}, 'address': '开水房与栾树大道交叉口东100米', 'province': '陕西省', 'city': '西安市', 'area': '长安区', 'street_id': '92869cb97cb3270fc51e5147', 'detail': 1, 'uid': '92869cb97cb3270fc51e5147', 'detail_info': {'tag': '文化传媒;文化宫', 'navi_location': {'lng': 108.87605683368, 'lat': 34.143792313352}, 'type': 'education', 'detail_url': 'http://api.map.baidu.com/place/detail?uid=92869cb97cb3270fc51e5147&output=html&source=placeapi_v2', 'children': []}}"
西安电子科技大学长安校区校友之家参观点,108.83404871722905,34.12394561504031,ad478363ad010b5a17764358,"{'name': '西安电子科技大学长安校区校友之家参观点', 'location': {'lat': 34.128676, 'lng': 108.845084}, 'address': '西沣路兴隆段266号西安电子科技大学长安校区', 'province': '陕西省', 'city': '西安市', 'area': '长安区', 'street_id': 'ad478363ad010b5a17764358', 'detail': 1, 'uid': 'ad478363ad010b5a17764358', 'detail_info': {'tag': '文化传媒;展览馆', 'type': 'scope', 'detail_url': 'http://api.map.baidu.com/place/detail?uid=ad478363ad010b5a17764358&output=html&source=placeapi_v2', 'children': []}}"
"{'name': '西安电子科技大学长安校区校友之家参观点', 'location': {'lat': 34.128676, 'lng': 108.845084}, 'address': '西沣路兴隆段266号西安电子科技大学长安校区', 'province': '陕西省', 'city': '西安市', 'area': '长安区', 'street_id': 'ad478363ad010b5a17764358', 'detail': 1, 'uid': 'ad478363ad010b5a17764358', 'detail_info': {'tag': '文化传媒;展览馆', 'type': 'scope', 'detail_url': 'http://api.map.baidu.com/place/detail?uid=ad478363ad010b5a17764358&output=html&source=placeapi_v2', 'children': []}}"
水磨村文化文体娱乐活动中心,108.91816503639933,34.152719232078226,f29f6da82c9fe07880a00c6a,"{'name': '水磨村文化文体娱乐活动中心', 'location': {'lat': 34.156944, 'lng': 108.929295}, 'address': '城南大道附近', 'province': '陕西省', 'city': '西安市', 'area': '长安区', 'street_id': 'f29f6da82c9fe07880a00c6a', 'detail': 1, 'uid': 'f29f6da82c9fe07880a00c6a', 'detail_info': {'tag': '文化传媒;文化宫', 'navi_location': {'lng': 108.92905612036, 'lat': 34.157117823993}, 'type': 'life', 'detail_url': 'http://api.map.baidu.com/place/detail?uid=f29f6da82c9fe07880a00c6a&output=html&source=placeapi_v2', 'image_num': '1', 'children': []}}"
"{'name': '水磨村文化文体娱乐活动中心', 'location': {'lat': 34.156944, 'lng': 108.929295}, 'address': '城南大道附近', 'province': '陕西省', 'city': '西安市', 'area': '长安区', 'street_id': 'f29f6da82c9fe07880a00c6a', 'detail': 1, 'uid': 'f29f6da82c9fe07880a00c6a', 'detail_info': {'tag': '文化传媒;文化宫', 'navi_location': {'lng': 108.92905612036, 'lat': 34.157117823993}, 'type': 'life', 'detail_url': 'http://api.map.baidu.com/place/detail?uid=f29f6da82c9fe07880a00c6a&output=html&source=placeapi_v2', 'image_num': '1', 'children': []}}"
西北大学南校区-会议中心,108.86997035123252,34.14635220610542,1bd95c6ab2ee3c9617c8f644,"{'name': '西北大学南校区-会议中心', 'location': {'lat': 34.150625, 'lng': 108.881069}, 'address': '文苑中路1号西北大学南校区', 'province': '陕西省', 'city': '西安市', 'area': '长安区', 'street_id': '1bd95c6ab2ee3c9617c8f644', 'detail': 1, 'uid': '1bd95c6ab2ee3c9617c8f644', 'detail_info': {'tag': '文化传媒;展览馆', 'type': 'scope', 'detail_url': 'http://api.map.baidu.com/place/detail?uid=1bd95c6ab2ee3c9617c8f644&output=html&source=placeapi_v2', 'overall_rating': '3.0', 'comment_num': '0', 'children': []}}"
"{'name': '西北大学南校区-会议中心', 'location': {'lat': 34.150625, 'lng': 108.881069}, 'address': '文苑中路1号西北大学南校区', 'province': '陕西省', 'city': '西安市', 'area': '长安区', 'street_id': '1bd95c6ab2ee3c9617c8f644', 'detail': 1, 'uid': '1bd95c6ab2ee3c9617c8f644', 'detail_info': {'tag': '文化传媒;展览馆', 'type': 'scope', 'detail_url': 'http://api.map.baidu.com/place/detail?uid=1bd95c6ab2ee3c9617c8f644&output=html&source=placeapi_v2', 'overall_rating': '3.0', 'comment_num': '0', 'children': []}}"
西北大学(南校区)-欧洲传播文化研究所,108.87101699451841,34.14793763108236,9189016fe794ae1fe812e4cb,"{'name': '西北大学(南校区)-欧洲传播文化研究所', 'location': {'lat': 34.152192, 'lng': 108.882119}, 'address': '郭杜镇学府大道1号西北大学南校区', 'province': '陕西省', 'city': '西安市', 'area': '长安区', 'street_id': 'f19d74ee37babe0432f71d93', 'detail': 1, 'uid': '9189016fe794ae1fe812e4cb', 'detail_info': {'tag': '教育培训;科研机构', 'type': 'education', 'detail_url': 'http://api.map.baidu.com/place/detail?uid=9189016fe794ae1fe812e4cb&output=html&source=placeapi_v2', 'comment_num': '1', 'children': []}}"
"{'name': '西北大学(南校区)-欧洲传播文化研究所', 'location': {'lat': 34.152192, 'lng': 108.882119}, 'address': '郭杜镇学府大道1号西北大学南校区', 'province': '陕西省', 'city': '西安市', 'area': '长安区', 'street_id': 'f19d74ee37babe0432f71d93', 'detail': 1, 'uid': '9189016fe794ae1fe812e4cb', 'detail_info': {'tag': '教育培训;科研机构', 'type': 'education', 'detail_url': 'http://api.map.baidu.com/place/detail?uid=9189016fe794ae1fe812e4cb&output=html&source=placeapi_v2', 'comment_num': '1', 'children': []}}"
西安邮电大学学生服务中心,108.89540094586764,34.151292438946285,ac23e08665488e4c14c8f6fd,"{'name': '西安邮电大学学生服务中心', 'location': {'lat': 34.155301, 'lng': 108.906571}, 'address': '笃学路与致远路交叉口南100米', 'province': '陕西省', 'city': '西安市', 'area': '长安区', 'street_id': 'ac23e08665488e4c14c8f6fd', 'detail': 1, 'uid': 'ac23e08665488e4c14c8f6fd', 'detail_info': {'tag': '文化传媒;文化宫', 'type': 'enterprise', 'detail_url': 'http://api.map.baidu.com/place/detail?uid=ac23e08665488e4c14c8f6fd&output=html&source=placeapi_v2', 'children': []}}"
"{'name': '西安邮电大学学生服务中心', 'location': {'lat': 34.155301, 'lng': 108.906571}, 'address': '笃学路与致远路交叉口南100米', 'province': '陕西省', 'city': '西安市', 'area': '长安区', 'street_id': 'ac23e08665488e4c14c8f6fd', 'detail': 1, 'uid': 'ac23e08665488e4c14c8f6fd', 'detail_info': {'tag': '文化传媒;文化宫', 'type': 'enterprise', 'detail_url': 'http://api.map.baidu.com/place/detail?uid=ac23e08665488e4c14c8f6fd&output=html&source=placeapi_v2', 'children': []}}"
西安外国语大学长安校区大学生服务中心,108.86634796459053,34.139833619131906,f3ec6f61ee9bb17a49fc8d68,"{'name': '西安外国语大学长安校区大学生服务中心', 'location': {'lat': 34.144172, 'lng': 108.877436}, 'address': '栾树大道与环四路交叉口东150米', 'province': '陕西省', 'city': '西安市', 'area': '长安区', 'street_id': 'f3ec6f61ee9bb17a49fc8d68', 'detail': 1, 'uid': 'f3ec6f61ee9bb17a49fc8d68', 'detail_info': {'tag': '文化传媒;文化宫', 'type': 'education', 'detail_url': 'http://api.map.baidu.com/place/detail?uid=f3ec6f61ee9bb17a49fc8d68&output=html&source=placeapi_v2', 'comment_num': '0', 'children': []}}"
"{'name': '西安外国语大学长安校区大学生服务中心', 'location': {'lat': 34.144172, 'lng': 108.877436}, 'address': '栾树大道与环四路交叉口东150米', 'province': '陕西省', 'city': '西安市', 'area': '长安区', 'street_id': 'f3ec6f61ee9bb17a49fc8d68', 'detail': 1, 'uid': 'f3ec6f61ee9bb17a49fc8d68', 'detail_info': {'tag': '文化传媒;文化宫', 'type': 'education', 'detail_url': 'http://api.map.baidu.com/place/detail?uid=f3ec6f61ee9bb17a49fc8d68&output=html&source=placeapi_v2', 'comment_num': '0', 'children': []}}"
西北大学-外语第二课堂活动中心,108.86926073195477,34.14763754284598,b0eb68bb28369579c056ac9d,"{'name': '西北大学-外语第二课堂活动中心', 'location': {'lat': 34.151923, 'lng': 108.880355}, 'address': '郭杜镇学府大道1号西北大学南校区', 'province': '陕西省', 'city': '西安市', 'area': '长安区', 'street_id': 'b0eb68bb28369579c056ac9d', 'detail': 1, 'uid': 'b0eb68bb28369579c056ac9d', 'detail_info': {'tag': '文化传媒;文化宫', 'navi_location': {'lng': 108.88050053544, 'lat': 34.15277027203}, 'type': 'education', 'detail_url': 'http://api.map.baidu.com/place/detail?uid=b0eb68bb28369579c056ac9d&output=html&source=placeapi_v2', 'children': []}}"
"{'name': '西北大学-外语第二课堂活动中心', 'location': {'lat': 34.151923, 'lng': 108.880355}, 'address': '郭杜镇学府大道1号西北大学南校区', 'province': '陕西省', 'city': '西安市', 'area': '长安区', 'street_id': 'b0eb68bb28369579c056ac9d', 'detail': 1, 'uid': 'b0eb68bb28369579c056ac9d', 'detail_info': {'tag': '文化传媒;文化宫', 'navi_location': {'lng': 108.88050053544, 'lat': 34.15277027203},