<Folder xmlns:atom="http://www.w3.org/2005/Atom" xmlns:gx="http://www.google.com/kml/ext/2.2" xmlns="http://www.opengis.net/kml/2.2">
  <Placemark>
    <name>户县兴伦美食广场</name>
    <Point>
      <coordinates>108.60387023272614,34.109046755009004,0</coordinates>
    </Point>
  </Placemark>
  <Placemark>
    <name>户县机场老马家烧烤</name>
    <Point>
      <coordinates>108.58685464007289,34.15257379408883,0</coordinates>
    </Point>
  </Placemark>
  <Placemark>
    <name>户县印象</name>
    <Point>
      <coordinates>108.61997900272002,34.10160017980257,0</coordinates>
    </Point>
  </Placemark>
  <Placemark>
    <name>长虹饭店(渼陂东路)</name>
    <Point>
      <coordinates>108.60431503096372,34.11750579118043,0</coordinates>
    </Point>
  </Placemark>
  <Placemark>
    <name>聚鑫缘食府</name>
    <Point>
      <coordinates>108.64876155838702,34.1115988374131,0</coordinates>
    </Point>
  </Placemark>
  <Placemark>
    <name>锦庭印象</name>
    <Point>
      <coordinates>108.61935488635298,34.10213440929722,0</coordinates>
    </Point>
  </Placemark>
  <Placemark>
    <name>户县码头故事火锅店</name>
    <Point>
      <coordinates>108.61259017399182,34.11332888442209,0</coordinates>
    </Point>
  </Placemark>
  <Placemark>
    <name>古槐饭庄</name>
    <Point>
      <coordinates>108.59950362368647,34.10923013898179,0</coordinates>
    </Point>
  </Placemark>
  <Placemark>
    <name>湘缘食府(人民路)</name>
    <Point>
      <coordinates>108.62046533562838,34.11387472850933,0</coordinates>
    </Point>
  </Placemark>
  <Placemark>
    <name>菜多多(户县店)</name>
    <Point>
      <coordinates>108.61267671170937,34.11365689234711,0</coordinates>
    </Point>
  </Placemark>
  <Placemark>
    <name>锦熙韩式自助烧烤(大十字店)</name>
    <Point>
      <coordinates>108.60506231997597,34.109185231886904,0</coordinates>
    </Point>
  </Placemark>
  <Placemark>
    <name>莱茵河中西餐厅</name>
    <Point>
      <coordinates>108.60380346570015,34.10890635296601,0</coordinates>
    </Point>
  </Placemark>
  <Placemark>
    <name>祖庵老马家牛肉泡馍馆</name>
    <Point>
      <coordinates>108.59893024692872,34.114057204367406,0</coordinates>
    </Point>
  </Placemark>
  <Placemark>
    <name>新印象杂粮食府</name>
    <Point>
      <coordinates>108.61273538114315,34.11334870319589,0</coordinates>
    </Point>
  </Placemark>
  <Placemark>
    <name>清真魏坊楼泡馍</name>
    <Point>
      <coordinates>108.61156966489823,34.1114208752927,0</coordinates>
    </Point>
  </Placemark>
  <Placemark>
    <name>鸭掌门特色火锅(户县店)</name>
    <Point>
      <coordinates>108.62015732674875,34.10071629271674,0</coordinates>
    </Point>
  </Placemark>
  <Placemark>
    <name>百转千回韩式自助烧烤火锅</name>
    <Point>
      <coordinates>108.60400428376369,34.107152259745206,0</coordinates>
    </Point>
  </Placemark>
  <Placemark>
    <name>秦镇米皮</name>
    <Point>
      <coordinates>108.60341201636619,34.09770314341464,0</coordinates>
    </Point>
  </Placemark>
  <Placemark>
    <name>奇味炭烤羊腿</name>
    <Point>
      <coordinates>108.61574279251262,34.10247428274793,0</coordinates>
    </Point>
  </Placemark>
  <Placemark>
    <name>小肥羊(户县店)</name>
    <Point>
      <coordinates>108.60176395933735,34.10938532111647,0</coordinates>
    </Point>
  </Placemark>
  <Placemark>
    <name>聚丰楼香辣虾</name>
    <Point>
      <coordinates>108.62015703180818,34.101205084413444,0</coordinates>
    </Point>
  </Placemark>
  <Placemark>
    <name>清香楼饭庄</name>
    <Point>
      <coordinates>108.61334499749083,34.11324750332561,0</coordinates>
    </Point>
  </Placemark>
  <Placemark>
    <name>御品皇三汁焖锅(户县店)</name>
    <Point>
      <coordinates>108.60515398909247,34.10926090904422,0</coordinates>
    </Point>
  </Placemark>
  <Placemark>
    <name>户县魔锅坊麻辣香锅.烤鱼</name>
    <Point>
      <coordinates>108.61752180422869,34.10224692297108,0</coordinates>
    </Point>
  </Placemark>
  <Placemark>
    <name>万家粗粮王</name>
    <Point>
      <coordinates>108.60576886349692,34.10893886332709,0</coordinates>
    </Point>
  </Placemark>
  <Placemark>
    <name>蜀味香冷锅串串</name>
    <Point>
      <coordinates>108.60379645884258,34.109047263647476,0</coordinates>
    </Point>
  </Placemark>
  <Placemark>
    <name>机场小陈烤肉</name>
    <Point>
      <coordinates>108.58174833416568,34.144425242714355,0</coordinates>
    </Point>
  </Placemark>
  <Placemark>
    <name>石头酒家</name>
    <Point>
      <coordinates>108.65330483917317,34.10977357480502,0</coordinates>
    </Point>
  </Placemark>
  <Placemark>
    <name>重庆鸡公煲(石油大学店)</name>
    <Point>
      <coordinates>108.64956642198051,34.109821310684694,0</coordinates>
    </Point>
  </Placemark>
  <Placemark>
    <name>陕北铁锅炖羊肉</name>
    <Point>
      <coordinates>108.59863043674441,34.107249338264324,0</coordinates>
    </Point>
  </Placemark>
  <Placemark>
    <name>好运自助火锅</name>
    <Point>
      <coordinates>108.62005579883274,34.107881063387644,0</coordinates>
    </Point>
  </Placemark>
  <Placemark>
    <name>户县饭店关中风味小吃城</name>
    <Point>
      <coordinates>108.60003763251467,34.109485861374615,0</coordinates>
    </Point>
  </Placemark>
  <Placemark>
    <name>老狼大盘鸡(人民路店)</name>
    <Point>
      <coordinates>108.61954935862279,34.102555208181016,0</coordinates>
    </Point>
  </Placemark>
  <Placemark>
    <name>7石咕噜鱼(户县店)</name>
    <Point>
      <coordinates>108.61293628235553,34.11357918992296,0</coordinates>
    </Point>
  </Placemark>
  <Placemark>
    <name>万和源炝锅鱼(户县店)</name>
    <Point>
      <coordinates>108.62009622846644,34.10156999693979,0</coordinates>
    </Point>
  </Placemark>
  <Placemark>
    <name>我爱虾说(草堂路店)</name>
    <Point>
      <coordinates>108.60506231997597,34.109185231886904,0</coordinates>
    </Point>
  </Placemark>
  <Placemark>
    <name>鱼厂(草堂路店)</name>
    <Point>
      <coordinates>108.60380244094797,34.10904530391394,0</coordinates>
    </Point>
  </Placemark>
  <Placemark>
    <name>悦肴私房菜</name>
    <Point>
      <coordinates>108.6054939171412,34.117023693601,0</coordinates>
    </Point>
  </Placemark>
  <Placemark>
    <name>精品川菜食府</name>
    <Point>
      <coordinates>108.59742468575651,34.11762744396034,0</coordinates>
    </Point>
  </Placemark>
  <Placemark>
    <name>二当家砂锅串串香(画展路店)</name>
    <Point>
      <coordinates>108.60898424887777,34.11316452498672,0</coordinates>
    </Point>
  </Placemark>
  <Placemark>
    <name>川锅兔</name>
    <Point>
      <coordinates>108.60338915287029,34.12525567679238,0</coordinates>
    </Point>
  </Placemark>
  <Placemark>
    <name>食尚轩回转自助火锅</name>
    <Point>
      <coordinates>108.60386222298685,34.10565281716412,0</coordinates>
    </Point>
  </Placemark>
  <Placemark>
    <name>咏熹老鸭汤(画展街店)</name>
    <Point>
      <coordinates>108.6129512043357,34.11369735186568,0</coordinates>
    </Point>
  </Placemark>
  <Placemark>
    <name>百姓人家(画展路店)</name>
    <Point>
      <coordinates>108.60997063189429,34.11340001123724,0</coordinates>
    </Point>
  </Placemark>
  <Placemark>
    <name>嘹咋咧猪蹄</name>
    <Point>
      <coordinates>108.60706581743295,34.10928291286163,0</coordinates>
    </Point>
  </Placemark>
  <Placemark>
    <name>陕北羊肉面</name>
    <Point>
      <coordinates>108.61574833768348,34.10890709477276,0</coordinates>
    </Point>
  </Placemark>
  <Placemark>
    <name>青岛扎啤美食城</name>
    <Point>
      <coordinates>108.60302727512811,34.106846100181315,0</coordinates>
    </Point>
  </Placemark>
  <Placemark>
    <name>土司王朝(阿瓦升级店)</name>
    <Point>
      <coordinates>108.6103577544839,34.11356727669876,0</coordinates>
    </Point>
  </Placemark>
  <Placemark>
    <name>银河鱼庄</name>
    <Point>
      <coordinates>108.6201069467859,34.101936013247524,0</coordinates>
    </Point>
  </Placemark>
  <Placemark>
    <name>懒人冒菜(户县店)</name>
    <Point>
      <coordinates>108.59926580991124,34.11059201980336,0</coordinates>
    </Point>
  </Placemark>
  <Placemark>
    <name>金诺郎韩国料理店</name>
    <Point>
      <coordinates>108.60383636085142,34.108926565482356,0</coordinates>
    </Point>
  </Placemark>
  <Placemark>
    <name>老地方手擀面</name>
    <Point>
      <coordinates>108.65381193990225,34.12450866365884,0</coordinates>
    </Point>
  </Placemark>
  <Placemark>
    <name>好兆头2068香辣虾(户县店)</name>
    <Point>
      <coordinates>108.60522187827318,34.117024565806375,0</coordinates>
    </Point>
  </Placemark>
  <Placemark>
    <name>文轩杂粮食府</name>
    <Point>
      <coordinates>108.62005945397124,34.10924369549186,0</coordinates>
    </Point>
  </Placemark>
  <Placemark>
    <name>圆梦食府(朱雀店)</name>
    <Point>
      <coordinates>108.6204143959888,34.10777163495297,0</coordinates>
    </Point>
  </Placemark>
  <Placemark>
    <name>YOYO悠由牛排自助餐厅</name>
    <Point>
      <coordinates>108.6043885450154,34.10931624390563,0</coordinates>
    </Point>
  </Placemark>
  <Placemark>
    <name>瀚友砂锅居</name>
    <Point>
      <coordinates>108.60187510772306,34.10253427782086,0</coordinates>
    </Point>
  </Placemark>
  <Placemark>
    <name>上品小厨</name>
    <Point>
      <coordinates>108.61954138201168,34.09931243849113,0</coordinates>
    </Point>
  </Placemark>
  <Placemark>
    <name>渔尚鲜纸包鱼</name>
    <Point>
      <coordinates>108.60453415329205,34.10548054176275,0</coordinates>
    </Point>
  </Placemark>
  <Placemark>
    <name>牛当家(户县店)</name>
    <Point>
      <coordinates>108.61993993832664,34.10218034414624,0</coordinates>
    </Point>
  </Placemark>
  <Placemark>
    <name>怡蓝府关中席面</name>
    <Point>
      <coordinates>108.62157568392115,34.11346713715619,0</coordinates>
    </Point>
  </Placemark>
  <Placemark>
    <name>机场小敏烤肉</name>
    <Point>
      <coordinates>108.58143731487546,34.14466163618422,0</coordinates>
    </Point>
  </Placemark>
  <Placemark>
    <name>川椒哥冒菜馆(财富中心店)</name>
    <Point>
      <coordinates>108.60486597265272,34.10927572698307,0</coordinates>
    </Point>
  </Placemark>
  <Placemark>
    <name>朱家牛羊肉泡馍</name>
    <Point>
      <coordinates>108.59933169896895,34.1287175544205,0</coordinates>
    </Point>
  </Placemark>
  <Placemark>
    <name>博丰南院门葫芦头</name>
    <Point>
      <coordinates>108.59764934797312,34.11718085561717,0</coordinates>
    </Point>
  </Placemark>
  <Placemark>
    <name>祖庵老店牛肉泡</name>
    <Point>
      <coordinates>108.64885932386974,34.11021761894554,0</coordinates>
    </Point>
  </Placemark>
  <Placemark>
    <name>班竹园火锅串串烧烤</name>
    <Point>
      <coordinates>108.61806728843817,34.1022529798987,0</coordinates>
    </Point>
  </Placemark>
  <Placemark>
    <name>藏式秘汁烤鱼(展宏路店)</name>
    <Point>
      <coordinates>108.60845065099716,34.1135229998705,0</coordinates>
    </Point>
  </Placemark>
  <Placemark>
    <name>红旗串串</name>
    <Point>
      <coordinates>108.60281873955377,34.107231732417546,0</coordinates>
    </Point>
  </Placemark>
  <Placemark>
    <name>七婆串串香火锅(户县店)</name>
    <Point>
      <coordinates>108.62109220591628,34.110417368067246,0</coordinates>
    </Point>
  </Placemark>
  <Placemark>
    <name>三秦肉夹馍</name>
    <Point>
      <coordinates>108.60421831371428,34.11739213477925,0</coordinates>
    </Point>
  </Placemark>
  <Placemark>
    <name>小段摆汤面</name>
    <Point>
      <coordinates>108.64845722428352,34.109416202577606,0</coordinates>
    </Point>
  </Placemark>
  <Placemark>
    <name>金手一碗面</name>
    <Point>
      <coordinates>108.62097490320744,34.114741449927095,0</coordinates>
    </Point>
  </Placemark>
  <Placemark>
    <name>火连天</name>
    <Point>
      <coordinates>108.618625686087,34.10217935632624,0</coordinates>
    </Point>
  </Placemark>
  <Placemark>
    <name>机场蓝天烤肉</name>
    <Point>
      <coordinates>108.58738174686935,34.151090082411066,0</coordinates>
    </Point>
  </Placemark>
  <Placemark>
    <name>不二猪蹄坊(朱雀广场店)</name>
    <Point>
      <coordinates>108.60740442099862,34.109375994861786,0</coordinates>
    </Point>
  </Placemark>
  <Placemark>
    <name>南洋餐厅</name>
    <Point>
      <coordinates>108.61975192683684,34.10759648661392,0</coordinates>
    </Point>
  </Placemark>
  <Placemark>
    <name>钟楼泡馍馆</name>
    <Point>
      <coordinates>108.59913795705029,34.11114449805058,0</coordinates>
    </Point>
  </Placemark>
  <Placemark>
    <name>鸿福祥酒楼</name>
    <Point>
      <coordinates>108.59851801300802,34.10987625560014,0</coordinates>
    </Point>
  </Placemark>
  <Placemark>
    <name>银都华府</name>
    <Point>
      <coordinates>108.62157675348769,34.098969137724566,0</coordinates>
    </Point>
  </Placemark>
  <Placemark>
    <name>德克士(户县店)</name>
    <Point>
      <coordinates>108.6053024640383,34.10929804490862,0</coordinates>
    </Point>
  </Placemark>
  <Placemark>
    <name>好汉冒菜(户县店)</name>
    <Point>
      <coordinates>108.61908791854754,34.10948477507656,0</coordinates>
    </Point>
  </Placemark>
  <Placemark>
    <name>丽清大别山鹅火锅</name>
    <Point>
      <coordinates>108.62008831189205,34.099901575083976,0</coordinates>
    </Point>
  </Placemark>
  <Placemark>
    <name>味记煌养生焖锅</name>
    <Point>
      <coordinates>108.60379645903893,34.10904626395169,0</coordinates>
    </Point>
  </Placemark>
  <Placemark>
    <name>华莱士汉堡店(人人乐店)</name>
    <Point>
      <coordinates>108.62004608445216,34.10712216186981,0</coordinates>
    </Point>
  </Placemark>
  <Placemark>
    <name>秦椒火辣时尚串串</name>
    <Point>
      <coordinates>108.61603218476714,34.10217547541048,0</coordinates>
    </Point>
  </Placemark>
  <Placemark>
    <name>沣京饭店</name>
    <Point>
      <coordinates>108.60951103327879,34.109951928881145,0</coordinates>
    </Point>
  </Placemark>
  <Placemark>
    <name>秦汉面庄</name>
    <Point>
      <coordinates>108.62042566883945,34.111296762683736,0</coordinates>
    </Point>
  </Placemark>
  <Placemark>
    <name>鸿海摆汤面</name>
    <Point>
      <coordinates>108.5991694062901,34.108118478245466,0</coordinates>
    </Point>
  </Placemark>
  <Placemark>
    <name>渝百万重庆小面(政法路店)</name>
    <Point>
      <coordinates>108.6022364804916,34.1124369423147,0</coordinates>
    </Point>
  </Placemark>
  <Placemark>
    <name>老成都精品川菜</name>
    <Point>
      <coordinates>108.6157125570265,34.10890059543032,0</coordinates>
    </Point>
  </Placemark>
  <Placemark>
    <name>展鹏面庄</name>
    <Point>
      <coordinates>108.60381637335531,34.10562652100873,0</coordinates>
    </Point>
  </Placemark>
  <Placemark>
    <name>凯峰川味名小吃</name>
    <Point>
      <coordinates>108.62007678536487,34.107425534510654,0</coordinates>
    </Point>
  </Placemark>
  <Placemark>
    <name>福旺汽锅</name>
    <Point>
      <coordinates>108.60401871384802,34.10571884874106,0</coordinates>
    </Point>
  </Placemark>
  <Placemark>
    <name>旺军手擀面</name>
    <Point>
      <coordinates>108.62256913228265,34.10922793822751,0</coordinates>
    </Point>
  </Placemark>
  <Placemark>
    <name>不二猪蹄(人民路店)</name>
    <Point>
      <coordinates>108.61944555322785,34.10939424053542,0</coordinates>
    </Point>
  </Placemark>
  <Placemark>
    <name>德盛祥泡馍</name>
    <Point>
      <coordinates>108.59885837146987,34.11126070581863,0</coordinates>
    </Point>
  </Placemark>
  <Placemark>
    <name>黄焖鸡米饭</name>
    <Point>
      <coordinates>108.61168301738279,34.09750835109294,0</coordinates>
    </Point>
  </Placemark>
  <Placemark>
    <name>香源川菜馆</name>
    <Point>
      <coordinates>108.62788087876356,34.10987314799101,0</coordinates>
    </Point>
  </Placemark>
  <Placemark>
    <name>满意肉夹馍</name>
    <Point>
      <coordinates>108.60890072030146,34.11476229627475,0</coordinates>
    </Point>
  </Placemark>
  <Placemark>
    <name>老八米线(饮食街店)</name>
    <Point>
      <coordinates>108.59914077687979,34.10692978515329,0</coordinates>
    </Point>
  </Placemark>
  <Placemark>
    <name>皇中百岁鱼(西市城店)</name>
    <Point>
      <coordinates>108.60981039445831,34.11313032103872,0</coordinates>
    </Point>
  </Placemark>
  <Placemark>
    <name>豪粥道</name>
    <Point>
      <coordinates>108.6086049594261,34.1132566167324,0</coordinates>
    </Point>
  </Placemark>
  <Placemark>
    <name>阿超过桥米线(户县店)</name>
    <Point>
      <coordinates>108.60886681219516,34.11397712129979,0</coordinates>
    </Point>
  </Placemark>
  <Placemark>
    <name>椒爷火锅</name>
    <Point>
      <coordinates>108.62040084186178,34.114848510952136,0</coordinates>
    </Point>
  </Placemark>
  <Placemark>
    <name>小马家烤肉</name>
    <Point>
      <coordinates>108.58165653848913,34.14730030604664,0</coordinates>
    </Point>
  </Placemark>
  <Placemark>
    <name>户县食得客米线剪刀面</name>
    <Point>
      <coordinates>108.62015219158928,34.107716601859124,0</coordinates>
    </Point>
  </Placemark>
  <Placemark>
    <name>盛鑫楼牛羊肉泡馍馆</name>
    <Point>
      <coordinates>108.65362228181154,34.1240587750967,0</coordinates>
    </Point>
  </Placemark>
  <Placemark>
    <name>皇后猪蹄(户县店)</name>
    <Point>
      <coordinates>108.6200767850732,34.107426534178266,0</coordinates>
    </Point>
  </Placemark>
  <Placemark>
    <name>安家小院</name>
    <Point>
      <coordinates>108.63903634899229,34.109885378413765,0</coordinates>
    </Point>
  </Placemark>
  <Placemark>
    <name>阿帅餐馆</name>
    <Point>
      <coordinates>108.59940868127269,34.11575621457912,0</coordinates>
    </Point>
  </Placemark>
  <Placemark>
    <name>铁蛋鸡汤刀削面(户县分店)</name>
    <Point>
      <coordinates>108.60860102274604,34.114241348971824,0</coordinates>
    </Point>
  </Placemark>
  <Placemark>
    <name>瑞余烤鱼堂</name>
    <Point>
      <coordinates>108.6183161152662,34.0983923266681,0</coordinates>
    </Point>
  </Placemark>
  <Placemark>
    <name>昌余面庄</name>
    <Point>
      <coordinates>108.6126940111122,34.116881433451546,0</coordinates>
    </Point>
  </Placemark>
  <Placemark>
    <name>致青春火锅工厂</name>
    <Point>
      <coordinates>108.62085098132111,34.091482385270815,0</coordinates>
    </Point>
  </Placemark>
  <Placemark>
    <name>粗粮硒品私房菜</name>
    <Point>
      <coordinates>108.61573459544768,34.10815813517542,0</coordinates>
    </Point>
  </Placemark>
  <Placemark>
    <name>户县第一面</name>
    <Point>
      <coordinates>108.6209758963793,34.11474146540324,0</coordinates>
    </Point>
  </Placemark>
  <Placemark>
    <name>很美味卡通主题私房火锅</name>
    <Point>
      <coordinates>108.62136154069186,34.10927691179532,0</coordinates>
    </Point>
  </Placemark>
  <Placemark>
    <name>独一家烧鸡公</name>
    <Point>
      <coordinates>108.60677202362982,34.10560148421566,0</coordinates>
    </Point>
  </Placemark>
  <Placemark>
    <name>溢香楼泡馍</name>
    <Point>
      <coordinates>108.60334735164571,34.106867062007545,0</coordinates>
    </Point>
  </Placemark>
  <Placemark>
    <name>铁兵连本色串串火锅</name>
    <Point>
      <coordinates>108.61896448404941,34.10212448723723,0</coordinates>
    </Point>
  </Placemark>
  <Placemark>
    <name>姥家大锅台</name>
    <Point>
      <coordinates>108.61942819360895,34.10250837720069,0</coordinates>
    </Point>
  </Placemark>
  <Placemark>
    <name>香福农家铁锅炖</name>
    <Point>
      <coordinates>108.6543986261956,34.12333434306237,0</coordinates>
    </Point>
  </Placemark>
  <Placemark>
    <name>米萨德芝士炸鸡汉堡</name>
    <Point>
      <coordinates>108.60135262535391,34.11244448989985,0</coordinates>
    </Point>
  </Placemark>
  <Placemark>
    <name>二擀子一碗面(户县店)</name>
    <Point>
      <coordinates>108.62080652198856,34.10317835458775,0</coordinates>
    </Point>
  </Placemark>
  <Placemark>
    <name>迈德思(户县店)</name>
    <Point>
      <coordinates>108.60323703994416,34.10947554902713,0</coordinates>
    </Point>
  </Placemark>
  <Placemark>
    <name>袁师傅腊汁肉夹馍</name>
    <Point>
      <coordinates>108.60438265513099,34.11679939521218,0</coordinates>
    </Point>
  </Placemark>
  <Placemark>
    <name>老三肉丸糊辣汤</name>
    <Point>
      <coordinates>108.60853830713918,34.114316698899486,0</coordinates>
    </Point>
  </Placemark>
  <Placemark>
    <name>米旗西饼店(户县店)</name>
    <Point>
      <coordinates>108.61590832939713,34.1090542980526,0</coordinates>
    </Point>
  </Placemark>
  <Placemark>
    <name>川娃子串串香火锅</name>
    <Point>
      <coordinates>108.60462786768423,34.10542024127113,0</coordinates>
    </Point>
  </Placemark>
  <Placemark>
    <name>傻得冒冒菜馆(户县沣京店)</name>
    <Point>
      <coordinates>108.61391907308969,34.10935504669869,0</coordinates>
    </Point>
  </Placemark>
  <Placemark>
    <name>老碗面庄</name>
    <Point>
      <coordinates>108.5811764760406,34.14489952825415,0</coordinates>
    </Point>
  </Placemark>
  <Placemark>
    <name>浩浩云贵过桥米线</name>
    <Point>
      <coordinates>108.60326151131612,34.10716342707499,0</coordinates>
    </Point>
  </Placemark>
  <Placemark>
    <name>老柴窝一锅炖(户县店)</name>
    <Point>
      <coordinates>108.62173881530462,34.103740718702085,0</coordinates>
    </Point>
  </Placemark>
  <Placemark>
    <name>老祖庵牛肉泡馍馆</name>
    <Point>
      <coordinates>108.61575187427836,34.10222051128599,0</coordinates>
    </Point>
  </Placemark>
  <Placemark>
    <name>西安交通工程学院-餐厅</name>
    <Point>
      <coordinates>108.58544648969742,34.11511797113661,0</coordinates>
    </Point>
  </Placemark>
  <Placemark>
    <name>绝味轩</name>
    <Point>
      <coordinates>108.59879950621873,34.110737696758505,0</coordinates>
    </Point>
  </Placemark>
  <Placemark>
    <name>砂锅小居</name>
    <Point>
      <coordinates>108.60887574018018,34.11267852214275,0</coordinates>
    </Point>
  </Placemark>
  <Placemark>
    <name>老八米线(户县店)</name>
    <Point>
      <coordinates>108.6040653124709,34.11429369626906,0</coordinates>
    </Point>
  </Placemark>
  <Placemark>
    <name>曼尼咖啡(户县店)</name>
    <Point>
      <coordinates>108.61670133355014,34.109477463717894,0</coordinates>
    </Point>
  </Placemark>
  <Placemark>
    <name>云南黄焖鸡米饭过桥米线</name>
    <Point>
      <coordinates>108.6033960579126,34.107378198847535,0</coordinates>
    </Point>
  </Placemark>
  <Placemark>
    <name>盐帮江湖菜</name>
    <Point>
      <coordinates>108.59427824206685,34.10257259548215,0</coordinates>
    </Point>
  </Placemark>
  <Placemark>
    <name>犇一鲜牛肉火锅(大十字店)</name>
    <Point>
      <coordinates>108.60506231997597,34.109185231886904,0</coordinates>
    </Point>
  </Placemark>
  <Placemark>
    <name>金三顺紫菜包饭(户县店)</name>
    <Point>
      <coordinates>108.60324305171554,34.10931263475851,0</coordinates>
    </Point>
  </Placemark>
  <Placemark>
    <name>口头馋20元自助火锅</name>
    <Point>
      <coordinates>108.61752379095905,34.10224795173452,0</coordinates>
    </Point>
  </Placemark>
  <Placemark>
    <name>户县特产大王熏醋</name>
    <Point>
      <coordinates>108.59958034982321,34.11959009847767,0</coordinates>
    </Point>
  </Placemark>
  <Placemark>
    <name>浪浪摆汤面</name>
    <Point>
      <coordinates>108.59977340567153,34.12478017161183,0</coordinates>
    </Point>
  </Placemark>
  <Placemark>
    <name>安旗(娄敬路店)</name>
    <Point>
      <coordinates>108.60407721867597,34.11262417026545,0</coordinates>
    </Point>
  </Placemark>
  <Placemark>
    <name>华鑫美食KTV</name>
    <Point>
      <coordinates>108.61363369188064,34.10940228622782,0</coordinates>
    </Point>
  </Placemark>
  <Placemark>
    <name>户县乡韵庄园</name>
    <Point>
      <coordinates>108.62440450171832,34.079615917453495,0</coordinates>
    </Point>
  </Placemark>
  <Placemark>
    <name>天悦葫芦头</name>
    <Point>
      <coordinates>108.65428352491995,34.11349511786642,0</coordinates>
    </Point>
  </Placemark>
  <Placemark>
    <name>建武娱餐园</name>
    <Point>
      <coordinates>108.60976317446301,34.10294704015781,0</coordinates>
    </Point>
  </Placemark>
  <Placemark>
    <name>雨花斋</name>
    <Point>
      <coordinates>108.60173612152698,34.09820942818944,0</coordinates>
    </Point>
  </Placemark>
  <Placemark>
    <name>大槐树餐馆(渼陂西路)</name>
    <Point>
      <coordinates>108.60364608264389,34.11737028531787,0</coordinates>
    </Point>
  </Placemark>
  <Placemark>
    <name>食得客纸包鱼剪刀面</name>
    <Point>
      <coordinates>108.61206425061233,34.109830301762784,0</coordinates>
    </Point>
  </Placemark>
  <Placemark>
    <name>小建烧烤</name>
    <Point>
      <coordinates>108.64860756647528,34.10941683825768,0</coordinates>
    </Point>
  </Placemark>
  <Placemark>
    <name>聚宾楼西安牛羊肉泡馍</name>
    <Point>
      <coordinates>108.59865708772932,34.11712188977927,0</coordinates>
    </Point>
  </Placemark>
  <Placemark>
    <name>安旗蛋糕(人民路店)</name>
    <Point>
      <coordinates>108.61989654269941,34.10930217210997,0</coordinates>
    </Point>
  </Placemark>
  <Placemark>
    <name>宋记绿豆馅饼</name>
    <Point>
      <coordinates>108.60160404606026,34.11221974799691,0</coordinates>
    </Point>
  </Placemark>
  <Placemark>
    <name>映市冒菜坊(户县店)</name>
    <Point>
      <coordinates>108.60817005875914,34.11014809450571,0</coordinates>
    </Point>
  </Placemark>
  <Placemark>
    <name>摆汤面大肉辣子饸瘩</name>
    <Point>
      <coordinates>108.59938081340844,34.10930873544481,0</coordinates>
    </Point>
  </Placemark>
  <Placemark>
    <name>旋风鸡排(饮食街店)</name>
    <Point>
      <coordinates>108.60347598039776,34.10684688277499,0</coordinates>
    </Point>
  </Placemark>
  <Placemark>
    <name>兰州拉面</name>
    <Point>
      <coordinates>108.6048361484958,34.11676569179689,0</coordinates>
    </Point>
  </Placemark>
  <Placemark>
    <name>成都屋头串串香(户县旗舰店)</name>
    <Point>
      <coordinates>108.60886681219516,34.11397712129979,0</coordinates>
    </Point>
  </Placemark>
  <Placemark>
    <name>碰碰凉(户县店)</name>
    <Point>
      <coordinates>108.62014603446349,34.10848426270584,0</coordinates>
    </Point>
  </Placemark>
  <Placemark>
    <name>鲜味居羊肉汤馆</name>
    <Point>
      <coordinates>108.60124686210173,34.112798912143845,0</coordinates>
    </Point>
  </Placemark>
  <Placemark>
    <name>秦巴牛一锅</name>
    <Point>
      <coordinates>108.62014260227274,34.11490650974713,0</coordinates>
    </Point>
  </Placemark>
  <Placemark>
    <name>6点半海鲜烧烤</name>
    <Point>
      <coordinates>108.60563301734555,34.12562574502875,0</coordinates>
    </Point>
  </Placemark>
  <Placemark>
    <name>钟楼自助火锅</name>
    <Point>
      <coordinates>108.59898612393985,34.113146566109585,0</coordinates>
    </Point>
  </Placemark>
  <Placemark>
    <name>老马家牛羊肉泡馍</name>
    <Point>
      <coordinates>108.5944452444591,34.10257739089972,0</coordinates>
    </Point>
  </Placemark>
  <Placemark>
    <name>芋尚爱</name>
    <Point>
      <coordinates>108.60461274330112,34.10971173520102,0</coordinates>
    </Point>
  </Placemark>
  <Placemark>
    <name>秦石肉夹馍</name>
    <Point>
      <coordinates>108.6047024424454,34.10973138366776,0</coordinates>
    </Point>
  </Placemark>
  <Placemark>
    <name>竹园春</name>
    <Point>
      <coordinates>108.62040475932417,34.11200225180592,0</coordinates>
    </Point>
  </Placemark>
  <Placemark>
    <name>汉之味餐馆</name>
    <Point>
      <coordinates>108.60234307402612,34.10225586445652,0</coordinates>
    </Point>
  </Placemark>
  <Placemark>
    <name>四号路张全福烧烤园</name>
    <Point>
      <coordinates>108.61191680614377,34.1360824348264,0</coordinates>
    </Point>
  </Placemark>
  <Placemark>
    <name>翔龙小吃城</name>
    <Point>
      <coordinates>108.60392574507532,34.111364466452294,0</coordinates>
    </Point>
  </Placemark>
  <Placemark>
    <name>张记正宗秦镇米皮</name>
    <Point>
      <coordinates>108.65444728773659,34.11052475190307,0</coordinates>
    </Point>
  </Placemark>
  <Placemark>
    <name>一和缘人文茶馆</name>
    <Point>
      <coordinates>108.60003747403117,34.12570902447947,0</coordinates>
    </Point>
  </Placemark>
  <Placemark>
    <name>名客佳大鸡排(户县店)</name>
    <Point>
      <coordinates>108.60841381281311,34.11350663513707,0</coordinates>
    </Point>
  </Placemark>
  <Placemark>
    <name>时光茶欣</name>
    <Point>
      <coordinates>108.62117877968029,34.10939201900387,0</coordinates>
    </Point>
  </Placemark>
  <Placemark>
    <name>安旗(钟楼店)</name>
    <Point>
      <coordinates>108.59858100590318,34.109395544700945,0</coordinates>
    </Point>
  </Placemark>
  <Placemark>
    <name>古城樊氏肉夹馍(户县店)</name>
    <Point>
      <coordinates>108.60802350831213,34.11343980188348,0</coordinates>
    </Point>
  </Placemark>
  <Placemark>
    <name>户县百盛大厨房</name>
    <Point>
      <coordinates>108.62042161576596,34.11302125530507,0</coordinates>
    </Point>
  </Placemark>
  <Placemark>
    <name>想老八香老八米线(户县店)</name>
    <Point>
      <coordinates>108.60417481244906,34.10693650097687,0</coordinates>
    </Point>
  </Placemark>
  <Placemark>
    <name>小郭刀削面</name>
    <Point>
      <coordinates>108.60888173329302,34.11376132453044,0</coordinates>
    </Point>
  </Placemark>
  <Placemark>
    <name>南小楠土豆片夹馍(户县店)</name>
    <Point>
      <coordinates>108.60357577809442,34.11374556605898,0</coordinates>
    </Point>
  </Placemark>
  <Placemark>
    <name>巴蜀小面(户县店)</name>
    <Point>
      <coordinates>108.6045341216728,34.10556451164892,0</coordinates>
    </Point>
  </Placemark>
  <Placemark>
    <name>老街兔</name>
    <Point>
      <coordinates>108.6095700607615,34.1247658877515,0</coordinates>
    </Point>
  </Placemark>
  <Placemark>
    <name>沣京烤肉</name>
    <Point>
      <coordinates>108.654270297226,34.118844047833846,0</coordinates>
    </Point>
  </Placemark>
  <Placemark>
    <name>vivi cake</name>
    <Point>
      <coordinates>108.6125009501651,34.10955677677636,0</coordinates>
    </Point>
  </Placemark>
  <Placemark>
    <name>黑木烤鸭</name>
    <Point>
      <coordinates>108.64862649133018,34.109382927321384,0</coordinates>
    </Point>
  </Placemark>
  <Placemark>
    <name>钟楼小吃</name>
    <Point>
      <coordinates>108.59860688007626,34.10994944361479,0</coordinates>
    </Point>
  </Placemark>
  <Placemark>
    <name>丹乃尔西饼(长虹店)</name>
    <Point>
      <coordinates>108.60553576484732,34.11701202791773,0</coordinates>
    </Point>
  </Placemark>
  <Placemark>
    <name>钟楼饺子馆</name>
    <Point>
      <coordinates>108.59884373274319,34.10886935544608,0</coordinates>
    </Point>
  </Placemark>
  <Placemark>
    <name>重庆老家耗兒鱼(户县店)</name>
    <Point>
      <coordinates>108.60506231997597,34.109185231886904,0</coordinates>
    </Point>
  </Placemark>
  <Placemark>
    <name>花满溪农家乐</name>
    <Point>
      <coordinates>108.61979017079781,34.090446524337175,0</coordinates>
    </Point>
  </Placemark>
  <Placemark>
    <name>至爱西饼屋</name>
    <Point>
      <coordinates>108.60348648060267,34.108616378139,0</coordinates>
    </Point>
  </Placemark>
  <Placemark>
    <name>秦镇特一味米皮</name>
    <Point>
      <coordinates>108.62045936041766,34.11278389822471,0</coordinates>
    </Point>
  </Placemark>
  <Placemark>
    <name>艾温欧式奶茶(户县店)</name>
    <Point>
      <coordinates>108.60522485229397,34.10871462039063,0</coordinates>
    </Point>
  </Placemark>
  <Placemark>
    <name>乐口</name>
    <Point>
      <coordinates>108.60569204804295,34.10943709133019,0</coordinates>
    </Point>
  </Placemark>
  <Placemark>
    <name>定舟燕记手擀面</name>
    <Point>
      <coordinates>108.59976354389347,34.123147277815264,0</coordinates>
    </Point>
  </Placemark>
  <Placemark>
    <name>醉仙居</name>
    <Point>
      <coordinates>108.60151924274572,34.11232231103682,0</coordinates>
    </Point>
  </Placemark>
  <Placemark>
    <name>盛祥辣椒</name>
    <Point>
      <coordinates>108.60166681259403,34.10684664394674,0</coordinates>
    </Point>
  </Placemark>
  <Placemark>
    <name>杨凌蘸水面</name>
    <Point>
      <coordinates>108.60434526454581,34.12146142491246,0</coordinates>
    </Point>
  </Placemark>
  <Placemark>
    <name>边记菜饸</name>
    <Point>
      <coordinates>108.59907933796067,34.11650910474829,0</coordinates>
    </Point>
  </Placemark>
  <Placemark>
    <name>饱舒带食园</name>
    <Point>
      <coordinates>108.58794913046411,34.15124828586665,0</coordinates>
    </Point>
  </Placemark>
  <Placemark>
    <name>诚信和鸡汤刀削面(开发区分店)</name>
    <Point>
      <coordinates>108.64882547522603,34.11018349488803,0</coordinates>
    </Point>
  </Placemark>
  <Placemark>
    <name>老石饺子馆</name>
    <Point>
      <coordinates>108.59881348021146,34.11079171759111,0</coordinates>
    </Point>
  </Placemark>
  <Placemark>
    <name>鑫雨砂锅</name>
    <Point>
      <coordinates>108.57740683626966,34.10917508293356,0</coordinates>
    </Point>
  </Placemark>
  <Placemark>
    <name>茶马遗风文化主题餐厅</name>
    <Point>
      <coordinates>108.60853429178967,34.11378377936156,0</coordinates>
    </Point>
  </Placemark>
  <Placemark>
    <name>校园桌球吧</name>
    <Point>
      <coordinates>108.58601093357179,34.11323481325416,0</coordinates>
    </Point>
  </Placemark>
  <Placemark>
    <name>满口香早餐店</name>
    <Point>
      <coordinates>108.57196708600854,34.10910536152043,0</coordinates>
    </Point>
  </Placemark>
  <Placemark>
    <name>小竹签烤肉成都小面</name>
    <Point>
      <coordinates>108.6157115628689,34.10890158120728,0</coordinates>
    </Point>
  </Placemark>
  <Placemark>
    <name>兴隆饭店(政法路)</name>
    <Point>
      <coordinates>108.60201603723237,34.11253574835905,0</coordinates>
    </Point>
  </Placemark>
  <Placemark>
    <name>丹乃尔西饼(朝阳店)</name>
    <Point>
      <coordinates>108.61517370242157,34.10944394672379,0</coordinates>
    </Point>
  </Placemark>
  <Placemark>
    <name>梓轩饺子馆</name>
    <Point>
      <coordinates>108.62039489775947,34.11109734075974,0</coordinates>
    </Point>
  </Placemark>
  <Placemark>
    <name>虾胡闹私房菜</name>
    <Point>
      <coordinates>108.62140531550077,34.098435687060174,0</coordinates>
    </Point>
  </Placemark>
  <Placemark>
    <name>老地方</name>
    <Point>
      <coordinates>108.62931067827195,34.11744867711848,0</coordinates>
    </Point>
  </Placemark>
  <Placemark>
    <name>美团外卖</name>
    <Point>
      <coordinates>108.60670715276255,34.10594479041748,0</coordinates>
    </Point>
  </Placemark>
  <Placemark>
    <name>西安芙蓉苑农家乐</name>
    <Point>
      <coordinates>108.60800852914974,34.12708774829578,0</coordinates>
    </Point>
  </Placemark>
  <Placemark>
    <name>群兴厨房</name>
    <Point>
      <coordinates>108.65474245073226,34.11059138483534,0</coordinates>
    </Point>
  </Placemark>
  <Placemark>
    <name>中原烤肉店</name>
    <Point>
      <coordinates>108.5866077562361,34.150946653300174,0</coordinates>
    </Point>
  </Placemark>
  <Placemark>
    <name>户县机场面包房</name>
    <Point>
      <coordinates>108.57906741361764,34.14499729549034,0</coordinates>
    </Point>
  </Placemark>
  <Placemark>
    <name>香锅里辣</name>
    <Point>
      <coordinates>108.64860756647528,34.10941683825768,0</coordinates>
    </Point>
  </Placemark>
  <Placemark>
    <name>樊老大肉夹馍(石油大店)</name>
    <Point>
      <coordinates>108.64929256794402,34.109774379575015,0</coordinates>
    </Point>
  </Placemark>
  <Placemark>
    <name>枣子坊</name>
    <Point>
      <coordinates>108.60341434813239,34.10627368644334,0</coordinates>
    </Point>
  </Placemark>
  <Placemark>
    <name>I cake私人烘焙坊</name>
    <Point>
      <coordinates>108.60781270460505,34.1094338337171,0</coordinates>
    </Point>
  </Placemark>
  <Placemark>
    <name>晓英家常菜</name>
    <Point>
      <coordinates>108.6024156244681,34.12075235824353,0</coordinates>
    </Point>
  </Placemark>
  <Placemark>
    <name>文老根砂锅米线(饮食街店)</name>
    <Point>
      <coordinates>108.60462435523388,34.106940689397284,0</coordinates>
    </Point>
  </Placemark>
  <Placemark>
    <name>成都毛记冒菜</name>
    <Point>
      <coordinates>108.60389308450506,34.10577098195775,0</coordinates>
    </Point>
  </Placemark>
  <Placemark>
    <name>牵人麻辣粉(箭门西路店)</name>
    <Point>
      <coordinates>108.60309208479798,34.106869484438384,0</coordinates>
    </Point>
  </Placemark>
  <Placemark>
    <name>麻师傅biangbiang面</name>
    <Point>
      <coordinates>108.6549177627935,34.10726818859651,0</coordinates>
    </Point>
  </Placemark>
  <Placemark>
    <name>穆慈祥羊羔肉</name>
    <Point>
      <coordinates>108.59926850814352,34.128303381565765,0</coordinates>
    </Point>
  </Placemark>
  <Placemark>
    <name>金马鸡汤刀削面</name>
    <Point>
      <coordinates>108.5991005389317,34.108016315474316,0</coordinates>
    </Point>
  </Placemark>
  <Placemark>
    <name>惠宾餐馆</name>
    <Point>
      <coordinates>108.65983903991194,34.109621257455984,0</coordinates>
    </Point>
  </Placemark>
  <Placemark>
    <name>锅到家串串</name>
    <Point>
      <coordinates>108.5987265236837,34.11187120859008,0</coordinates>
    </Point>
  </Placemark>
  <Placemark>
    <name>老刘大排档</name>
    <Point>
      <coordinates>108.60401672925205,34.10569384407807,0</coordinates>
    </Point>
  </Placemark>
  <Placemark>
    <name>张记豆腐脑(兆丰西路)</name>
    <Point>
      <coordinates>108.59979150589407,34.1025444266918,0</coordinates>
    </Point>
  </Placemark>
  <Placemark>
    <name>寿司来了</name>
    <Point>
      <coordinates>108.64800832379956,34.10895833040988,0</coordinates>
    </Point>
  </Placemark>
  <Placemark>
    <name>同州羊肉馆(车站东路)</name>
    <Point>
      <coordinates>108.62444343150857,34.11323164056317,0</coordinates>
    </Point>
  </Placemark>
  <Placemark>
    <name>小杨手擀面</name>
    <Point>
      <coordinates>108.62361633738341,34.11344041595067,0</coordinates>
    </Point>
  </Placemark>
  <Placemark>
    <name>东起饭店</name>
    <Point>
      <coordinates>108.60447617493027,34.12590994734991,0</coordinates>
    </Point>
  </Placemark>
  <Placemark>
    <name>小南手擀面</name>
    <Point>
      <coordinates>108.6026344405602,34.11216622055157,0</coordinates>
    </Point>
  </Placemark>
  <Placemark>
    <name>群众厨房</name>
    <Point>
      <coordinates>108.60282766402607,34.123281424920805,0</coordinates>
    </Point>
  </Placemark>
  <Placemark>
    <name>大王熏醋</name>
    <Point>
      <coordinates>108.6547103580929,34.1122649643895,0</coordinates>
    </Point>
  </Placemark>
  <Placemark>
    <name>画乡风味餐馆</name>
    <Point>
      <coordinates>108.60551837752251,34.113248680300856,0</coordinates>
    </Point>
  </Placemark>
  <Placemark>
    <name>金龙啤酒花园</name>
    <Point>
      <coordinates>108.62138717866637,34.110358996195544,0</coordinates>
    </Point>
  </Placemark>
  <Placemark>
    <name>老砂锅串串香</name>
    <Point>
      <coordinates>108.59892123869434,34.11367326802443,0</coordinates>
    </Point>
  </Placemark>
  <Placemark>
    <name>香辣虾</name>
    <Point>
      <coordinates>108.60535640562267,34.1170236112145,0</coordinates>
    </Point>
  </Placemark>
  <Placemark>
    <name>李记老潼关肉夹馍</name>
    <Point>
      <coordinates>108.60389921346562,34.10125176183427,0</coordinates>
    </Point>
  </Placemark>
  <Placemark>
    <name>秦镇米面皮</name>
    <Point>
      <coordinates>108.59914492636764,34.11139445068859,0</coordinates>
    </Point>
  </Placemark>
  <Placemark>
    <name>京都肉饼王</name>
    <Point>
      <coordinates>108.60884093539902,34.11407883203903,0</coordinates>
    </Point>
  </Placemark>
  <Placemark>
    <name>渼陂人家特色烧烤</name>
    <Point>
      <coordinates>108.62525706104566,34.11741672603007,0</coordinates>
    </Point>
  </Placemark>
  <Placemark>
    <name>手撕烤鸭店</name>
    <Point>
      <coordinates>108.60394371212728,34.12186260873203,0</coordinates>
    </Point>
  </Placemark>
  <Placemark>
    <name>浪淘沙餐馆</name>
    <Point>
      <coordinates>108.64784398372258,34.10932543609342,0</coordinates>
    </Point>
  </Placemark>
  <Placemark>
    <name>平价烧烤</name>
    <Point>
      <coordinates>108.6249075683061,34.11737716056725,0</coordinates>
    </Point>
  </Placemark>
  <Placemark>
    <name>户县东北人家农家乐</name>
    <Point>
      <coordinates>108.60806499719592,34.1266433233899,0</coordinates>
    </Point>
  </Placemark>
  <Placemark>
    <name>户县酉缘义佳餐馆</name>
    <Point>
      <coordinates>108.59499637383281,34.1070182506449,0</coordinates>
    </Point>
  </Placemark>
  <Placemark>
    <name>宁夏炒肉片</name>
    <Point>
      <coordinates>108.59666362963696,34.10219110195179,0</coordinates>
    </Point>
  </Placemark>
  <Placemark>
    <name>唐丰盛祥老马家牛羊肉泡馍</name>
    <Point>
      <coordinates>108.62455463487863,34.11326240607856,0</coordinates>
    </Point>
  </Placemark>
  <Placemark>
    <name>亚红烤肉</name>
    <Point>
      <coordinates>108.58939043375777,34.153293714348656,0</coordinates>
    </Point>
  </Placemark>
  <Placemark>
    <name>银会麻辣烫水盆羊杂店</name>
    <Point>
      <coordinates>108.59946848876699,34.115073538998885,0</coordinates>
    </Point>
  </Placemark>
  <Placemark>
    <name>祖庵马驹牛肉面</name>
    <Point>
      <coordinates>108.59977340567153,34.12478017161183,0</coordinates>
    </Point>
  </Placemark>
  <Placemark>
    <name>一碗面庄</name>
    <Point>
      <coordinates>108.61358206557401,34.11689180248117,0</coordinates>
    </Point>
  </Placemark>
  <Placemark>
    <name>三原饭庄(友谊路)</name>
    <Point>
      <coordinates>108.61260135940691,34.10982295366834,0</coordinates>
    </Point>
  </Placemark>
  <Placemark>
    <name>杂粮搅团袁记腊汁肉夹馍</name>
    <Point>
      <coordinates>108.62005945397124,34.10924369549186,0</coordinates>
    </Point>
  </Placemark>
  <Placemark>
    <name>清真砂锅凉皮</name>
    <Point>
      <coordinates>108.64803810240592,34.10934434955472,0</coordinates>
    </Point>
  </Placemark>
  <Placemark>
    <name>赵老大肉夹馍</name>
    <Point>
      <coordinates>108.64784398372258,34.10932543609342,0</coordinates>
    </Point>
  </Placemark>
  <Placemark>
    <name>武汉鸭脖</name>
    <Point>
      <coordinates>108.64860756647528,34.10941683825768,0</coordinates>
    </Point>
  </Placemark>
  <Placemark>
    <name>鲜羊烧烤</name>
    <Point>
      <coordinates>108.62520641506703,34.11736692764526,0</coordinates>
    </Point>
  </Placemark>
  <Placemark>
    <name>好再来饭馆</name>
    <Point>
      <coordinates>108.6544354605387,34.109734998351215,0</coordinates>
    </Point>
  </Placemark>
  <Placemark>
    <name>河南逍遥镇胡辣汤</name>
    <Point>
      <coordinates>108.65456808596126,34.10973385367014,0</coordinates>
    </Point>
  </Placemark>
  <Placemark>
    <name>老二餐厅</name>
    <Point>
      <coordinates>108.65485894821008,34.11228475848647,0</coordinates>
    </Point>
  </Placemark>
  <Placemark>
    <name>小肥羊烤肉庄</name>
    <Point>
      <coordinates>108.6245708824852,34.10940471105502,0</coordinates>
    </Point>
  </Placemark>
  <Placemark>
    <name>渝千万重庆烤鱼</name>
    <Point>
      <coordinates>108.62199023932257,34.1089678784596,0</coordinates>
    </Point>
  </Placemark>
  <Placemark>
    <name>油条豆浆豆腐脑胡辣汤</name>
    <Point>
      <coordinates>108.65444728773659,34.11052475190307,0</coordinates>
    </Point>
  </Placemark>
  <Placemark>
    <name>时尚餐厅</name>
    <Point>
      <coordinates>108.64847022223103,34.10916533566603,0</coordinates>
    </Point>
  </Placemark>
  <Placemark>
    <name>盖骨十八灌汤包</name>
    <Point>
      <coordinates>108.65444728773659,34.11052475190307,0</coordinates>
    </Point>
  </Placemark>
  <Placemark>
    <name>民食天小炒</name>
    <Point>
      <coordinates>108.648350075057,34.124072867487605,0</coordinates>
    </Point>
  </Placemark>
  <Placemark>
    <name>兄弟烧烤</name>
    <Point>
      <coordinates>108.62394943358868,34.1173778883977,0</coordinates>
    </Point>
  </Placemark>
  <Placemark>
    <name>画乡小院</name>
    <Point>
      <coordinates>108.62877842207288,34.097374975543154,0</coordinates>
    </Point>
  </Placemark>
  <Placemark>
    <name>川香食府</name>
    <Point>
      <coordinates>108.64845722428352,34.109416202577606,0</coordinates>
    </Point>
  </Placemark>
  <Placemark>
    <name>奇味佳葫芦头</name>
    <Point>
      <coordinates>108.57134538102089,34.15278820880648,0</coordinates>
    </Point>
  </Placemark>
  <Placemark>
    <name>西安九千佳火锅冒菜</name>
    <Point>
      <coordinates>108.60553844301134,34.10621389630142,0</coordinates>
    </Point>
  </Placemark>
  <Placemark>
    <name>酥脆香麻花</name>
    <Point>
      <coordinates>108.60851438906482,34.11176207684217,0</coordinates>
    </Point>
  </Placemark>
  <Placemark>
    <name>兰州正宗牛肉拉面(友谊路)</name>
    <Point>
      <coordinates>108.61174194821929,34.109867376912334,0</coordinates>
    </Point>
  </Placemark>
  <Placemark>
    <name>鸿福面庄</name>
    <Point>
      <coordinates>108.59725712760485,34.10219968895514,0</coordinates>
    </Point>
  </Placemark>
  <Placemark>
    <name>高家大米面皮子</name>
    <Point>
      <coordinates>108.60349573440583,34.10748479737947,0</coordinates>
    </Point>
  </Placemark>
  <Placemark>
    <name>红滨辣面店</name>
    <Point>
      <coordinates>108.60324159131157,34.107087328815105,0</coordinates>
    </Point>
  </Placemark>
  <Placemark>
    <name>土渣儿烧饼</name>
    <Point>
      <coordinates>108.60530214302443,34.11318499569183,0</coordinates>
    </Point>
  </Placemark>
  <Placemark>
    <name>梁侠羊肉店</name>
    <Point>
      <coordinates>108.60476580918674,34.10719164153841,0</coordinates>
    </Point>
  </Placemark>
  <Placemark>
    <name>川香奇香砂锅宴(户县店)</name>
    <Point>
      <coordinates>108.60161106230028,34.11153495981383,0</coordinates>
    </Point>
  </Placemark>
  <Placemark>
    <name>舍得川菜</name>
    <Point>
      <coordinates>108.60586832099801,34.1059986360466,0</coordinates>
    </Point>
  </Placemark>
  <Placemark>
    <name>武汉鸭脖</name>
    <Point>
      <coordinates>108.61870546434099,34.10939102527392,0</coordinates>
    </Point>
  </Placemark>
  <Placemark>
    <name>孙长安牛羊肉泡馍</name>
    <Point>
      <coordinates>108.62026671851793,34.102198372753996,0</coordinates>
    </Point>
  </Placemark>
  <Placemark>
    <name>老字号辣面店</name>
    <Point>
      <coordinates>108.60093445964475,34.10688823714627,0</coordinates>
    </Point>
  </Placemark>
  <Placemark>
    <name>黄土风情(北街店)</name>
    <Point>
      <coordinates>108.59974516258355,34.12425811788943,0</coordinates>
    </Point>
  </Placemark>
  <Placemark>
    <name>新农门烧烤</name>
    <Point>
      <coordinates>108.61007984337513,34.10258465667591,0</coordinates>
    </Point>
  </Placemark>
  <Placemark>
    <name>画乡手工鲜面店</name>
    <Point>
      <coordinates>108.5948854612628,34.106791407112794,0</coordinates>
    </Point>
  </Placemark>
  <Placemark>
    <name>蔺记豆腐脑</name>
    <Point>
      <coordinates>108.60340617551836,34.10688042814786,0</coordinates>
    </Point>
  </Placemark>
  <Placemark>
    <name>岳阳楼饭庄</name>
    <Point>
      <coordinates>108.60791198706664,34.11348271098582,0</coordinates>
    </Point>
  </Placemark>
  <Placemark>
    <name>宜品汤包</name>
    <Point>
      <coordinates>108.5997287561743,34.10707955022537,0</coordinates>
    </Point>
  </Placemark>
  <Placemark>
    <name>高家家常菜</name>
    <Point>
      <coordinates>108.6204555351847,34.110656401497344,0</coordinates>
    </Point>
  </Placemark>
  <Placemark>
    <name>兄弟麻花</name>
    <Point>
      <coordinates>108.5938607098658,34.109952643726345,0</coordinates>
    </Point>
  </Placemark>
  <Placemark>
    <name>安庆名优馄饨</name>
    <Point>
      <coordinates>108.60329271971601,34.1150494821105,0</coordinates>
    </Point>
  </Placemark>
  <Placemark>
    <name>煌上煌</name>
    <Point>
      <coordinates>108.60331985820562,34.109158159310105,0</coordinates>
    </Point>
  </Placemark>
  <Placemark>
    <name>味图腾小火锅</name>
    <Point>
      <coordinates>108.6045341216728,34.10556451164892,0</coordinates>
    </Point>
  </Placemark>
  <Placemark>
    <name>美味福来包</name>
    <Point>
      <coordinates>108.60500816489797,34.11326772115239,0</coordinates>
    </Point>
  </Placemark>
  <Placemark>
    <name>福鑫饭馆</name>
    <Point>
      <coordinates>108.59899043227198,34.10566880331056,0</coordinates>
    </Point>
  </Placemark>
  <Placemark>
    <name>果园有菜</name>
    <Point>
      <coordinates>108.60422228104292,34.117306177567365,0</coordinates>
    </Point>
  </Placemark>
  <Placemark>
    <name>焦记重庆秘制烤鱼火锅涮菜</name>
    <Point>
      <coordinates>108.62113715543332,34.10895650056374,0</coordinates>
    </Point>
  </Placemark>
  <Placemark>
    <name>多多香凉皮</name>
    <Point>
      <coordinates>108.59494193368242,34.10878971829353,0</coordinates>
    </Point>
  </Placemark>
  <Placemark>
    <name>百威刀削面</name>
    <Point>
      <coordinates>108.5986772850728,34.10253417997158,0</coordinates>
    </Point>
  </Placemark>
  <Placemark>
    <name>小张刀削面</name>
    <Point>
      <coordinates>108.60427697129512,34.105520701418925,0</coordinates>
    </Point>
  </Placemark>
  <Placemark>
    <name>回坊楼牛羊肉泡馍</name>
    <Point>
      <coordinates>108.59925370531823,34.112541469404086,0</coordinates>
    </Point>
  </Placemark>
  <Placemark>
    <name>井村面庄</name>
    <Point>
      <coordinates>108.6040750804893,34.10709076289277,0</coordinates>
    </Point>
  </Placemark>
  <Placemark>
    <name>玉玉鲜鱼店</name>
    <Point>
      <coordinates>108.60462435523388,34.106940689397284,0</coordinates>
    </Point>
  </Placemark>
  <Placemark>
    <name>董记乾州豆腐脑</name>
    <Point>
      <coordinates>108.59929463984872,34.11304946589168,0</coordinates>
    </Point>
  </Placemark>
  <Placemark>
    <name>吴记添香水饺</name>
    <Point>
      <coordinates>108.59859361207114,34.10683338913397,0</coordinates>
    </Point>
  </Placemark>
  <Placemark>
    <name>红宝石</name>
    <Point>
      <coordinates>108.60147924008012,34.10217946530731,0</coordinates>
    </Point>
  </Placemark>
  <Placemark>
    <name>红军砂锅包子</name>
    <Point>
      <coordinates>108.6057146858789,34.10657718556879,0</coordinates>
    </Point>
  </Placemark>
  <Placemark>
    <name>山西油酥饼(箭门东路)</name>
    <Point>
      <coordinates>108.60401526785584,34.10709035495104,0</coordinates>
    </Point>
  </Placemark>
  <Placemark>
    <name>乐府川菜</name>
    <Point>
      <coordinates>108.60440912373122,34.121613858757414,0</coordinates>
    </Point>
  </Placemark>
  <Placemark>
    <name>中原烤肉羊肉销售点</name>
    <Point>
      <coordinates>108.59965562917786,34.120697192645366,0</coordinates>
    </Point>
  </Placemark>
  <Placemark>
    <name>老地方摆汤面</name>
    <Point>
      <coordinates>108.6050451204804,34.12567215451189,0</coordinates>
    </Point>
  </Placemark>
  <Placemark>
    <name>兰州纯碱硬面馍</name>
    <Point>
      <coordinates>108.61605540775875,34.105696475705365,0</coordinates>
    </Point>
  </Placemark>
  <Placemark>
    <name>兰州纯碱手工馍</name>
    <Point>
      <coordinates>108.59919699276821,34.10600226432456,0</coordinates>
    </Point>
  </Placemark>
  <Placemark>
    <name>马超饭店</name>
    <Point>
      <coordinates>108.60339436565903,34.09730121783875,0</coordinates>
    </Point>
  </Placemark>
  <Placemark>
    <name>信义辣面批零店</name>
    <Point>
      <coordinates>108.60270205844782,34.10723105442329,0</coordinates>
    </Point>
  </Placemark>
  <Placemark>
    <name>兰州纯碱手工馍(展宏路)</name>
    <Point>
      <coordinates>108.60843383958544,34.115055489378996,0</coordinates>
    </Point>
  </Placemark>
  <Placemark>
    <name>老四川馄饨米线麻辣粉</name>
    <Point>
      <coordinates>108.60324159131157,34.107087328815105,0</coordinates>
    </Point>
  </Placemark>
  <Placemark>
    <name>老马牛肉糊辣汤</name>
    <Point>
      <coordinates>108.60859212682581,34.11495310334816,0</coordinates>
    </Point>
  </Placemark>
  <Placemark>
    <name>安徽羊肉馆</name>
    <Point>
      <coordinates>108.59748989442183,34.102210997653096,0</coordinates>
    </Point>
  </Placemark>
  <Placemark>
    <name>王记瓦罐烂猪蹄</name>
    <Point>
      <coordinates>108.59886134851253,34.11151564553862,0</coordinates>
    </Point>
  </Placemark>
  <Placemark>
    <name>淼豆饭店</name>
    <Point>
      <coordinates>108.60448894150682,34.12383619873628,0</coordinates>
    </Point>
  </Placemark>
  <Placemark>
    <name>秦镇韩家米皮</name>
    <Point>
      <coordinates>108.60355461810151,34.104491220465746,0</coordinates>
    </Point>
  </Placemark>
  <Placemark>
    <name>御香苑过桥米线</name>
    <Point>
      <coordinates>108.60201903133809,34.112437788453136,0</coordinates>
    </Point>
  </Placemark>
  <Placemark>
    <name>梁佳时尚饮食</name>
    <Point>
      <coordinates>108.60349573440583,34.10748479737947,0</coordinates>
    </Point>
  </Placemark>
  <Placemark>
    <name>西门餐馆(户县医院急救站东北)</name>
    <Point>
      <coordinates>108.59962325162212,34.11951824719079,0</coordinates>
    </Point>
  </Placemark>
  <Placemark>
    <name>川嫂特色砂锅米线</name>
    <Point>
      <coordinates>108.60392510335242,34.10545530899184,0</coordinates>
    </Point>
  </Placemark>
  <Placemark>
    <name>老汤砂锅</name>
    <Point>
      <coordinates>108.6039599172997,34.10566346973374,0</coordinates>
    </Point>
  </Placemark>
  <Placemark>
    <name>余下干货分店</name>
    <Point>
      <coordinates>108.60851443664083,34.11111924865024,0</coordinates>
    </Point>
  </Placemark>
  <Placemark>
    <name>实惠刀削面</name>
    <Point>
      <coordinates>108.60334949976402,34.09729693746441,0</coordinates>
    </Point>
  </Placemark>
  <Placemark>
    <name>二胖老碗香面</name>
    <Point>
      <coordinates>108.61242845622378,34.116880113531494,0</coordinates>
    </Point>
  </Placemark>
  <Placemark>
    <name>味之缘面庄</name>
    <Point>
      <coordinates>108.60404928932907,34.12372013519977,0</coordinates>
    </Point>
  </Placemark>
  <Placemark>
    <name>舒畅面庄</name>
    <Point>
      <coordinates>108.60349174705078,34.10748177287801,0</coordinates>
    </Point>
  </Placemark>
  <Placemark>
    <name>鸿记煌三汁焖锅</name>
    <Point>
      <coordinates>108.61752379095905,34.10224795173452,0</coordinates>
    </Point>
  </Placemark>
  <Placemark>
    <name>重庆高筋鲜面店(政法路)</name>
    <Point>
      <coordinates>108.60138255411931,34.112658576943375,0</coordinates>
    </Point>
  </Placemark>
  <Placemark>
    <name>方圆饭庄</name>
    <Point>
      <coordinates>108.60443852089819,34.12268494959086,0</coordinates>
    </Point>
  </Placemark>
  <Placemark>
    <name>丰泽园(古城东路)</name>
    <Point>
      <coordinates>108.60775534629532,34.12505244453356,0</coordinates>
    </Point>
  </Placemark>
  <Placemark>
    <name>秦人面庄</name>
    <Point>
      <coordinates>108.60854227303842,34.11408079186286,0</coordinates>
    </Point>
  </Placemark>
  <Placemark>
    <name>五谷香现磨豆浆</name>
    <Point>
      <coordinates>108.59910858369088,34.1077914102989,0</coordinates>
    </Point>
  </Placemark>
  <Placemark>
    <name>开心小镇(魔法DIY烘焙乐园)</name>
    <Point>
      <coordinates>108.61674909018119,34.10572237151754,0</coordinates>
    </Point>
  </Placemark>
  <Placemark>
    <name>伊鑫斋泡馍馆</name>
    <Point>
      <coordinates>108.59913496215871,34.11113949090758,0</coordinates>
    </Point>
  </Placemark>
  <Placemark>
    <name>博韬米线</name>
    <Point>
      <coordinates>108.60553844301134,34.10621389630142,0</coordinates>
    </Point>
  </Placemark>
  <Placemark>
    <name>仝家美食</name>
    <Point>
      <coordinates>108.61259154586014,34.116758170928655,0</coordinates>
    </Point>
  </Placemark>
  <Placemark>
    <name>兰州纯碱硬面手工馍</name>
    <Point>
      <coordinates>108.5796633418102,34.10965655188472,0</coordinates>
    </Point>
  </Placemark>
  <Placemark>
    <name>重庆鲜面条</name>
    <Point>
      <coordinates>108.60442834821401,34.12225092330325,0</coordinates>
    </Point>
  </Placemark>
  <Placemark>
    <name>画乡鲜面店</name>
    <Point>
      <coordinates>108.59424482216959,34.10956219245927,0</coordinates>
    </Point>
  </Placemark>
  <Placemark>
    <name>杨记喜多客肉夹馍</name>
    <Point>
      <coordinates>108.59543166145893,34.10959922372422,0</coordinates>
    </Point>
  </Placemark>
  <Placemark>
    <name>小良杭州小笼包</name>
    <Point>
      <coordinates>108.59905931666682,34.116227102631534,0</coordinates>
    </Point>
  </Placemark>
  <Placemark>
    <name>肉夹馍菜夹馍</name>
    <Point>
      <coordinates>108.57252436783529,34.109111000737734,0</coordinates>
    </Point>
  </Placemark>
  <Placemark>
    <name>乡里香餐馆</name>
    <Point>
      <coordinates>108.57244494218834,34.10892124620804,0</coordinates>
    </Point>
  </Placemark>
  <Placemark>
    <name>鑫城餐馆</name>
    <Point>
      <coordinates>108.57199216065518,34.10948786652366,0</coordinates>
    </Point>
  </Placemark>
  <Placemark>
    <name>回坊泡馍</name>
    <Point>
      <coordinates>108.6253816665021,34.07471412054912,0</coordinates>
    </Point>
  </Placemark>
  <Placemark>
    <name>强子刀削面</name>
    <Point>
      <coordinates>108.65559833096052,34.109756176266,0</coordinates>
    </Point>
  </Placemark>
  <Placemark>
    <name>五竹羊杂馆</name>
    <Point>
      <coordinates>108.64851335627812,34.124073572317705,0</coordinates>
    </Point>
  </Placemark>
  <Placemark>
    <name>溢香园牛羊肉馆</name>
    <Point>
      <coordinates>108.63717650421967,34.10600543255101,0</coordinates>
    </Point>
  </Placemark>
  <Placemark>
    <name>重庆泡椒烤鲜鱼</name>
    <Point>
      <coordinates>108.65352914397351,34.109754556070946,0</coordinates>
    </Point>
  </Placemark>
  <Placemark>
    <name>羲记冒菜</name>
    <Point>
      <coordinates>108.62311092248645,34.11344938195131,0</coordinates>
    </Point>
  </Placemark>
  <Placemark>
    <name>重庆小炒</name>
    <Point>
      <coordinates>108.65444728773659,34.11052475190307,0</coordinates>
    </Point>
  </Placemark>
  <Placemark>
    <name>老杨家牛羊肉泡馍</name>
    <Point>
      <coordinates>108.65519537678706,34.10973595059249,0</coordinates>
    </Point>
  </Placemark>
  <Placemark>
    <name>秦镇韩家米皮</name>
    <Point>
      <coordinates>108.62406736035781,34.11009948030211,0</coordinates>
    </Point>
  </Placemark>
  <Placemark>
    <name>肉酥饼</name>
    <Point>
      <coordinates>108.65439440148971,34.110771734634135,0</coordinates>
    </Point>
  </Placemark>
  <Placemark>
    <name>城东手擀面(东城北路)</name>
    <Point>
      <coordinates>108.63096209693667,34.121677278071694,0</coordinates>
    </Point>
  </Placemark>
  <Placemark>
    <name>重庆鲜面店</name>
    <Point>
      <coordinates>108.63685612086799,34.10277162447642,0</coordinates>
    </Point>
  </Placemark>
  <Placemark>
    <name>山西麻花</name>
    <Point>
      <coordinates>108.65716480010214,34.10925694512272,0</coordinates>
    </Point>
  </Placemark>
  <Placemark>
    <name>来串门儿吧</name>
    <Point>
      <coordinates>108.62483959018034,34.11328094553019,0</coordinates>
    </Point>
  </Placemark>
  <Placemark>
    <name>正宗裤带面</name>
    <Point>
      <coordinates>108.65576998696471,34.10933693248086,0</coordinates>
    </Point>
  </Placemark>
  <Placemark>
    <name>严记烧烤</name>
    <Point>
      <coordinates>108.62952907851158,34.117371067823086,0</coordinates>
    </Point>
  </Placemark>
  <Placemark>
    <name>羊杂丸子汤</name>
    <Point>
      <coordinates>108.65439440148971,34.110771734634135,0</coordinates>
    </Point>
  </Placemark>
  <Placemark>
    <name>天香阁饭庄</name>
    <Point>
      <coordinates>108.65433335044717,34.12440330696999,0</coordinates>
    </Point>
  </Placemark>
  <Placemark>
    <name>五竹馍店</name>
    <Point>
      <coordinates>108.6538143227378,34.12691449193923,0</coordinates>
    </Point>
  </Placemark>
  <Placemark>
    <name>那家米线</name>
    <Point>
      <coordinates>108.64813067240911,34.10941375532735,0</coordinates>
    </Point>
  </Placemark>
  <Placemark>
    <name>山西手工馍</name>
    <Point>
      <coordinates>108.6356963481537,34.109849146244215,0</coordinates>
    </Point>
  </Placemark>
  <Placemark>
    <name>傻得冒冒菜馆</name>
    <Point>
      <coordinates>108.65485894821008,34.11228475848647,0</coordinates>
    </Point>
  </Placemark>
  <Placemark>
    <name>陕西热凉皮</name>
    <Point>
      <coordinates>108.65853115687844,34.109309299355864,0</coordinates>
    </Point>
  </Placemark>
  <Placemark>
    <name>重庆鲜面店</name>
    <Point>
      <coordinates>108.65424868354701,34.12633323904632,0</coordinates>
    </Point>
  </Placemark>
  <Placemark>
    <name>彪子裤带面</name>
    <Point>
      <coordinates>108.65566623862442,34.10937214963596,0</coordinates>
    </Point>
  </Placemark>
  <Placemark>
    <name>祖庵鲜肉店</name>
    <Point>
      <coordinates>108.62406736035781,34.11009948030211,0</coordinates>
    </Point>
  </Placemark>
  <Placemark>
    <name>祥和餐馆</name>
    <Point>
      <coordinates>108.6355125812301,34.1099536745542,0</coordinates>
    </Point>
  </Placemark>
  <Placemark>
    <name>聚宾餐馆</name>
    <Point>
      <coordinates>108.65483898850196,34.112534721461095,0</coordinates>
    </Point>
  </Placemark>
  <Placemark>
    <name>川巴适晓宇鲜菜火锅</name>
    <Point>
      <coordinates>108.62216968047746,34.11078317621813,0</coordinates>
    </Point>
  </Placemark>
  <Placemark>
    <name>君鸿食屋</name>
    <Point>
      <coordinates>108.62352200766775,34.11342891830476,0</coordinates>
    </Point>
  </Placemark>
  <Placemark>
    <name>香香冒菜馆</name>
    <Point>
      <coordinates>108.6514013867411,34.10937807423629,0</coordinates>
    </Point>
  </Placemark>
  <Placemark>
    <name>雪峰饭店</name>
    <Point>
      <coordinates>108.64728492524483,34.124071711507014,0</coordinates>
    </Point>
  </Placemark>
  <Placemark>
    <name>顺风酒家</name>
    <Point>
      <coordinates>108.65382960529301,34.123965703353534,0</coordinates>
    </Point>
  </Placemark>
  <Placemark>
    <name>自力饭店</name>
    <Point>
      <coordinates>108.58191044034369,34.14384648311892,0</coordinates>
    </Point>
  </Placemark>
  <Placemark>
    <name>诚实茶庄</name>
    <Point>
      <coordinates>108.59929463984872,34.11304946589168,0</coordinates>
    </Point>
  </Placemark>
  <Placemark>
    <name>画乡面屋</name>
    <Point>
      <coordinates>108.60484348599003,34.12330683460502,0</coordinates>
    </Point>
  </Placemark>
  <Placemark>
    <name>农家食府</name>
    <Point>
      <coordinates>108.63783382517859,34.19609605971718,0</coordinates>
    </Point>
  </Placemark>
  <Placemark>
    <name>重庆百姓福火锅</name>
    <Point>
      <coordinates>108.63908212869754,34.199543561121196,0</coordinates>
    </Point>
  </Placemark>
  <Placemark>
    <name>蜀味居干锅</name>
    <Point>
      <coordinates>108.63820447769017,34.19793536274874,0</coordinates>
    </Point>
  </Placemark>
  <Placemark>
    <name>小杜19元自助火锅</name>
    <Point>
      <coordinates>108.64084780288621,34.20174923890109,0</coordinates>
    </Point>
  </Placemark>
  <Placemark>
    <name>农家烧烤园</name>
    <Point>
      <coordinates>108.6418009950769,34.20002377879143,0</coordinates>
    </Point>
  </Placemark>
  <Placemark>
    <name>四海酒家</name>
    <Point>
      <coordinates>108.65000566122778,34.203203100119794,0</coordinates>
    </Point>
  </Placemark>
  <Placemark>
    <name>大碗居葫芦头</name>
    <Point>
      <coordinates>108.65331721424869,34.2037366528165,0</coordinates>
    </Point>
  </Placemark>
  <Placemark>
    <name>清真楼</name>
    <Point>
      <coordinates>108.64089740527339,34.201839687500495,0</coordinates>
    </Point>
  </Placemark>
  <Placemark>
    <name>户县东曹樱桃种植园</name>
    <Point>
      <coordinates>108.55963072698333,34.20184610553079,0</coordinates>
    </Point>
  </Placemark>
  <Placemark>
    <name>浩洋食府</name>
    <Point>
      <coordinates>108.65328658140858,34.20348581603651,0</coordinates>
    </Point>
  </Placemark>
  <Placemark>
    <name>重庆酒家(大王西村民住宅小区东)</name>
    <Point>
      <coordinates>108.63984019250297,34.200631309473806,0</coordinates>
    </Point>
  </Placemark>
  <Placemark>
    <name>老马家牛羊肉泡馍饭庄</name>
    <Point>
      <coordinates>108.55860333006278,34.176802338697335,0</coordinates>
    </Point>
  </Placemark>
  <Placemark>
    <name>知感斋牛羊肉泡馍</name>
    <Point>
      <coordinates>108.65305859403811,34.2022965627302,0</coordinates>
    </Point>
  </Placemark>
  <Placemark>
    <name>四海餐馆</name>
    <Point>
      <coordinates>108.65312340952521,34.1694452452295,0</coordinates>
    </Point>
  </Placemark>
  <Placemark>
    <name>秦味羊杂</name>
    <Point>
      <coordinates>108.63716510341803,34.19716516747805,0</coordinates>
    </Point>
  </Placemark>
  <Placemark>
    <name>川味金盆鱼</name>
    <Point>
      <coordinates>108.64016881244964,34.200950650500786,0</coordinates>
    </Point>
  </Placemark>
  <Placemark>
    <name>清真纯碱蒸馍</name>
    <Point>
      <coordinates>108.64353481963977,34.2030683325074,0</coordinates>
    </Point>
  </Placemark>
  <Placemark>
    <name>聚仙饭庄</name>
    <Point>
      <coordinates>108.55878350943324,34.176832740876726,0</coordinates>
    </Point>
  </Placemark>
  <Placemark>
    <name>刘师饭庄</name>
    <Point>
      <coordinates>108.65233977082475,34.20063824418519,0</coordinates>
    </Point>
  </Placemark>
  <Placemark>
    <name>宾雅居牛羊肉泡馍</name>
    <Point>
      <coordinates>108.64702238837666,34.2035282148045,0</coordinates>
    </Point>
  </Placemark>
  <Placemark>
    <name>秦镇米皮</name>
    <Point>
      <coordinates>108.64650428822047,34.203149487972034,0</coordinates>
    </Point>
  </Placemark>
  <Placemark>
    <name>星月楼泡馍</name>
    <Point>
      <coordinates>108.64118852643553,34.20195954955425,0</coordinates>
    </Point>
  </Placemark>
  <Placemark>
    <name>云南生态蒸汽石锅鱼</name>
    <Point>
      <coordinates>108.6501262027188,34.203181464004956,0</coordinates>
    </Point>
  </Placemark>
  <Placemark>
    <name>杨记天府川菜</name>
    <Point>
      <coordinates>108.65269306295075,34.20296698390698,0</coordinates>
    </Point>
  </Placemark>
  <Placemark>
    <name>昊鑫食府</name>
    <Point>
      <coordinates>108.64116071852408,34.22877221303291,0</coordinates>
    </Point>
  </Placemark>
  <Placemark>
    <name>兰州正宗牛肉拉面</name>
    <Point>
      <coordinates>108.64157534502219,34.20277284300163,0</coordinates>
    </Point>
  </Placemark>
  <Placemark>
    <name>文蜀矛椒火辣砂锅串串香(大王店)</name>
    <Point>
      <coordinates>108.63820447769017,34.19793536274874,0</coordinates>
    </Point>
  </Placemark>
  <Placemark>
    <name>鸭霸王</name>
    <Point>
      <coordinates>108.64205268618178,34.20264348855565,0</coordinates>
    </Point>
  </Placemark>
  <Placemark>
    <name>秦人手擀面</name>
    <Point>
      <coordinates>108.63793774742,34.19742948524832,0</coordinates>
    </Point>
  </Placemark>
  <Placemark>
    <name>华克士汉堡炸鸡(大王店)</name>
    <Point>
      <coordinates>108.64170746391187,34.202867061529645,0</coordinates>
    </Point>
  </Placemark>
  <Placemark>
    <name>重庆酒楼</name>
    <Point>
      <coordinates>108.55671007470767,34.1763799348097,0</coordinates>
    </Point>
  </Placemark>
  <Placemark>
    <name>重庆砂锅</name>
    <Point>
      <coordinates>108.64283279310544,34.20302534870715,0</coordinates>
    </Point>
  </Placemark>
  <Placemark>
    <name>丰聚园餐馆</name>
    <Point>
      <coordinates>108.59890542397002,34.2260114011087,0</coordinates>
    </Point>
  </Placemark>
  <Placemark>
    <name>姐妹面庄</name>
    <Point>
      <coordinates>108.6400095744848,34.200231400122675,0</coordinates>
    </Point>
  </Placemark>
  <Placemark>
    <name>方圆居小火锅</name>
    <Point>
      <coordinates>108.6474324200307,34.20356738215582,0</coordinates>
    </Point>
  </Placemark>
  <Placemark>
    <name>唐记煌砂锅串串香火锅</name>
    <Point>
      <coordinates>108.64610831957691,34.2030701189137,0</coordinates>
    </Point>
  </Placemark>
  <Placemark>
    <name>梦香缘食府</name>
    <Point>
      <coordinates>108.64010329417826,34.20087899510852,0</coordinates>
    </Point>
  </Placemark>
  <Placemark>
    <name>原汁冒菜</name>
    <Point>
      <coordinates>108.64337475732479,34.20302102471496,0</coordinates>
    </Point>
  </Placemark>
  <Placemark>
    <name>航艳农家饭庄</name>
    <Point>
      <coordinates>108.56942235735868,34.221463429975486,0</coordinates>
    </Point>
  </Placemark>
  <Placemark>
    <name>兴华酒店</name>
    <Point>
      <coordinates>108.64121694545221,34.20233859059219,0</coordinates>
    </Point>
  </Placemark>
  <Placemark>
    <name>农夫大盘鸡</name>
    <Point>
      <coordinates>108.6517173281664,34.20305495632543,0</coordinates>
    </Point>
  </Placemark>
  <Placemark>
    <name>老马家牛羊肉泡馍</name>
    <Point>
      <coordinates>108.65280875672124,34.20289708753305,0</coordinates>
    </Point>
  </Placemark>
  <Placemark>
    <name>大众饭店(校北街)</name>
    <Point>
      <coordinates>108.62102733230883,34.21260688922055,0</coordinates>
    </Point>
  </Placemark>
  <Placemark>
    <name>流连忘返手擀面</name>
    <Point>
      <coordinates>108.55599653857341,34.17614659995377,0</coordinates>
    </Point>
  </Placemark>
  <Placemark>
    <name>王记瓦罐烂猪蹄</name>
    <Point>
      <coordinates>108.64839452849591,34.20313324960195,0</coordinates>
    </Point>
  </Placemark>
  <Placemark>
    <name>西安户县大王老位子砂锅串串</name>
    <Point>
      <coordinates>108.6383990147723,34.1981285451085,0</coordinates>
    </Point>
  </Placemark>
  <Placemark>
    <name>砂锅王酒楼</name>
    <Point>
      <coordinates>108.63592857394823,34.19603801995297,0</coordinates>
    </Point>
  </Placemark>
  <Placemark>
    <name>秦镇特一味米皮肉夹馍</name>
    <Point>
      <coordinates>108.64650428822047,34.203149487972034,0</coordinates>
    </Point>
  </Placemark>
  <Placemark>
    <name>亨达酒家</name>
    <Point>
      <coordinates>108.65324524643783,34.15978410046739,0</coordinates>
    </Point>
  </Placemark>
  <Placemark>
    <name>甜甜餐厅</name>
    <Point>
      <coordinates>108.54046788882205,34.209645087009854,0</coordinates>
    </Point>
  </Placemark>
  <Placemark>
    <name>飘香干锅焗</name>
    <Point>
      <coordinates>108.5584442922742,34.17676962452904,0</coordinates>
    </Point>
  </Placemark>
  <Placemark>
    <name>罗家一品香凉皮</name>
    <Point>
      <coordinates>108.6474324200307,34.20356738215582,0</coordinates>
    </Point>
  </Placemark>
  <Placemark>
    <name>伊鸿楼牛羊肉泡馍</name>
    <Point>
      <coordinates>108.65619806869279,34.22931046249547,0</coordinates>
    </Point>
  </Placemark>
  <Placemark>
    <name>文家老传统食府</name>
    <Point>
      <coordinates>108.64901814308695,34.199136378010685,0</coordinates>
    </Point>
  </Placemark>
  <Placemark>
    <name>农家饭庄</name>
    <Point>
      <coordinates>108.64032178525274,34.228877543886306,0</coordinates>
    </Point>
  </Placemark>
  <Placemark>
    <name>龙台坊生熟牛肉店</name>
    <Point>
      <coordinates>108.64853940147228,34.20358657866938,0</coordinates>
    </Point>
  </Placemark>
  <Placemark>
    <name>诚信饭店</name>
    <Point>
      <coordinates>108.64044825160396,34.19612065800459,0</coordinates>
    </Point>
  </Placemark>
  <Placemark>
    <name>和谐酒店</name>
    <Point>
      <coordinates>108.63471187302908,34.196070663054265,0</coordinates>
    </Point>
  </Placemark>
  <Placemark>
    <name>超子烤肉</name>
    <Point>
      <coordinates>108.65077374377486,34.203120163407355,0</coordinates>
    </Point>
  </Placemark>
  <Placemark>
    <name>桥梓口牛羊肉泡馍</name>
    <Point>
      <coordinates>108.650094936609,34.203543140065456,0</coordinates>
    </Point>
  </Placemark>
  <Placemark>
    <name>袁师傅腊汁肉夹馍</name>
    <Point>
      <coordinates>108.6446187370821,34.20327274838351,0</coordinates>
    </Point>
  </Placemark>
  <Placemark>
    <name>重庆鸡公煲</name>
    <Point>
      <coordinates>108.65251355013423,34.203070802232695,0</coordinates>
    </Point>
  </Placemark>
  <Placemark>
    <name>好再来酒家</name>
    <Point>
      <coordinates>108.63577954721592,34.19607503420077,0</coordinates>
    </Point>
  </Placemark>
  <Placemark>
    <name>山西面食</name>
    <Point>
      <coordinates>108.64157534502219,34.20277284300163,0</coordinates>
    </Point>
  </Placemark>
  <Placemark>
    <name>渭丰独一味砂锅</name>
    <Point>
      <coordinates>108.5996161588874,34.201650611416525,0</coordinates>
    </Point>
  </Placemark>
  <Placemark>
    <name>老大面食</name>
    <Point>
      <coordinates>108.55463720825847,34.17493663648096,0</coordinates>
    </Point>
  </Placemark>
  <Placemark>
    <name>康乐餐馆</name>
    <Point>
      <coordinates>108.65445164966063,34.225925156827735,0</coordinates>
    </Point>
  </Placemark>
  <Placemark>
    <name>永娃饭店</name>
    <Point>
      <coordinates>108.64043685009193,34.19657225733141,0</coordinates>
    </Point>
  </Placemark>
  <Placemark>
    <name>又一村</name>
    <Point>
      <coordinates>108.64921701776129,34.20309856412135,0</coordinates>
    </Point>
  </Placemark>
  <Placemark>
    <name>刹车王中王</name>
    <Point>
      <coordinates>108.6347476801051,34.19601818607901,0</coordinates>
    </Point>
  </Placemark>
  <Placemark>
    <name>九味香汤包</name>
    <Point>
      <coordinates>108.63775108487066,34.19731729526524,0</coordinates>
    </Point>
  </Placemark>
  <Placemark>
    <name>永娃面莊</name>
    <Point>
      <coordinates>108.64026896277042,34.19649253384259,0</coordinates>
    </Point>
  </Placemark>
  <Placemark>
    <name>天一酒家</name>
    <Point>
      <coordinates>108.63415278279112,34.196042946454156,0</coordinates>
    </Point>
  </Placemark>
  <Placemark>
    <name>陕南锅巴米饭</name>
    <Point>
      <coordinates>108.6525632859672,34.20316077823019,0</coordinates>
    </Point>
  </Placemark>
  <Placemark>
    <name>老杨家腊肉店</name>
    <Point>
      <coordinates>108.64849058773385,34.20361235438072,0</coordinates>
    </Point>
  </Placemark>
  <Placemark>
    <name>枣子糕</name>
    <Point>
      <coordinates>108.6465596363399,34.20350358762177,0</coordinates>
    </Point>
  </Placemark>
  <Placemark>
    <name>刚子面食屋</name>
    <Point>
      <coordinates>108.65324736402555,34.202876211629764,0</coordinates>
    </Point>
  </Placemark>
  <Placemark>
    <name>军军川味酒楼</name>
    <Point>
      <coordinates>108.63480123456391,34.19609087389287,0</coordinates>
    </Point>
  </Placemark>
  <Placemark>
    <name>三义堂饭庄</name>
    <Point>
      <coordinates>108.64461716582747,34.22880045180167,0</coordinates>
    </Point>
  </Placemark>
  <Placemark>
    <name>姐妹蘸水面</name>
    <Point>
      <coordinates>108.65324736402555,34.202876211629764,0</coordinates>
    </Point>
  </Placemark>
  <Placemark>
    <name>喜缘休闲食品</name>
    <Point>
      <coordinates>108.6465596363399,34.20350358762177,0</coordinates>
    </Point>
  </Placemark>
  <Placemark>
    <name>还是擀面香</name>
    <Point>
      <coordinates>108.65304854596081,34.201447112956345,0</coordinates>
    </Point>
  </Placemark>
  <Placemark>
    <name>小军烧烤店</name>
    <Point>
      <coordinates>108.63870308081955,34.19904452296633,0</coordinates>
    </Point>
  </Placemark>
  <Placemark>
    <name>好再来餐馆(大张路)</name>
    <Point>
      <coordinates>108.59939969222124,34.20242343035775,0</coordinates>
    </Point>
  </Placemark>
  <Placemark>
    <name>菜优优29元自助火锅</name>
    <Point>
      <coordinates>108.59871059391577,34.201637039454866,0</coordinates>
    </Point>
  </Placemark>
  <Placemark>
    <name>为了你餐厅</name>
    <Point>
      <coordinates>108.62051760616643,34.21396515947549,0</coordinates>
    </Point>
  </Placemark>
  <Placemark>
    <name>福满楼酒楼</name>
    <Point>
      <coordinates>108.55477822332894,34.174389054818235,0</coordinates>
    </Point>
  </Placemark>
  <Placemark>
    <name>尚村老姚家牛羊肉泡馍</name>
    <Point>
      <coordinates>108.54205095761839,34.171003617368825,0</coordinates>
    </Point>
  </Placemark>
  <Placemark>
    <name>金贵人酒楼</name>
    <Point>
      <coordinates>108.5584442922742,34.17676962452904,0</coordinates>
    </Point>
  </Placemark>
  <Placemark>
    <name>珍珠小笼包</name>
    <Point>
      <coordinates>108.6432185790328,34.203065671784536,0</coordinates>
    </Point>
  </Placemark>
  <Placemark>
    <name>甘肃靖远老高羊羔肉</name>
    <Point>
      <coordinates>108.63486129724326,34.19659138417352,0</coordinates>
    </Point>
  </Placemark>
  <Placemark>
    <name>秦皇田园食府</name>
    <Point>
      <coordinates>108.6447166393822,34.228803187921756,0</coordinates>
    </Point>
  </Placemark>
  <Placemark>
    <name>绿色透明油坊</name>
    <Point>
      <coordinates>108.65324736402555,34.202876211629764,0</coordinates>
    </Point>
  </Placemark>
  <Placemark>
    <name>魏家杂肝汤</name>
    <Point>
      <coordinates>108.64748948960562,34.20325787599615,0</coordinates>
    </Point>
  </Placemark>
  <Placemark>
    <name>轩石乐</name>
    <Point>
      <coordinates>108.64921701776129,34.20309856412135,0</coordinates>
    </Point>
  </Placemark>
  <Placemark>
    <name>刘记面庄</name>
    <Point>
      <coordinates>108.6521151090541,34.202887564216454,0</coordinates>
    </Point>
  </Placemark>
  <Placemark>
    <name>宜都餐馆</name>
    <Point>
      <coordinates>108.65353511351245,34.169476236668004,0</coordinates>
    </Point>
  </Placemark>
  <Placemark>
    <name>重庆鲜面店</name>
    <Point>
      <coordinates>108.61839652546195,34.21546294451216,0</coordinates>
    </Point>
  </Placemark>
  <Placemark>
    <name>砂锅王</name>
    <Point>
      <coordinates>108.59907900034379,34.20168197709303,0</coordinates>
    </Point>
  </Placemark>
  <Placemark>
    <name>意康饭店</name>
    <Point>
      <coordinates>108.59961607303941,34.201730559280605,0</coordinates>
    </Point>
  </Placemark>
  <Placemark>
    <name>强子酒家</name>
    <Point>
      <coordinates>108.62160722217808,34.169003959812834,0</coordinates>
    </Point>
  </Placemark>
  <Placemark>
    <name>御林烧烤园</name>
    <Point>
      <coordinates>108.56266877519705,34.178408019851204,0</coordinates>
    </Point>
  </Placemark>
  <Placemark>
    <name>润朋面庄</name>
    <Point>
      <coordinates>108.63694674027921,34.196987538352424,0</coordinates>
    </Point>
  </Placemark>
  <Placemark>
    <name>府羊街</name>
    <Point>
      <coordinates>108.61956812499348,34.21167090406688,0</coordinates>
    </Point>
  </Placemark>
  <Placemark>
    <name>沙县小吃(大王镇旗舰店)</name>
    <Point>
      <coordinates>108.6484000805425,34.203525020464234,0</coordinates>
    </Point>
  </Placemark>
  <Placemark>
    <name>小高蛋糕房</name>
    <Point>
      <coordinates>108.55409660098123,34.17574606431014,0</coordinates>
    </Point>
  </Placemark>
  <Placemark>
    <name>山西香酥麻花</name>
    <Point>
      <coordinates>108.64119183793929,34.20257618772945,0</coordinates>
    </Point>
  </Placemark>
  <Placemark>
    <name>户县biang biang软面</name>
    <Point>
      <coordinates>108.63432259113272,34.196052303944015,0</coordinates>
    </Point>
  </Placemark>
  <Placemark>
    <name>祖庵老店牛肉泡馍</name>
    <Point>
      <coordinates>108.6398210456719,34.199952532991084,0</coordinates>
    </Point>
  </Placemark>
  <Placemark>
    <name>奶茶八缘风</name>
    <Point>
      <coordinates>108.64212453642722,34.20424613376728,0</coordinates>
    </Point>
  </Placemark>
  <Placemark>
    <name>渭河人家</name>
    <Point>
      <coordinates>108.56984643534135,34.22730503654021,0</coordinates>
    </Point>
  </Placemark>
  <Placemark>
    <name>杨记包子</name>
    <Point>
      <coordinates>108.64251452914989,34.20309645773109,0</coordinates>
    </Point>
  </Placemark>
  <Placemark>
    <name>小面馆</name>
    <Point>
      <coordinates>108.63874237646542,34.19853430082438,0</coordinates>
    </Point>
  </Placemark>
  <Placemark>
    <name>友元面馆</name>
    <Point>
      <coordinates>108.64597555826386,34.20346002744802,0</coordinates>
    </Point>
  </Placemark>
  <Placemark>
    <name>金马刀削面饺子馆</name>
    <Point>
      <coordinates>108.55515329773061,34.17562581120389,0</coordinates>
    </Point>
  </Placemark>
  <Placemark>
    <name>友和小吃</name>
    <Point>
      <coordinates>108.6465596363399,34.20350358762177,0</coordinates>
    </Point>
  </Placemark>
  <Placemark>
    <name>福源饺子馆</name>
    <Point>
      <coordinates>108.64010329417826,34.20087899510852,0</coordinates>
    </Point>
  </Placemark>
  <Placemark>
    <name>回味面馆</name>
    <Point>
      <coordinates>108.63817410015906,34.19847366219676,0</coordinates>
    </Point>
  </Placemark>
  <Placemark>
    <name>茶香面馆</name>
    <Point>
      <coordinates>108.6195255733546,34.164147828011444,0</coordinates>
    </Point>
  </Placemark>
  <Placemark>
    <name>兄弟面馆</name>
    <Point>
      <coordinates>108.64395470302738,34.20289885959108,0</coordinates>
    </Point>
  </Placemark>
  <Placemark>
    <name>常悦饺子馆</name>
    <Point>
      <coordinates>108.65245982195061,34.20113901805373,0</coordinates>
    </Point>
  </Placemark>
  <Placemark>
    <name>水利小吃</name>
    <Point>
      <coordinates>108.55428594488555,34.175154947191174,0</coordinates>
    </Point>
  </Placemark>
  <Placemark>
    <name>香溢小吃</name>
    <Point>
      <coordinates>108.55515329773061,34.17562581120389,0</coordinates>
    </Point>
  </Placemark>
  <Placemark>
    <name>腾龙小吃</name>
    <Point>
      <coordinates>108.64650428822047,34.203149487972034,0</coordinates>
    </Point>
  </Placemark>
  <Placemark>
    <name>老刘家辣面调料总汇</name>
    <Point>
      <coordinates>108.55463821485236,34.174935624177635,0</coordinates>
    </Point>
  </Placemark>
  <Placemark>
    <name>彭氏食品脆皮蛋糕专卖(大王店)</name>
    <Point>
      <coordinates>108.64796035620058,34.203237209899434,0</coordinates>
    </Point>
  </Placemark>
  <Placemark>
    <name>聚友茶庄</name>
    <Point>
      <coordinates>108.64321160400704,34.203078603912026,0</coordinates>
    </Point>
  </Placemark>
  <Placemark>
    <name>8090奶茶酷饮</name>
    <Point>
      <coordinates>108.61182448767669,34.16506882463334,0</coordinates>
    </Point>
  </Placemark>
  <Placemark>
    <name>馨乐美西饼屋</name>
    <Point>
      <coordinates>108.64839452849591,34.20313324960195,0</coordinates>
    </Point>
  </Placemark>
  <Placemark>
    <name>皇冠蛋糕西点炸鸡奶茶</name>
    <Point>
      <coordinates>108.64580482421599,34.20308017066968,0</coordinates>
    </Point>
  </Placemark>
  <Placemark>
    <name>小四川炒菜馆(高科店)</name>
    <Point>
      <coordinates>108.66550704134936,34.31681558959492,0</coordinates>
    </Point>
  </Placemark>
  <Placemark>
    <name>陶德老砂锅</name>
    <Point>
      <coordinates>108.65293283266467,34.31877831233894,0</coordinates>
    </Point>
  </Placemark>
  <Placemark>
    <name>兄弟生态园</name>
    <Point>
      <coordinates>108.6638203157475,34.30964367159802,0</coordinates>
    </Point>
  </Placemark>
  <Placemark>
    <name>鼎德香23元自助火锅</name>
    <Point>
      <coordinates>108.64062540850195,34.304966262383964,0</coordinates>
    </Point>
  </Placemark>
  <Placemark>
    <name>咱家小院</name>
    <Point>
      <coordinates>108.64284971182332,34.31054288333602,0</coordinates>
    </Point>
  </Placemark>
  <Placemark>
    <name>老马家牛羊肉泡馍</name>
    <Point>
      <coordinates>108.66279275114252,34.32065041233191,0</coordinates>
    </Point>
  </Placemark>
  <Placemark>
    <name>会宾楼牛羊肉泡馍馆</name>
    <Point>
      <coordinates>108.61110225814276,34.323134111377165,0</coordinates>
    </Point>
  </Placemark>
  <Placemark>
    <name>色狼大盘鸡</name>
    <Point>
      <coordinates>108.64277178148824,34.30625311600406,0</coordinates>
    </Point>
  </Placemark>
  <Placemark>
    <name>小四川菜馆</name>
    <Point>
      <coordinates>108.63914015016775,34.320272182091216,0</coordinates>
    </Point>
  </Placemark>
  <Placemark>
    <name>鑫小四川</name>
    <Point>
      <coordinates>108.66268386855074,34.316852285553246,0</coordinates>
    </Point>
  </Placemark>
  <Placemark>
    <name>重庆干锅居</name>
    <Point>
      <coordinates>108.63914015016775,34.320272182091216,0</coordinates>
    </Point>
  </Placemark>
  <Placemark>
    <name>老北京羊蝎子</name>
    <Point>
      <coordinates>108.63914933811628,34.32004446020237,0</coordinates>
    </Point>
  </Placemark>
  <Placemark>
    <name>淳化荞面饸饹</name>
    <Point>
      <coordinates>108.64654589817508,34.31396573080136,0</coordinates>
    </Point>
  </Placemark>
  <Placemark>
    <name>吴忠羊羔肉</name>
    <Point>
      <coordinates>108.63914258361643,34.32170311348269,0</coordinates>
    </Point>
  </Placemark>
  <Placemark>
    <name>丁丁旺成都干锅</name>
    <Point>
      <coordinates>108.63915193141482,34.32040521378165,0</coordinates>
    </Point>
  </Placemark>
  <Placemark>
    <name>小辣椒自助火锅</name>
    <Point>
      <coordinates>108.64250233881089,34.306232712322775,0</coordinates>
    </Point>
  </Placemark>
  <Placemark>
    <name>枫景酒家</name>
    <Point>
      <coordinates>108.66591815920304,34.31173401647683,0</coordinates>
    </Point>
  </Placemark>
  <Placemark>
    <name>秦渭斋泡馍</name>
    <Point>
      <coordinates>108.65814473871454,34.31667035818597,0</coordinates>
    </Point>
  </Placemark>
  <Placemark>
    <name>陕北羊肉馆</name>
    <Point>
      <coordinates>108.64407530566291,34.30379062224659,0</coordinates>
    </Point>
  </Placemark>
  <Placemark>
    <name>蜀鼎香川菜</name>
    <Point>
      <coordinates>108.66635377503633,34.31622381163803,0</coordinates>
    </Point>
  </Placemark>
  <Placemark>
    <name>享堡莱炸鸡汉堡</name>
    <Point>
      <coordinates>108.65293208076041,34.31854848923827,0</coordinates>
    </Point>
  </Placemark>
  <Placemark>
    <name>诸葛鲜鱼庄</name>
    <Point>
      <coordinates>108.66284289369538,34.320489116268305,0</coordinates>
    </Point>
  </Placemark>
  <Placemark>
    <name>重庆炝锅鱼(西阳村店)</name>
    <Point>
      <coordinates>108.66259739312855,34.320173414703625,0</coordinates>
    </Point>
  </Placemark>
  <Placemark>
    <name>潼行运老潼关肉夹馍</name>
    <Point>
      <coordinates>108.6656455980695,34.31628852279217,0</coordinates>
    </Point>
  </Placemark>
  <Placemark>
    <name>姥家大锅台(梧桐花园店)</name>
    <Point>
      <coordinates>108.66129799071177,34.32064105731944,0</coordinates>
    </Point>
  </Placemark>
  <Placemark>
    <name>鳖娃烤活鱼</name>
    <Point>
      <coordinates>108.63287255188732,34.31460181179468,0</coordinates>
    </Point>
  </Placemark>
  <Placemark>
    <name>迈德思(西橡店)</name>
    <Point>
      <coordinates>108.64138743476786,34.31346412822626,0</coordinates>
    </Point>
  </Placemark>
  <Placemark>
    <name>仁和川菜馆</name>
    <Point>
      <coordinates>108.6391302294958,34.3202570812154,0</coordinates>
    </Point>
  </Placemark>
  <Placemark>
    <name>蜀香园</name>
    <Point>
      <coordinates>108.63236828136293,34.300892604841145,0</coordinates>
    </Point>
  </Placemark>
  <Placemark>
    <name>老虎大盘鸡</name>
    <Point>
      <coordinates>108.58893311792217,34.304067262739686,0</coordinates>
    </Point>
  </Placemark>
  <Placemark>
    <name>大汗碳烤羊腿</name>
    <Point>
      <coordinates>108.641265629234,34.32157181082942,0</coordinates>
    </Point>
  </Placemark>
  <Placemark>
    <name>辣醉牛养生火锅</name>
    <Point>
      <coordinates>108.6601015663037,34.32048112240389,0</coordinates>
    </Point>
  </Placemark>
  <Placemark>
    <name>老砂锅串串香</name>
    <Point>
      <coordinates>108.57026111848049,34.299864446669844,0</coordinates>
    </Point>
  </Placemark>
  <Placemark>
    <name>醉仙居海鲜烤吧</name>
    <Point>
      <coordinates>108.66145527755303,34.31549691098257,0</coordinates>
    </Point>
  </Placemark>
  <Placemark>
    <name>正宗汇通面</name>
    <Point>
      <coordinates>108.6668424338695,34.31272789050924,0</coordinates>
    </Point>
  </Placemark>
  <Placemark>
    <name>肉丸胡辣汤</name>
    <Point>
      <coordinates>108.66302919997744,34.32010183113499,0</coordinates>
    </Point>
  </Placemark>
  <Placemark>
    <name>石锅鱼府(西华路店)</name>
    <Point>
      <coordinates>108.63822768862762,34.32148965982449,0</coordinates>
    </Point>
  </Placemark>
  <Placemark>
    <name>徐维纸包鱼</name>
    <Point>
      <coordinates>108.58775663202577,34.292857726764375,0</coordinates>
    </Point>
  </Placemark>
  <Placemark>
    <name>从前以后串串吧</name>
    <Point>
      <coordinates>108.58786520701236,34.29573362190402,0</coordinates>
    </Point>
  </Placemark>
  <Placemark>
    <name>辣动时代自助小火锅</name>
    <Point>
      <coordinates>108.66581168970437,34.31621479354465,0</coordinates>
    </Point>
  </Placemark>
  <Placemark>
    <name>洞子重庆老火锅</name>
    <Point>
      <coordinates>108.64746207915651,34.30795307489675,0</coordinates>
    </Point>
  </Placemark>
  <Placemark>
    <name>老杨家牛羊肉泡馍</name>
    <Point>
      <coordinates>108.63796453504978,34.32136660805194,0</coordinates>
    </Point>
  </Placemark>
  <Placemark>
    <name>金富莱米面食府</name>
    <Point>
      <coordinates>108.66542696498371,34.31688637987355,0</coordinates>
    </Point>
  </Placemark>
  <Placemark>
    <name>溢香饭馆</name>
    <Point>
      <coordinates>108.5769831751454,34.30184851997468,0</coordinates>
    </Point>
  </Placemark>
  <Placemark>
    <name>申家面庄</name>
    <Point>
      <coordinates>108.56696485454374,34.300448595512776,0</coordinates>
    </Point>
  </Placemark>
  <Placemark>
    <name>谷香园老成都柴火鸡</name>
    <Point>
      <coordinates>108.65346793056835,34.30882171931725,0</coordinates>
    </Point>
  </Placemark>
  <Placemark>
    <name>湘悦小厨</name>
    <Point>
      <coordinates>108.63929259875927,34.32173478134405,0</coordinates>
    </Point>
  </Placemark>
  <Placemark>
    <name>烩一碗牛羊肉烩面</name>
    <Point>
      <coordinates>108.63913198257492,34.32047493447163,0</coordinates>
    </Point>
  </Placemark>
  <Placemark>
    <name>铭浩酒馆</name>
    <Point>
      <coordinates>108.66274951999092,34.31218426436467,0</coordinates>
    </Point>
  </Placemark>
  <Placemark>
    <name>重庆炒菜馆(西华路)</name>
    <Point>
      <coordinates>108.64157618836147,34.31358988439413,0</coordinates>
    </Point>
  </Placemark>
  <Placemark>
    <name>百姓川菜</name>
    <Point>
      <coordinates>108.66270493705771,34.3205302423572,0</coordinates>
    </Point>
  </Placemark>
  <Placemark>
    <name>淳化饸饹手擀面</name>
    <Point>
      <coordinates>108.66121504505901,34.320669625174936,0</coordinates>
    </Point>
  </Placemark>
  <Placemark>
    <name>羌塘</name>
    <Point>
      <coordinates>108.64381340467054,34.30696348469464,0</coordinates>
    </Point>
  </Placemark>
  <Placemark>
    <name>岐山张家面</name>
    <Point>
      <coordinates>108.66629453130061,34.31644530450583,0</coordinates>
    </Point>
  </Placemark>
  <Placemark>
    <name>重庆纸包鱼</name>
    <Point>
      <coordinates>108.57032352364425,34.299825506928414,0</coordinates>
    </Point>
  </Placemark>
  <Placemark>
    <name>美味干锅居</name>
    <Point>
      <coordinates>108.6295878429943,34.31685491881911,0</coordinates>
    </Point>
  </Placemark>
  <Placemark>
    <name>灰狼大盘鸡</name>
    <Point>
      <coordinates>108.66232756089374,34.316429522143764,0</coordinates>
    </Point>
  </Placemark>
  <Placemark>
    <name>阿伟生态园</name>
    <Point>
      <coordinates>108.65039265411794,34.30216021742832,0</coordinates>
    </Point>
  </Placemark>
  <Placemark>
    <name>宁夏吴忠马军手抓羊肉no.6</name>
    <Point>
      <coordinates>108.64514806061446,34.31864614795615,0</coordinates>
    </Point>
  </Placemark>
  <Placemark>
    <name>老三牛羊肉泡馍</name>
    <Point>
      <coordinates>108.59230200852559,34.276293065403856,0</coordinates>
    </Point>
  </Placemark>
  <Placemark>
    <name>夜市老三汇通面</name>
    <Point>
      <coordinates>108.65110334514107,34.31773399697483,0</coordinates>
    </Point>
  </Placemark>
  <Placemark>
    <name>胡大刀擀面皮</name>
    <Point>
      <coordinates>108.66244742905221,34.31647152239316,0</coordinates>
    </Point>
  </Placemark>
  <Placemark>
    <name>夜色BAR</name>
    <Point>
      <coordinates>108.65458771167815,34.31886955139203,0</coordinates>
    </Point>
  </Placemark>
  <Placemark>
    <name>金马特色刀削面</name>
    <Point>
      <coordinates>108.57598195578046,34.301931042915214,0</coordinates>
    </Point>
  </Placemark>
  <Placemark>
    <name>古道羊庄</name>
    <Point>
      <coordinates>108.64740350126215,34.31427227067536,0</coordinates>
    </Point>
  </Placemark>
  <Placemark>
    <name>白家泡馍馆</name>
    <Point>
      <coordinates>108.61872251840464,34.31623072656058,0</coordinates>
    </Point>
  </Placemark>
  <Placemark>
    <name>晨之味放心早餐</name>
    <Point>
      <coordinates>108.63789543503336,34.305315324775925,0</coordinates>
    </Point>
  </Placemark>
  <Placemark>
    <name>孔记哇真好吃</name>
    <Point>
      <coordinates>108.6408078049247,34.314576482865334,0</coordinates>
    </Point>
  </Placemark>
  <Placemark>
    <name>川渝之家</name>
    <Point>
      <coordinates>108.63939191822855,34.32178385626919,0</coordinates>
    </Point>
  </Placemark>
  <Placemark>
    <name>留印东鱼场</name>
    <Point>
      <coordinates>108.62168052962723,34.314166853204654,0</coordinates>
    </Point>
  </Placemark>
  <Placemark>
    <name>西北王饭店</name>
    <Point>
      <coordinates>108.6474841693398,34.30890653576643,0</coordinates>
    </Point>
  </Placemark>
  <Placemark>
    <name>唐宫剪刀面</name>
    <Point>
      <coordinates>108.6526480922564,34.31847741274028,0</coordinates>
    </Point>
  </Placemark>
  <Placemark>
    <name>聚丰源川菜馆</name>
    <Point>
      <coordinates>108.6443818294288,34.30352417085606,0</coordinates>
    </Point>
  </Placemark>
  <Placemark>
    <name>老童家泡馍</name>
    <Point>
      <coordinates>108.66351911332521,34.318079097724016,0</coordinates>
    </Point>
  </Placemark>
  <Placemark>
    <name>逗乐堡(茂陵店)</name>
    <Point>
      <coordinates>108.6089424070924,34.32248678948417,0</coordinates>
    </Point>
  </Placemark>
  <Placemark>
    <name>武汉脱骨烧鸡</name>
    <Point>
      <coordinates>108.64050972719959,34.31545074900948,0</coordinates>
    </Point>
  </Placemark>
  <Placemark>
    <name>名渔川菜</name>
    <Point>
      <coordinates>108.66184452332959,34.315879719773385,0</coordinates>
    </Point>
  </Placemark>
  <Placemark>
    <name>刘记羊杂</name>
    <Point>
      <coordinates>108.61042739830278,34.268289764305834,0</coordinates>
    </Point>
  </Placemark>
  <Placemark>
    <name>老潼关肉夹馍</name>
    <Point>
      <coordinates>108.64067715568213,34.31501181558621,0</coordinates>
    </Point>
  </Placemark>
  <Placemark>
    <name>李记河南羊肉烩面</name>
    <Point>
      <coordinates>108.6655923473976,34.31041648464102,0</coordinates>
    </Point>
  </Placemark>
  <Placemark>
    <name>秦镇米皮</name>
    <Point>
      <coordinates>108.64785380608501,34.31183930544148,0</coordinates>
    </Point>
  </Placemark>
  <Placemark>
    <name>北牌劙面</name>
    <Point>
      <coordinates>108.65023478216925,34.32321670537343,0</coordinates>
    </Point>
  </Placemark>
  <Placemark>
    <name>品度大白兔蛋糕连锁店</name>
    <Point>
      <coordinates>108.66255359779423,34.32093917338807,0</coordinates>
    </Point>
  </Placemark>
  <Placemark>
    <name>手工汇通面</name>
    <Point>
      <coordinates>108.6467051722039,34.31588323422301,0</coordinates>
    </Point>
  </Placemark>
  <Placemark>
    <name>无名田螺</name>
    <Point>
      <coordinates>108.66420142751944,34.318491441154414,0</coordinates>
    </Point>
  </Placemark>
  <Placemark>
    <name>胭脂河坊3-13砂锅.串串</name>
    <Point>
      <coordinates>108.64648755473905,34.308160513600285,0</coordinates>
    </Point>
  </Placemark>
  <Placemark>
    <name>捞碗面</name>
    <Point>
      <coordinates>108.65177456171565,34.324541846049804,0</coordinates>
    </Point>
  </Placemark>
  <Placemark>
    <name>秦镇薛昌利凉皮</name>
    <Point>
      <coordinates>108.65978945656305,34.321904871850904,0</coordinates>
    </Point>
  </Placemark>
  <Placemark>
    <name>军旅情生态园</name>
    <Point>
      <coordinates>108.66380124137969,34.30973578224274,0</coordinates>
    </Point>
  </Placemark>
  <Placemark>
    <name>永山岐山面</name>
    <Point>
      <coordinates>108.63875388735387,34.32094324685107,0</coordinates>
    </Point>
  </Placemark>
  <Placemark>
    <name>长武酥肉</name>
    <Point>
      <coordinates>108.6294091522683,34.316844166070794,0</coordinates>
    </Point>
  </Placemark>
  <Placemark>
    <name>走关口肉夹馍</name>
    <Point>
      <coordinates>108.66166690491536,34.3156642232632,0</coordinates>
    </Point>
  </Placemark>
  <Placemark>
    <name>老狼大盘鸡</name>
    <Point>
      <coordinates>108.61753801516045,34.32389727874444,0</coordinates>
    </Point>
  </Placemark>
  <Placemark>
    <name>九寨沟石锅鱼</name>
    <Point>
      <coordinates>108.58713241747793,34.29613640970019,0</coordinates>
    </Point>
  </Placemark>
  <Placemark>
    <name>老潼关肉夹馍</name>
    <Point>
      <coordinates>108.65174212784464,34.31762316320973,0</coordinates>
    </Point>
  </Placemark>
  <Placemark>
    <name>古城海鲜馆</name>
    <Point>
      <coordinates>108.65978945656305,34.321904871850904,0</coordinates>
    </Point>
  </Placemark>
  <Placemark>
    <name>多唯蛋糕(西橡店)</name>
    <Point>
      <coordinates>108.61949340169657,34.30660523012238,0</coordinates>
    </Point>
  </Placemark>
  <Placemark>
    <name>李大爷牛肉面</name>
    <Point>
      <coordinates>108.6078897634644,34.26341072643018,0</coordinates>
    </Point>
  </Placemark>
  <Placemark>
    <name>秘制羊蝎子铁锅柴鸡(渭阳西路店)</name>
    <Point>
      <coordinates>108.66318508432757,34.32012945758183,0</coordinates>
    </Point>
  </Placemark>
  <Placemark>
    <name>金鸿宝酒楼</name>
    <Point>
      <coordinates>108.61055242878486,34.32276505848673,0</coordinates>
    </Point>
  </Placemark>
  <Placemark>
    <name>丁记汉中热米皮</name>
    <Point>
      <coordinates>108.66262312575017,34.31664494914026,0</coordinates>
    </Point>
  </Placemark>
  <Placemark>
    <name>茂陵自助涮烤</name>
    <Point>
      <coordinates>108.61656460971636,34.32351043875554,0</coordinates>
    </Point>
  </Placemark>
  <Placemark>
    <name>桥梓口牛羊肉泡馍馆</name>
    <Point>
      <coordinates>108.64494036640548,34.32214198056288,0</coordinates>
    </Point>
  </Placemark>
  <Placemark>
    <name>创新小四川</name>
    <Point>
      <coordinates>108.61729175495951,34.32374678584986,0</coordinates>
    </Point>
  </Placemark>
  <Placemark>
    <name>清香阁泡馍馆</name>
    <Point>
      <coordinates>108.62717266123862,34.32036346675131,0</coordinates>
    </Point>
  </Placemark>
  <Placemark>
    <name>关中老面</name>
    <Point>
      <coordinates>108.66218373095509,34.323849860374295,0</coordinates>
    </Point>
  </Placemark>
  <Placemark>
    <name>705所交流中心餐厅</name>
    <Point>
      <coordinates>108.65978945656305,34.321904871850904,0</coordinates>
    </Point>
  </Placemark>
  <Placemark>
    <name>民族饭荘</name>
    <Point>
      <coordinates>108.64319882904951,34.30816556082082,0</coordinates>
    </Point>
  </Placemark>
  <Placemark>
    <name>阿婆剪刀面</name>
    <Point>
      <coordinates>108.6524386520709,34.318612165537594,0</coordinates>
    </Point>
  </Placemark>
  <Placemark>
    <name>小四川炒菜馆</name>
    <Point>
      <coordinates>108.63207966231892,34.30208266629158,0</coordinates>
    </Point>
  </Placemark>
  <Placemark>
    <name>老街牛羊肉泡馍</name>
    <Point>
      <coordinates>108.66647320476787,34.31180380214102,0</coordinates>
    </Point>
  </Placemark>
  <Placemark>
    <name>甘肃靖远老田羊羔肉</name>
    <Point>
      <coordinates>108.64120317130555,34.30596950006118,0</coordinates>
    </Point>
  </Placemark>
  <Placemark>
    <name>小四川私房菜</name>
    <Point>
      <coordinates>108.6462827023089,34.30799038971216,0</coordinates>
    </Point>
  </Placemark>
  <Placemark>
    <name>双雷私房菜</name>
    <Point>
      <coordinates>108.64912924823223,34.31771238289582,0</coordinates>
    </Point>
  </Placemark>
  <Placemark>
    <name>农家一锅炖</name>
    <Point>
      <coordinates>108.66345151252922,34.30959605997766,0</coordinates>
    </Point>
  </Placemark>
  <Placemark>
    <name>古渡焖锅串串</name>
    <Point>
      <coordinates>108.65451212854418,34.30143384726792,0</coordinates>
    </Point>
  </Placemark>
  <Placemark>
    <name>兰州大块牛肉拉面</name>
    <Point>
      <coordinates>108.64551748264675,34.31834392650507,0</coordinates>
    </Point>
  </Placemark>
  <Placemark>
    <name>清真兰州拉面</name>
    <Point>
      <coordinates>108.61584908316986,34.323476300539326,0</coordinates>
    </Point>
  </Placemark>
  <Placemark>
    <name>丁丁食品(梧桐花园店)</name>
    <Point>
      <coordinates>108.66299500206766,34.32030396625782,0</coordinates>
    </Point>
  </Placemark>
  <Placemark>
    <name>椒太郎烫菜馆</name>
    <Point>
      <coordinates>108.58743029111832,34.29556262355068,0</coordinates>
    </Point>
  </Placemark>
  <Placemark>
    <name>荆老大牛羊肉泡馍馆</name>
    <Point>
      <coordinates>108.63944856806575,34.32177749297761,0</coordinates>
    </Point>
  </Placemark>
  <Placemark>
    <name>汉中热米皮</name>
    <Point>
      <coordinates>108.6134652069461,34.32342706514252,0</coordinates>
    </Point>
  </Placemark>
  <Placemark>
    <name>万州烤活鱼</name>
    <Point>
      <coordinates>108.64888929870277,34.317688483853956,0</coordinates>
    </Point>
  </Placemark>
  <Placemark>
    <name>马家烧烤火锅</name>
    <Point>
      <coordinates>108.65830680631824,34.31727617096907,0</coordinates>
    </Point>
  </Placemark>
  <Placemark>
    <name>乾县豆腐脑</name>
    <Point>
      <coordinates>108.6384084807762,34.32152377158067,0</coordinates>
    </Point>
  </Placemark>
  <Placemark>
    <name>百姓饭莊</name>
    <Point>
      <coordinates>108.56818683495992,34.3002814949073,0</coordinates>
    </Point>
  </Placemark>
  <Placemark>
    <name>秦膳老面高新店</name>
    <Point>
      <coordinates>108.64766134449566,34.31004763744606,0</coordinates>
    </Point>
  </Placemark>
  <Placemark>
    <name>振新鸡排</name>
    <Point>
      <coordinates>108.64154616464984,34.31379244378192,0</coordinates>
    </Point>
  </Placemark>
  <Placemark>
    <name>绝味鸭脖(彩虹二店)</name>
    <Point>
      <coordinates>108.66666404997582,34.31604043388543,0</coordinates>
    </Point>
  </Placemark>
  <Placemark>
    <name>大众面</name>
    <Point>
      <coordinates>108.6115720797583,34.322901844957066,0</coordinates>
    </Point>
  </Placemark>
  <Placemark>
    <name>麦香馍店 蒸馍电烤饼</name>
    <Point>
      <coordinates>108.57606818408432,34.30230362688268,0</coordinates>
    </Point>
  </Placemark>
  <Placemark>
    <name>安仔包</name>
    <Point>
      <coordinates>108.6668217125147,34.31737158792085,0</coordinates>
    </Point>
  </Placemark>
  <Placemark>
    <name>金马刀削面</name>
    <Point>
      <coordinates>108.65021388630548,34.314738150341555,0</coordinates>
    </Point>
  </Placemark>