户县驾校培训基地,108.6314778226758,34.085837123468664,a8512e139dd236378b2fb5a0,"{'name': '户县驾校培训基地', 'location': {'lat': 34.090082, 'lng': 108.642486}, 'address': 'G5京昆高速附近', 'province': '陕西省', 'city': '西安市', 'area': '邑区', 'detail': 1, 'uid': 'a8512e139dd236378b2fb5a0', 'detail_info': {'tag': '教育培训;培训机构', 'type': 'education', 'detail_url': 'http://api.map.baidu.com/place/detail?uid=a8512e139dd236378b2fb5a0&output=html&source=placeapi_v2', 'overall_rating': '5.0', 'comment_num': '0', 'children': []}}"
"{'name': '户县驾校培训基地', 'location': {'lat': 34.090082, 'lng': 108.642486}, 'address': 'G5京昆高速附近', 'province': '陕西省', 'city': '西安市', 'area': '邑区', 'detail': 1, 'uid': 'a8512e139dd236378b2fb5a0', 'detail_info': {'tag': '教育培训;培训机构', 'type': 'education', 'detail_url': 'http://api.map.baidu.com/place/detail?uid=a8512e139dd236378b2fb5a0&output=html&source=placeapi_v2', 'overall_rating': '5.0', 'comment_num': '0', 'children': []}}"
西安市户县当代舞蹈培训中心,108.61606931649382,34.105711667107755,dea7bd97bc40ffcdbf4842e5,"{'name': '西安市户县当代舞蹈培训中心', 'location': {'lat': 34.110204, 'lng': 108.626986}, 'address': '东新路与朝阳路交叉口东50米', 'province': '陕西省', 'city': '西安市', 'area': '邑区', 'street_id': 'dea7bd97bc40ffcdbf4842e5', 'detail': 1, 'uid': 'dea7bd97bc40ffcdbf4842e5', 'detail_info': {'tag': '教育培训;培训机构', 'type': 'education', 'detail_url': 'http://api.map.baidu.com/place/detail?uid=dea7bd97bc40ffcdbf4842e5&output=html&source=placeapi_v2', 'overall_rating': '5.0', 'children': []}}"
"{'name': '西安市户县当代舞蹈培训中心', 'location': {'lat': 34.110204, 'lng': 108.626986}, 'address': '东新路与朝阳路交叉口东50米', 'province': '陕西省', 'city': '西安市', 'area': '邑区', 'street_id': 'dea7bd97bc40ffcdbf4842e5', 'detail': 1, 'uid': 'dea7bd97bc40ffcdbf4842e5', 'detail_info': {'tag': '教育培训;培训机构', 'type': 'education', 'detail_url': 'http://api.map.baidu.com/place/detail?uid=dea7bd97bc40ffcdbf4842e5&output=html&source=placeapi_v2', 'overall_rating': '5.0', 'children': []}}"
西安恒顺驾校,108.61692288100359,34.083642350597366,550fd5f94876b47a931fc96a,"{'name': '西安恒顺驾校', 'location': {'lat': 34.088112, 'lng': 108.627827}, 'address': '陕西省西安市邑区金沣路', 'province': '陕西省', 'city': '西安市', 'area': '邑区', 'telephone': '(029)84832010', 'detail': 1, 'uid': '550fd5f94876b47a931fc96a', 'detail_info': {'tag': '教育培训;培训机构', 'type': 'education', 'detail_url': 'http://api.map.baidu.com/place/detail?uid=550fd5f94876b47a931fc96a&output=html&source=placeapi_v2', 'overall_rating': '5.0', 'comment_num': '1', 'children': []}}"
"{'name': '西安恒顺驾校', 'location': {'lat': 34.088112, 'lng': 108.627827}, 'address': '陕西省西安市邑区金沣路', 'province': '陕西省', 'city': '西安市', 'area': '邑区', 'telephone': '(029)84832010', 'detail': 1, 'uid': '550fd5f94876b47a931fc96a', 'detail_info': {'tag': '教育培训;培训机构', 'type': 'education', 'detail_url': 'http://api.map.baidu.com/place/detail?uid=550fd5f94876b47a931fc96a&output=html&source=placeapi_v2', 'overall_rating': '5.0', 'comment_num': '1', 'children': []}}"
宝贝时光早教中心,108.61574053574202,34.105181225889496,c9220b622400bd6c43e1920a,"{'name': '宝贝时光早教中心', 'location': {'lat': 34.109678, 'lng': 108.626655}, 'address': '陕西省西安市邑区小丰村西二巷与朝阳路交叉口东北50米', 'province': '陕西省', 'city': '西安市', 'area': '邑区', 'street_id': 'c9220b622400bd6c43e1920a', 'detail': 1, 'uid': 'c9220b622400bd6c43e1920a', 'detail_info': {'tag': '教育培训;培训机构', 'type': 'education', 'detail_url': 'http://api.map.baidu.com/place/detail?uid=c9220b622400bd6c43e1920a&output=html&source=placeapi_v2', 'children': []}}"
"{'name': '宝贝时光早教中心', 'location': {'lat': 34.109678, 'lng': 108.626655}, 'address': '陕西省西安市邑区小丰村西二巷与朝阳路交叉口东北50米', 'province': '陕西省', 'city': '西安市', 'area': '邑区', 'street_id': 'c9220b622400bd6c43e1920a', 'detail': 1, 'uid': 'c9220b622400bd6c43e1920a', 'detail_info': {'tag': '教育培训;培训机构', 'type': 'education', 'detail_url': 'http://api.map.baidu.com/place/detail?uid=c9220b622400bd6c43e1920a&output=html&source=placeapi_v2', 'children': []}}"
户县腊家滩驾校,108.55145937286072,34.07908643315044,838ee1496d6b029633169b3e,"{'name': '户县腊家滩驾校', 'location': {'lat': 34.083219, 'lng': 108.562487}, 'address': '陕西省西安市邑区108省道附近', 'province': '陕西省', 'city': '西安市', 'area': '邑区', 'detail': 1, 'uid': '838ee1496d6b029633169b3e', 'detail_info': {'tag': '教育培训;培训机构', 'type': 'education', 'detail_url': 'http://api.map.baidu.com/place/detail?uid=838ee1496d6b029633169b3e&output=html&source=placeapi_v2', 'overall_rating': '5.0', 'children': []}}"
"{'name': '户县腊家滩驾校', 'location': {'lat': 34.083219, 'lng': 108.562487}, 'address': '陕西省西安市邑区108省道附近', 'province': '陕西省', 'city': '西安市', 'area': '邑区', 'detail': 1, 'uid': '838ee1496d6b029633169b3e', 'detail_info': {'tag': '教育培训;培训机构', 'type': 'education', 'detail_url': 'http://api.map.baidu.com/place/detail?uid=838ee1496d6b029633169b3e&output=html&source=placeapi_v2', 'overall_rating': '5.0', 'children': []}}"
腊家滩驾校,108.63870645246796,34.109872591938796,49c96818f5eda038f4231051,"{'name': '腊家滩驾校', 'location': {'lat': 34.114031, 'lng': 108.649781}, 'address': '丰京路附近', 'province': '陕西省', 'city': '西安市', 'area': '邑区', 'detail': 1, 'uid': '49c96818f5eda038f4231051', 'detail_info': {'tag': '教育培训;培训机构', 'type': 'education', 'detail_url': 'http://api.map.baidu.com/place/detail?uid=49c96818f5eda038f4231051&output=html&source=placeapi_v2', 'overall_rating': '5.0', 'comment_num': '0', 'children': []}}"
"{'name': '腊家滩驾校', 'location': {'lat': 34.114031, 'lng': 108.649781}, 'address': '丰京路附近', 'province': '陕西省', 'city': '西安市', 'area': '邑区', 'detail': 1, 'uid': '49c96818f5eda038f4231051', 'detail_info': {'tag': '教育培训;培训机构', 'type': 'education', 'detail_url': 'http://api.map.baidu.com/place/detail?uid=49c96818f5eda038f4231051&output=html&source=placeapi_v2', 'overall_rating': '5.0', 'comment_num': '0', 'children': []}}"
华西驾校培训基地,108.61501535690068,34.08569333968171,38e48037148fe24a373a7160,"{'name': '华西驾校培训基地', 'location': {'lat': 34.090191, 'lng': 108.62591}, 'address': 'G5京昆高速附近', 'province': '陕西省', 'city': '西安市', 'area': '邑区', 'telephone': '(029)84820299', 'detail': 1, 'uid': '38e48037148fe24a373a7160', 'detail_info': {'tag': '教育培训;培训机构', 'type': 'education', 'detail_url': 'http://api.map.baidu.com/place/detail?uid=38e48037148fe24a373a7160&output=html&source=placeapi_v2', 'overall_rating': '5.0', 'comment_num': '0', 'children': []}}"
"{'name': '华西驾校培训基地', 'location': {'lat': 34.090191, 'lng': 108.62591}, 'address': 'G5京昆高速附近', 'province': '陕西省', 'city': '西安市', 'area': '邑区', 'telephone': '(029)84820299', 'detail': 1, 'uid': '38e48037148fe24a373a7160', 'detail_info': {'tag': '教育培训;培训机构', 'type': 'education', 'detail_url': 'http://api.map.baidu.com/place/detail?uid=38e48037148fe24a373a7160&output=html&source=placeapi_v2', 'overall_rating': '5.0', 'comment_num': '0', 'children': []}}"
学立方辅导中心,108.62079109106614,34.1130559793193,c360e96d580e4cbfa7c756d9,"{'name': '学立方辅导中心', 'location': {'lat': 34.11748, 'lng': 108.63174}, 'address': '陕西省西安市邑区人民路北段春蕾十字东南角二楼(人民路与车站东路的十字)', 'province': '陕西省', 'city': '西安市', 'area': '邑区', 'street_id': 'c360e96d580e4cbfa7c756d9', 'detail': 1, 'uid': 'c360e96d580e4cbfa7c756d9', 'detail_info': {'tag': '教育培训;培训机构', 'type': 'education', 'detail_url': 'http://api.map.baidu.com/place/detail?uid=c360e96d580e4cbfa7c756d9&output=html&source=placeapi_v2', 'children': []}}"
"{'name': '学立方辅导中心', 'location': {'lat': 34.11748, 'lng': 108.63174}, 'address': '陕西省西安市邑区人民路北段春蕾十字东南角二楼(人民路与车站东路的十字)', 'province': '陕西省', 'city': '西安市', 'area': '邑区', 'street_id': 'c360e96d580e4cbfa7c756d9', 'detail': 1, 'uid': 'c360e96d580e4cbfa7c756d9', 'detail_info': {'tag': '教育培训;培训机构', 'type': 'education', 'detail_url': 'http://api.map.baidu.com/place/detail?uid=c360e96d580e4cbfa7c756d9&output=html&source=placeapi_v2', 'children': []}}"
陕西省户县教师进修学校,108.59947434416038,34.11303501668995,a5ef680f7d3416d7b8df8fa9,"{'name': '陕西省户县教师进修学校', 'location': {'lat': 34.117683, 'lng': 108.610324}, 'address': '政法路1号', 'province': '陕西省', 'city': '西安市', 'area': '邑区', 'street_id': 'a5ef680f7d3416d7b8df8fa9', 'detail': 1, 'uid': 'a5ef680f7d3416d7b8df8fa9', 'detail_info': {'tag': '教育培训;培训机构', 'type': 'education', 'detail_url': 'http://api.map.baidu.com/place/detail?uid=a5ef680f7d3416d7b8df8fa9&output=html&source=placeapi_v2', 'overall_rating': '5.0', 'children': []}}"
"{'name': '陕西省户县教师进修学校', 'location': {'lat': 34.117683, 'lng': 108.610324}, 'address': '政法路1号', 'province': '陕西省', 'city': '西安市', 'area': '邑区', 'street_id': 'a5ef680f7d3416d7b8df8fa9', 'detail': 1, 'uid': 'a5ef680f7d3416d7b8df8fa9', 'detail_info': {'tag': '教育培训;培训机构', 'type': 'education', 'detail_url': 'http://api.map.baidu.com/place/detail?uid=a5ef680f7d3416d7b8df8fa9&output=html&source=placeapi_v2', 'overall_rating': '5.0', 'children': []}}"
恒顺驾校培训基地,108.57465358132012,34.07947745121016,36ef138a609a562f0782c2a6,"{'name': '恒顺驾校培训基地', 'location': {'lat': 34.083946, 'lng': 108.585535}, 'address': '108省道附近', 'province': '陕西省', 'city': '西安市', 'area': '邑区', 'detail': 1, 'uid': '36ef138a609a562f0782c2a6', 'detail_info': {'tag': '教育培训;培训机构', 'type': 'education', 'detail_url': 'http://api.map.baidu.com/place/detail?uid=36ef138a609a562f0782c2a6&output=html&source=placeapi_v2', 'overall_rating': '5.0', 'comment_num': '0', 'children': []}}"
"{'name': '恒顺驾校培训基地', 'location': {'lat': 34.083946, 'lng': 108.585535}, 'address': '108省道附近', 'province': '陕西省', 'city': '西安市', 'area': '邑区', 'detail': 1, 'uid': '36ef138a609a562f0782c2a6', 'detail_info': {'tag': '教育培训;培训机构', 'type': 'education', 'detail_url': 'http://api.map.baidu.com/place/detail?uid=36ef138a609a562f0782c2a6&output=html&source=placeapi_v2', 'overall_rating': '5.0', 'comment_num': '0', 'children': []}}"
小博士托管,108.61573137479515,34.10573789937487,2446707054819630b6f42f62,"{'name': '小博士托管', 'location': {'lat': 34.110235, 'lng': 108.626646}, 'address': '西安市邑区朝阳路10', 'province': '陕西省', 'city': '西安市', 'area': '邑区', 'street_id': '2446707054819630b6f42f62', 'telephone': '18502986809', 'detail': 1, 'uid': '2446707054819630b6f42f62', 'detail_info': {'tag': '教育培训;培训机构', 'navi_location': {'lng': 108.62678955638, 'lat': 34.11039193358}, 'type': 'education', 'detail_url': 'http://api.map.baidu.com/place/detail?uid=2446707054819630b6f42f62&output=html&source=placeapi_v2', 'overall_rating': '5.0', 'children': []}}"
"{'name': '小博士托管', 'location': {'lat': 34.110235, 'lng': 108.626646}, 'address': '西安市邑区朝阳路10', 'province': '陕西省', 'city': '西安市', 'area': '邑区', 'street_id': '2446707054819630b6f42f62', 'telephone': '18502986809', 'detail': 1, 'uid': '2446707054819630b6f42f62', 'detail_info': {'tag': '教育培训;培训机构', 'navi_location': {'lng': 108.62678955638, 'lat': 34.11039193358}, 'type': 'education', 'detail_url': 'http://api.map.baidu.com/place/detail?uid=2446707054819630b6f42f62&output=html&source=placeapi_v2', 'overall_rating': '5.0', 'children': []}}"
宝贝托管辅导学校,108.60850142677117,34.11352850809377,3d412304c96994de7f29bd85,"{'name': '宝贝托管辅导学校', 'location': {'lat': 34.118116, 'lng': 108.619379}, 'address': '翰麟苑小区4单元3楼', 'province': '陕西省', 'city': '西安市', 'area': '邑区', 'street_id': '3d412304c96994de7f29bd85', 'telephone': '(029)84832929', 'detail': 1, 'uid': '3d412304c96994de7f29bd85', 'detail_info': {'tag': '教育培训;培训机构', 'type': 'education', 'detail_url': 'http://api.map.baidu.com/place/detail?uid=3d412304c96994de7f29bd85&output=html&source=placeapi_v2', 'children': []}}"
"{'name': '宝贝托管辅导学校', 'location': {'lat': 34.118116, 'lng': 108.619379}, 'address': '翰麟苑小区4单元3楼', 'province': '陕西省', 'city': '西安市', 'area': '邑区', 'street_id': '3d412304c96994de7f29bd85', 'telephone': '(029)84832929', 'detail': 1, 'uid': '3d412304c96994de7f29bd85', 'detail_info': {'tag': '教育培训;培训机构', 'type': 'education', 'detail_url': 'http://api.map.baidu.com/place/detail?uid=3d412304c96994de7f29bd85&output=html&source=placeapi_v2', 'children': []}}"
睿欣教育(户县校区),108.6200768608523,34.099196704740606,366fd15a8108c26ef82d61f4,"{'name': '睿欣教育(户县校区)', 'location': {'lat': 34.103627, 'lng': 108.631016}, 'address': '邑区人民路御苑新城五号楼E座4层', 'province': '陕西省', 'city': '西安市', 'area': '邑区', 'street_id': '366fd15a8108c26ef82d61f4', 'detail': 1, 'uid': '366fd15a8108c26ef82d61f4', 'detail_info': {'tag': '教育培训;培训机构', 'type': 'education', 'detail_url': 'http://api.map.baidu.com/place/detail?uid=366fd15a8108c26ef82d61f4&output=html&source=placeapi_v2', 'children': []}}"
"{'name': '睿欣教育(户县校区)', 'location': {'lat': 34.103627, 'lng': 108.631016}, 'address': '邑区人民路御苑新城五号楼E座4层', 'province': '陕西省', 'city': '西安市', 'area': '邑区', 'street_id': '366fd15a8108c26ef82d61f4', 'detail': 1, 'uid': '366fd15a8108c26ef82d61f4', 'detail_info': {'tag': '教育培训;培训机构', 'type': 'education', 'detail_url': 'http://api.map.baidu.com/place/detail?uid=366fd15a8108c26ef82d61f4&output=html&source=placeapi_v2', 'children': []}}"
西安泉声琴筝艺术培训学校,108.61605540775875,34.105696475705365,71a866a05e26378bed74f8be,"{'name': '西安泉声琴筝艺术培训学校', 'location': {'lat': 34.110189, 'lng': 108.626972}, 'address': '东新路与朝阳路交叉口东100米', 'province': '陕西省', 'city': '西安市', 'area': '邑区', 'street_id': '71a866a05e26378bed74f8be', 'detail': 1, 'uid': '71a866a05e26378bed74f8be', 'detail_info': {'tag': '教育培训;培训机构', 'type': 'education', 'detail_url': 'http://api.map.baidu.com/place/detail?uid=71a866a05e26378bed74f8be&output=html&source=placeapi_v2', 'overall_rating': '5.0', 'children': []}}"
"{'name': '西安泉声琴筝艺术培训学校', 'location': {'lat': 34.110189, 'lng': 108.626972}, 'address': '东新路与朝阳路交叉口东100米', 'province': '陕西省', 'city': '西安市', 'area': '邑区', 'street_id': '71a866a05e26378bed74f8be', 'detail': 1, 'uid': '71a866a05e26378bed74f8be', 'detail_info': {'tag': '教育培训;培训机构', 'type': 'education', 'detail_url': 'http://api.map.baidu.com/place/detail?uid=71a866a05e26378bed74f8be&output=html&source=placeapi_v2', 'overall_rating': '5.0', 'children': []}}"
户县驾校(北转盘分校),108.60440455176264,34.126141422380925,6929e46eb084eecdadcb66d8,"{'name': '户县驾校(北转盘分校)', 'location': {'lat': 34.130766, 'lng': 108.615262}, 'address': '陕西省西安市邑区户县汽车北站南100米(咸余路北)', 'province': '陕西省', 'city': '西安市', 'area': '邑区', 'street_id': '6929e46eb084eecdadcb66d8', 'telephone': '(029)84829289,13992851261,15829661989', 'detail': 1, 'uid': '6929e46eb084eecdadcb66d8', 'detail_info': {'tag': '教育培训;培训机构', 'type': 'education', 'detail_url': 'http://api.map.baidu.com/place/detail?uid=6929e46eb084eecdadcb66d8&output=html&source=placeapi_v2', 'overall_rating': '5.0', 'children': []}}"
"{'name': '户县驾校(北转盘分校)', 'location': {'lat': 34.130766, 'lng': 108.615262}, 'address': '陕西省西安市邑区户县汽车北站南100米(咸余路北)', 'province': '陕西省', 'city': '西安市', 'area': '邑区', 'street_id': '6929e46eb084eecdadcb66d8', 'telephone': '(029)84829289,13992851261,15829661989', 'detail': 1, 'uid': '6929e46eb084eecdadcb66d8', 'detail_info': {'tag': '教育培训;培训机构', 'type': 'education', 'detail_url': 'http://api.map.baidu.com/place/detail?uid=6929e46eb084eecdadcb66d8&output=html&source=placeapi_v2', 'overall_rating': '5.0', 'children': []}}"
美洲森林书画学校,108.61595250072249,34.10456043205794,40144b9b39d4e7e6c27da2f1,"{'name': '美洲森林书画学校', 'location': {'lat': 34.109054, 'lng': 108.626868}, 'address': '陕西省西安市邑区天裕丰苑东门(朝阳路)', 'province': '陕西省', 'city': '西安市', 'area': '邑区', 'street_id': '40144b9b39d4e7e6c27da2f1', 'detail': 1, 'uid': '40144b9b39d4e7e6c27da2f1', 'detail_info': {'tag': '教育培训;培训机构', 'type': 'education', 'detail_url': 'http://api.map.baidu.com/place/detail?uid=40144b9b39d4e7e6c27da2f1&output=html&source=placeapi_v2', 'children': []}}"
"{'name': '美洲森林书画学校', 'location': {'lat': 34.109054, 'lng': 108.626868}, 'address': '陕西省西安市邑区天裕丰苑东门(朝阳路)', 'province': '陕西省', 'city': '西安市', 'area': '邑区', 'street_id': '40144b9b39d4e7e6c27da2f1', 'detail': 1, 'uid': '40144b9b39d4e7e6c27da2f1', 'detail_info': {'tag': '教育培训;培训机构', 'type': 'education', 'detail_url': 'http://api.map.baidu.com/place/detail?uid=40144b9b39d4e7e6c27da2f1&output=html&source=placeapi_v2', 'children': []}}"
昂立教育,108.61592122840489,34.10570357905231,e1f7dd2569ff709a72455b0f,"{'name': '昂立教育', 'location': {'lat': 34.110198, 'lng': 108.626837}, 'address': '陕西省西安市邑区天裕丰苑东北60米(东新路南)', 'province': '陕西省', 'city': '西安市', 'area': '邑区', 'street_id': 'e1f7dd2569ff709a72455b0f', 'telephone': '(029)84900203,13201545007', 'detail': 1, 'uid': 'e1f7dd2569ff709a72455b0f', 'detail_info': {'tag': '教育培训;培训机构', 'type': 'education', 'detail_url': 'http://api.map.baidu.com/place/detail?uid=e1f7dd2569ff709a72455b0f&output=html&source=placeapi_v2', 'comment_num': '1', 'children': []}}"
"{'name': '昂立教育', 'location': {'lat': 34.110198, 'lng': 108.626837}, 'address': '陕西省西安市邑区天裕丰苑东北60米(东新路南)', 'province': '陕西省', 'city': '西安市', 'area': '邑区', 'street_id': 'e1f7dd2569ff709a72455b0f', 'telephone': '(029)84900203,13201545007', 'detail': 1, 'uid': 'e1f7dd2569ff709a72455b0f', 'detail_info': {'tag': '教育培训;培训机构', 'type': 'education', 'detail_url': 'http://api.map.baidu.com/place/detail?uid=e1f7dd2569ff709a72455b0f&output=html&source=placeapi_v2', 'comment_num': '1', 'children': []}}"
西安新羽青少年素质教育学校,108.64714626842752,34.140578628596025,72c70292c60227577bf796da,"{'name': '西安新羽青少年素质教育学校', 'location': {'lat': 34.144667, 'lng': 108.658253}, 'address': '陕西省西安市邑区093村道西50米', 'province': '陕西省', 'city': '西安市', 'area': '邑区', 'detail': 1, 'uid': '72c70292c60227577bf796da', 'detail_info': {'tag': '教育培训;培训机构', 'type': 'education', 'detail_url': 'http://api.map.baidu.com/place/detail?uid=72c70292c60227577bf796da&output=html&source=placeapi_v2', 'children': []}}"
"{'name': '西安新羽青少年素质教育学校', 'location': {'lat': 34.144667, 'lng': 108.658253}, 'address': '陕西省西安市邑区093村道西50米', 'province': '陕西省', 'city': '西安市', 'area': '邑区', 'detail': 1, 'uid': '72c70292c60227577bf796da', 'detail_info': {'tag': '教育培训;培训机构', 'type': 'education', 'detail_url': 'http://api.map.baidu.com/place/detail?uid=72c70292c60227577bf796da&output=html&source=placeapi_v2', 'children': []}}"
恒顺驾校(西伦分校),108.57331770720863,34.079850609225936,373c753642ff9f276ec02caa,"{'name': '恒顺驾校(西伦分校)', 'location': {'lat': 34.0843, 'lng': 108.584207}, 'address': '陕西省西安市邑区恒顺驾校西伦联络点(新城路北)', 'province': '陕西省', 'city': '西安市', 'area': '邑区', 'telephone': '(029)84926089', 'detail': 1, 'uid': '373c753642ff9f276ec02caa', 'detail_info': {'tag': '教育培训;培训机构', 'type': 'education', 'detail_url': 'http://api.map.baidu.com/place/detail?uid=373c753642ff9f276ec02caa&output=html&source=placeapi_v2', 'price': '0.0', 'overall_rating': '5.0', 'children': []}}"
"{'name': '恒顺驾校(西伦分校)', 'location': {'lat': 34.0843, 'lng': 108.584207}, 'address': '陕西省西安市邑区恒顺驾校西伦联络点(新城路北)', 'province': '陕西省', 'city': '西安市', 'area': '邑区', 'telephone': '(029)84926089', 'detail': 1, 'uid': '373c753642ff9f276ec02caa', 'detail_info': {'tag': '教育培训;培训机构', 'type': 'education', 'detail_url': 'http://api.map.baidu.com/place/detail?uid=373c753642ff9f276ec02caa&output=html&source=placeapi_v2', 'price': '0.0', 'overall_rating': '5.0', 'children': []}}"
户县恒顺驾校报名大厅,108.60229780136322,34.11711526949927,ef2fde1349648775e856fabb,"{'name': '户县恒顺驾校报名大厅', 'location': {'lat': 34.121752, 'lng': 108.613153}, 'address': '陂西路陕西广天房地产建设有限公司附近', 'province': '陕西省', 'city': '西安市', 'area': '邑区', 'street_id': 'ef2fde1349648775e856fabb', 'telephone': '(029)84813161', 'detail': 1, 'uid': 'ef2fde1349648775e856fabb', 'detail_info': {'tag': '教育培训;培训机构', 'type': 'education', 'detail_url': 'http://api.map.baidu.com/place/detail?uid=ef2fde1349648775e856fabb&output=html&source=placeapi_v2', 'overall_rating': '1.0', 'comment_num': '1', 'children': []}}"
"{'name': '户县恒顺驾校报名大厅', 'location': {'lat': 34.121752, 'lng': 108.613153}, 'address': '陂西路陕西广天房地产建设有限公司附近', 'province': '陕西省', 'city': '西安市', 'area': '邑区', 'street_id': 'ef2fde1349648775e856fabb', 'telephone': '(029)84813161', 'detail': 1, 'uid': 'ef2fde1349648775e856fabb', 'detail_info': {'tag': '教育培训;培训机构', 'type': 'education', 'detail_url': 'http://api.map.baidu.com/place/detail?uid=ef2fde1349648775e856fabb&output=html&source=placeapi_v2', 'overall_rating': '1.0', 'comment_num': '1', 'children': []}}"
开拓教育辅导中心,108.59575146846916,34.11005903620954,a816d20ce64b859e2ad7ab70,"{'name': '开拓教育辅导中心', 'location': {'lat': 34.114712, 'lng': 108.606597}, 'address': '陕西省西安市邑区汇尊大酒店停车场院内2楼', 'province': '陕西省', 'city': '西安市', 'area': '邑区', 'street_id': 'a816d20ce64b859e2ad7ab70', 'telephone': '13659116849', 'detail': 1, 'uid': 'a816d20ce64b859e2ad7ab70', 'detail_info': {'tag': '教育培训;培训机构', 'type': 'education', 'detail_url': 'http://api.map.baidu.com/place/detail?uid=a816d20ce64b859e2ad7ab70&output=html&source=placeapi_v2', 'comment_num': '1', 'children': []}}"
"{'name': '开拓教育辅导中心', 'location': {'lat': 34.114712, 'lng': 108.606597}, 'address': '陕西省西安市邑区汇尊大酒店停车场院内2楼', 'province': '陕西省', 'city': '西安市', 'area': '邑区', 'street_id': 'a816d20ce64b859e2ad7ab70', 'telephone': '13659116849', 'detail': 1, 'uid': 'a816d20ce64b859e2ad7ab70', 'detail_info': {'tag': '教育培训;培训机构', 'type': 'education', 'detail_url': 'http://api.map.baidu.com/place/detail?uid=a816d20ce64b859e2ad7ab70&output=html&source=placeapi_v2', 'comment_num': '1', 'children': []}}"
华西驾校,108.64874996510322,34.1093404460314,cbe83cade1748ef8d6b74e62,"{'name': '华西驾校', 'location': {'lat': 34.113418, 'lng': 108.659879}, 'address': '大庞路附近', 'province': '陕西省', 'city': '西安市', 'area': '邑区', 'detail': 1, 'uid': 'cbe83cade1748ef8d6b74e62', 'detail_info': {'tag': '教育培训;培训机构', 'type': 'education', 'detail_url': 'http://api.map.baidu.com/place/detail?uid=cbe83cade1748ef8d6b74e62&output=html&source=placeapi_v2', 'overall_rating': '5.0', 'comment_num': '1', 'children': []}}"
"{'name': '华西驾校', 'location': {'lat': 34.113418, 'lng': 108.659879}, 'address': '大庞路附近', 'province': '陕西省', 'city': '西安市', 'area': '邑区', 'detail': 1, 'uid': 'cbe83cade1748ef8d6b74e62', 'detail_info': {'tag': '教育培训;培训机构', 'type': 'education', 'detail_url': 'http://api.map.baidu.com/place/detail?uid=cbe83cade1748ef8d6b74e62&output=html&source=placeapi_v2', 'overall_rating': '5.0', 'comment_num': '1', 'children': []}}"
腊家滩驾校(光明分校),108.60078698067264,34.12569694634652,6e557db3ee51554d128824e6,"{'name': '腊家滩驾校(光明分校)', 'location': {'lat': 34.130342, 'lng': 108.611635}, 'address': '北极路与古城西路交叉口东150米', 'province': '陕西省', 'city': '西安市', 'area': '邑区', 'street_id': '6e557db3ee51554d128824e6', 'telephone': '13572199901', 'detail': 1, 'uid': '6e557db3ee51554d128824e6', 'detail_info': {'tag': '教育培训;培训机构', 'type': 'education', 'detail_url': 'http://api.map.baidu.com/place/detail?uid=6e557db3ee51554d128824e6&output=html&source=placeapi_v2', 'overall_rating': '5.0', 'children': []}}"
"{'name': '腊家滩驾校(光明分校)', 'location': {'lat': 34.130342, 'lng': 108.611635}, 'address': '北极路与古城西路交叉口东150米', 'province': '陕西省', 'city': '西安市', 'area': '邑区', 'street_id': '6e557db3ee51554d128824e6', 'telephone': '13572199901', 'detail': 1, 'uid': '6e557db3ee51554d128824e6', 'detail_info': {'tag': '教育培训;培训机构', 'type': 'education', 'detail_url': 'http://api.map.baidu.com/place/detail?uid=6e557db3ee51554d128824e6&output=html&source=placeapi_v2', 'overall_rating': '5.0', 'children': []}}"
王老师电子琴教室,108.59951743171503,34.11029787049051,145b6fdcda85355bf50e778e,"{'name': '王老师电子琴教室', 'location': {'lat': 34.114945, 'lng': 108.610367}, 'address': '钟楼东北角', 'province': '陕西省', 'city': '西安市', 'area': '邑区', 'street_id': '145b6fdcda85355bf50e778e', 'telephone': '18992834037', 'detail': 1, 'uid': '145b6fdcda85355bf50e778e', 'detail_info': {'tag': '教育培训;培训机构', 'navi_location': {'lng': 108.6103708376, 'lat': 34.114353870857}, 'type': 'education', 'detail_url': 'http://api.map.baidu.com/place/detail?uid=145b6fdcda85355bf50e778e&output=html&source=placeapi_v2', 'overall_rating': '5.0', 'comment_num': '1', 'children': []}}"
"{'name': '王老师电子琴教室', 'location': {'lat': 34.114945, 'lng': 108.610367}, 'address': '钟楼东北角', 'province': '陕西省', 'city': '西安市', 'area': '邑区', 'street_id': '145b6fdcda85355bf50e778e', 'telephone': '18992834037', 'detail': 1, 'uid': '145b6fdcda85355bf50e778e', 'detail_info': {'tag': '教育培训;培训机构', 'navi_location': {'lng': 108.6103708376, 'lat': 34.114353870857}, 'type': 'education', 'detail_url': 'http://api.map.baidu.com/place/detail?uid=145b6fdcda85355bf50e778e&output=html&source=placeapi_v2', 'overall_rating': '5.0', 'comment_num': '1', 'children': []}}"
助你成才托管部,108.59824161819306,34.1085710399968,4d37fd8b84289d167dc876bd,"{'name': '助你成才托管部', 'location': {'lat': 34.113221, 'lng': 108.609089}, 'address': '南大街7号楼4门1楼东户', 'province': '陕西省', 'city': '西安市', 'area': '邑区', 'street_id': '4d37fd8b84289d167dc876bd', 'telephone': '15319966938', 'detail': 1, 'uid': '4d37fd8b84289d167dc876bd', 'detail_info': {'tag': '教育培训;培训机构', 'navi_location': {'lng': 108.60981112141, 'lat': 34.113235645127}, 'type': 'education', 'detail_url': 'http://api.map.baidu.com/place/detail?uid=4d37fd8b84289d167dc876bd&output=html&source=placeapi_v2', 'overall_rating': '5.0', 'children': []}}"
"{'name': '助你成才托管部', 'location': {'lat': 34.113221, 'lng': 108.609089}, 'address': '南大街7号楼4门1楼东户', 'province': '陕西省', 'city': '西安市', 'area': '邑区', 'street_id': '4d37fd8b84289d167dc876bd', 'telephone': '15319966938', 'detail': 1, 'uid': '4d37fd8b84289d167dc876bd', 'detail_info': {'tag': '教育培训;培训机构', 'navi_location': {'lng': 108.60981112141, 'lat': 34.113235645127}, 'type': 'education', 'detail_url': 'http://api.map.baidu.com/place/detail?uid=4d37fd8b84289d167dc876bd&output=html&source=placeapi_v2', 'overall_rating': '5.0', 'children': []}}"
蒲公英的初夏,108.62643332364222,34.106301386566535,f8ff54f0fa1119f81e580087,"{'name': '蒲公英的初夏', 'location': {'lat': 34.110634, 'lng': 108.637421}, 'address': '朱雀锦园南门', 'province': '陕西省', 'city': '西安市', 'area': '邑区', 'street_id': 'f8ff54f0fa1119f81e580087', 'detail': 1, 'uid': 'f8ff54f0fa1119f81e580087', 'detail_info': {'tag': '教育培训;培训机构', 'navi_location': {'lng': 108.6369706465, 'lat': 34.110278068061}, 'type': 'education', 'detail_url': 'http://api.map.baidu.com/place/detail?uid=f8ff54f0fa1119f81e580087&output=html&source=placeapi_v2', 'comment_num': '1', 'children': []}}"
"{'name': '蒲公英的初夏', 'location': {'lat': 34.110634, 'lng': 108.637421}, 'address': '朱雀锦园南门', 'province': '陕西省', 'city': '西安市', 'area': '邑区', 'street_id': 'f8ff54f0fa1119f81e580087', 'detail': 1, 'uid': 'f8ff54f0fa1119f81e580087', 'detail_info': {'tag': '教育培训;培训机构', 'navi_location': {'lng': 108.6369706465, 'lat': 34.110278068061}, 'type': 'education', 'detail_url': 'http://api.map.baidu.com/place/detail?uid=f8ff54f0fa1119f81e580087&output=html&source=placeapi_v2', 'comment_num': '1', 'children': []}}"
西安博达培训学校,108.60166850750868,34.10489833675939,d23af0f4d9b54a0ef5c59c07,"{'name': '西安博达培训学校', 'location': {'lat': 34.109535, 'lng': 108.612521}, 'address': '草堂路223号', 'province': '陕西省', 'city': '西安市', 'area': '邑区', 'telephone': '(029)84818398', 'detail': 1, 'uid': 'd23af0f4d9b54a0ef5c59c07', 'detail_info': {'tag': '教育培训;培训机构', 'navi_location': {'lng': 108.61252171876, 'lat': 34.1094239901}, 'type': 'education', 'detail_url': 'http://api.map.baidu.com/place/detail?uid=d23af0f4d9b54a0ef5c59c07&output=html&source=placeapi_v2', 'overall_rating': '5.0', 'comment_num': '0', 'children': []}}"
"{'name': '西安博达培训学校', 'location': {'lat': 34.109535, 'lng': 108.612521}, 'address': '草堂路223号', 'province': '陕西省', 'city': '西安市', 'area': '邑区', 'telephone': '(029)84818398', 'detail': 1, 'uid': 'd23af0f4d9b54a0ef5c59c07', 'detail_info': {'tag': '教育培训;培训机构', 'navi_location': {'lng': 108.61252171876, 'lat': 34.1094239901}, 'type': 'education', 'detail_url': 'http://api.map.baidu.com/place/detail?uid=d23af0f4d9b54a0ef5c59c07&output=html&source=placeapi_v2', 'overall_rating': '5.0', 'comment_num': '0', 'children': []}}"
汉通电脑培训中心,108.64113497492502,34.10110904103743,334c8a198c5aea6071455ba2,"{'name': '汉通电脑培训中心', 'location': {'lat': 34.105238, 'lng': 108.652221}, 'address': '潭滨南路西100米', 'province': '陕西省', 'city': '西安市', 'area': '邑区', 'detail': 1, 'uid': '334c8a198c5aea6071455ba2', 'detail_info': {'tag': '教育培训;培训机构', 'type': 'education', 'detail_url': 'http://api.map.baidu.com/place/detail?uid=334c8a198c5aea6071455ba2&output=html&source=placeapi_v2', 'children': []}}"
"{'name': '汉通电脑培训中心', 'location': {'lat': 34.105238, 'lng': 108.652221}, 'address': '潭滨南路西100米', 'province': '陕西省', 'city': '西安市', 'area': '邑区', 'detail': 1, 'uid': '334c8a198c5aea6071455ba2', 'detail_info': {'tag': '教育培训;培训机构', 'type': 'education', 'detail_url': 'http://api.map.baidu.com/place/detail?uid=334c8a198c5aea6071455ba2&output=html&source=placeapi_v2', 'children': []}}"
北京金口才国际教育,108.61664575068478,34.10568689681168,28ef5f3314c5fc7917b54b76,"{'name': '北京金口才国际教育', 'location': {'lat': 34.110171, 'lng': 108.627566}, 'address': '东新路与小丰村西二巷交叉口西100米', 'province': '陕西省', 'city': '西安市', 'area': '邑区', 'street_id': '28ef5f3314c5fc7917b54b76', 'detail': 1, 'uid': '28ef5f3314c5fc7917b54b76', 'detail_info': {'tag': '教育培训;培训机构', 'type': 'education', 'detail_url': 'http://api.map.baidu.com/place/detail?uid=28ef5f3314c5fc7917b54b76&output=html&source=placeapi_v2', 'overall_rating': '5.0', 'children': []}}"
"{'name': '北京金口才国际教育', 'location': {'lat': 34.110171, 'lng': 108.627566}, 'address': '东新路与小丰村西二巷交叉口西100米', 'province': '陕西省', 'city': '西安市', 'area': '邑区', 'street_id': '28ef5f3314c5fc7917b54b76', 'detail': 1, 'uid': '28ef5f3314c5fc7917b54b76', 'detail_info': {'tag': '教育培训;培训机构', 'type': 'education', 'detail_url': 'http://api.map.baidu.com/place/detail?uid=28ef5f3314c5fc7917b54b76&output=html&source=placeapi_v2', 'overall_rating': '5.0', 'children': []}}"
启迪小学个性化辅导中心,108.5990295630534,34.10516908944457,1c7f6498d2518ecbcf06a413,"{'name': '启迪小学个性化辅导中心', 'location': {'lat': 34.109816, 'lng': 108.609877}, 'address': '陕西省西安市邑区甘亭镇中心学校西南50米(南街西)', 'province': '陕西省', 'city': '西安市', 'area': '邑区', 'street_id': '72adff61917d5f4da2d230a7', 'detail': 1, 'uid': '1c7f6498d2518ecbcf06a413', 'detail_info': {'tag': '教育培训;培训机构', 'type': 'education', 'detail_url': 'http://api.map.baidu.com/place/detail?uid=1c7f6498d2518ecbcf06a413&output=html&source=placeapi_v2', 'comment_num': '2', 'children': []}}"
"{'name': '启迪小学个性化辅导中心', 'location': {'lat': 34.109816, 'lng': 108.609877}, 'address': '陕西省西安市邑区甘亭镇中心学校西南50米(南街西)', 'province': '陕西省', 'city': '西安市', 'area': '邑区', 'street_id': '72adff61917d5f4da2d230a7', 'detail': 1, 'uid': '1c7f6498d2518ecbcf06a413', 'detail_info': {'tag': '教育培训;培训机构', 'type': 'education', 'detail_url': 'http://api.map.baidu.com/place/detail?uid=1c7f6498d2518ecbcf06a413&output=html&source=placeapi_v2', 'comment_num': '2', 'children': []}}"
欣源托管,108.60520565740164,34.11545274460201,43d8613a156d9a05a6da39da,"{'name': '欣源托管', 'location': {'lat': 34.12007, 'lng': 108.61607}, 'address': '娄敬路63号', 'province': '陕西省', 'city': '西安市', 'area': '邑区', 'street_id': '43d8613a156d9a05a6da39da', 'telephone': '15091185092', 'detail': 1, 'uid': '43d8613a156d9a05a6da39da', 'detail_info': {'tag': '教育培训;培训机构', 'navi_location': {'lng': 108.61607113942, 'lat': 34.1200441062}, 'type': 'education', 'detail_url': 'http://api.map.baidu.com/place/detail?uid=43d8613a156d9a05a6da39da&output=html&source=placeapi_v2', 'overall_rating': '5.0', 'children': []}}"
"{'name': '欣源托管', 'location': {'lat': 34.12007, 'lng': 108.61607}, 'address': '娄敬路63号', 'province': '陕西省', 'city': '西安市', 'area': '邑区', 'street_id': '43d8613a156d9a05a6da39da', 'telephone': '15091185092', 'detail': 1, 'uid': '43d8613a156d9a05a6da39da', 'detail_info': {'tag': '教育培训;培训机构', 'navi_location': {'lng': 108.61607113942, 'lat': 34.1200441062}, 'type': 'education', 'detail_url': 'http://api.map.baidu.com/place/detail?uid=43d8613a156d9a05a6da39da&output=html&source=placeapi_v2', 'overall_rating': '5.0', 'children': []}}"
腊家滩驾校(机场分校),108.57947761168363,34.14536729707245,c29b42dee57e1b2981a12e0d,"{'name': '腊家滩驾校(机场分校)', 'location': {'lat': 34.149917, 'lng': 108.590338}, 'address': '邑区216县道', 'province': '陕西省', 'city': '西安市', 'area': '邑区', 'telephone': '13759929900', 'detail': 1, 'uid': 'c29b42dee57e1b2981a12e0d', 'detail_info': {'tag': '教育培训;培训机构', 'type': 'education', 'detail_url': 'http://api.map.baidu.com/place/detail?uid=c29b42dee57e1b2981a12e0d&output=html&source=placeapi_v2', 'overall_rating': '5.0', 'comment_num': '0', 'children': []}}"
"{'name': '腊家滩驾校(机场分校)', 'location': {'lat': 34.149917, 'lng': 108.590338}, 'address': '邑区216县道', 'province': '陕西省', 'city': '西安市', 'area': '邑区', 'telephone': '13759929900', 'detail': 1, 'uid': 'c29b42dee57e1b2981a12e0d', 'detail_info': {'tag': '教育培训;培训机构', 'type': 'education', 'detail_url': 'http://api.map.baidu.com/place/detail?uid=c29b42dee57e1b2981a12e0d&output=html&source=placeapi_v2', 'overall_rating': '5.0', 'comment_num': '0', 'children': []}}"
全心全能教育托管部,108.59880983734469,34.108608348543484,5e1edad79890fc254f6d46a0,"{'name': '全心全能教育托管部', 'location': {'lat': 34.113257, 'lng': 108.609658}, 'address': '邑区南街八号楼院内', 'province': '陕西省', 'city': '西安市', 'area': '邑区', 'street_id': '5e1edad79890fc254f6d46a0', 'telephone': '13709208904', 'detail': 1, 'uid': '5e1edad79890fc254f6d46a0', 'detail_info': {'tag': '教育培训;培训机构', 'type': 'education', 'detail_url': 'http://api.map.baidu.com/place/detail?uid=5e1edad79890fc254f6d46a0&output=html&source=placeapi_v2', 'children': []}}"
"{'name': '全心全能教育托管部', 'location': {'lat': 34.113257, 'lng': 108.609658}, 'address': '邑区南街八号楼院内', 'province': '陕西省', 'city': '西安市', 'area': '邑区', 'street_id': '5e1edad79890fc254f6d46a0', 'telephone': '13709208904', 'detail': 1, 'uid': '5e1edad79890fc254f6d46a0', 'detail_info': {'tag': '教育培训;培训机构', 'type': 'education', 'detail_url': 'http://api.map.baidu.com/place/detail?uid=5e1edad79890fc254f6d46a0&output=html&source=placeapi_v2', 'children': []}}"
腊家滩驾校训练场,108.62040521009638,34.11736107694361,45afff6807546316138824a3,"{'name': '腊家滩驾校训练场', 'location': {'lat': 34.121792, 'lng': 108.631351}, 'address': '邑区北街小学对面', 'province': '陕西省', 'city': '西安市', 'area': '邑区', 'street_id': '45afff6807546316138824a3', 'telephone': '15009263465', 'detail': 1, 'uid': '45afff6807546316138824a3', 'detail_info': {'tag': '教育培训;培训机构', 'navi_location': {'lng': 108.6313501214, 'lat': 34.121435471958}, 'type': 'education', 'detail_url': 'http://api.map.baidu.com/place/detail?uid=45afff6807546316138824a3&output=html&source=placeapi_v2', 'overall_rating': '5.0', 'children': []}}"
"{'name': '腊家滩驾校训练场', 'location': {'lat': 34.121792, 'lng': 108.631351}, 'address': '邑区北街小学对面', 'province': '陕西省', 'city': '西安市', 'area': '邑区', 'street_id': '45afff6807546316138824a3', 'telephone': '15009263465', 'detail': 1, 'uid': '45afff6807546316138824a3', 'detail_info': {'tag': '教育培训;培训机构', 'navi_location': {'lng': 108.6313501214, 'lat': 34.121435471958}, 'type': 'education', 'detail_url': 'http://api.map.baidu.com/place/detail?uid=45afff6807546316138824a3&output=html&source=placeapi_v2', 'overall_rating': '5.0', 'children': []}}"
腊家滩驾校招生点,108.61129908922392,34.11113873733492,5cecfbec97f68ecf89b98802,"{'name': '腊家滩驾校招生点', 'location': {'lat': 34.115695, 'lng': 108.62219}, 'address': '箭门东路与车站南路交叉口东100米', 'province': '陕西省', 'city': '西安市', 'area': '邑区', 'street_id': '5cecfbec97f68ecf89b98802', 'detail': 1, 'uid': '5cecfbec97f68ecf89b98802', 'detail_info': {'tag': '教育培训;培训机构', 'navi_location': {'lng': 108.62200816899, 'lat': 34.115831102709}, 'type': 'education', 'detail_url': 'http://api.map.baidu.com/place/detail?uid=5cecfbec97f68ecf89b98802&output=html&source=placeapi_v2', 'comment_num': '1', 'children': []}}"
"{'name': '腊家滩驾校招生点', 'location': {'lat': 34.115695, 'lng': 108.62219}, 'address': '箭门东路与车站南路交叉口东100米', 'province': '陕西省', 'city': '西安市', 'area': '邑区', 'street_id': '5cecfbec97f68ecf89b98802', 'detail': 1, 'uid': '5cecfbec97f68ecf89b98802', 'detail_info': {'tag': '教育培训;培训机构', 'navi_location': {'lng': 108.62200816899, 'lat': 34.115831102709}, 'type': 'education', 'detail_url': 'http://api.map.baidu.com/place/detail?uid=5cecfbec97f68ecf89b98802&output=html&source=placeapi_v2', 'comment_num': '1', 'children': []}}"
华大培训学校,108.60475835643021,34.11649216749819,9533bd097f8889de22f017de,"{'name': '华大培训学校', 'location': {'lat': 34.121113, 'lng': 108.615621}, 'address': '长虹广场东南角', 'province': '陕西省', 'city': '西安市', 'area': '邑区', 'street_id': '9533bd097f8889de22f017de', 'telephone': '(029)84880654', 'detail': 1, 'uid': '9533bd097f8889de22f017de', 'detail_info': {'tag': '教育培训;培训机构', 'navi_location': {'lng': 108.61567923568, 'lat': 34.120994104072}, 'type': 'education', 'detail_url': 'http://api.map.baidu.com/place/detail?uid=9533bd097f8889de22f017de&output=html&source=placeapi_v2', 'children': []}}"
"{'name': '华大培训学校', 'location': {'lat': 34.121113, 'lng': 108.615621}, 'address': '长虹广场东南角', 'province': '陕西省', 'city': '西安市', 'area': '邑区', 'street_id': '9533bd097f8889de22f017de', 'telephone': '(029)84880654', 'detail': 1, 'uid': '9533bd097f8889de22f017de', 'detail_info': {'tag': '教育培训;培训机构', 'navi_location': {'lng': 108.61567923568, 'lat': 34.120994104072}, 'type': 'education', 'detail_url': 'http://api.map.baidu.com/place/detail?uid=9533bd097f8889de22f017de&output=html&source=placeapi_v2', 'children': []}}"
大名教育(吕公东路),108.62072108762406,34.09833605527236,b745bb0495d7a4922811d139,"{'name': '大名教育(吕公东路)', 'location': {'lat': 34.102756, 'lng': 108.631664}, 'address': '银都华府3楼', 'province': '陕西省', 'city': '西安市', 'area': '邑区', 'street_id': 'b745bb0495d7a4922811d139', 'telephone': '(029)84868686', 'detail': 1, 'uid': 'b745bb0495d7a4922811d139', 'detail_info': {'tag': '教育培训;培训机构', 'type': 'education', 'detail_url': 'http://api.map.baidu.com/place/detail?uid=b745bb0495d7a4922811d139&output=html&source=placeapi_v2', 'children': []}}"
"{'name': '大名教育(吕公东路)', 'location': {'lat': 34.102756, 'lng': 108.631664}, 'address': '银都华府3楼', 'province': '陕西省', 'city': '西安市', 'area': '邑区', 'street_id': 'b745bb0495d7a4922811d139', 'telephone': '(029)84868686', 'detail': 1, 'uid': 'b745bb0495d7a4922811d139', 'detail_info': {'tag': '教育培训;培训机构', 'type': 'education', 'detail_url': 'http://api.map.baidu.com/place/detail?uid=b745bb0495d7a4922811d139&output=html&source=placeapi_v2', 'children': []}}"
腊家滩驾校(展宏路分校),108.60740156305852,34.116991140595516,bc7e9c235490d367715e804e,"{'name': '腊家滩驾校(展宏路分校)', 'location': {'lat': 34.12159, 'lng': 108.618274}, 'address': '陕西省西安市邑区展宏路132附近', 'province': '陕西省', 'city': '西安市', 'area': '邑区', 'street_id': 'bc7e9c235490d367715e804e', 'telephone': '13519118619', 'detail': 1, 'uid': 'bc7e9c235490d367715e804e', 'detail_info': {'tag': '教育培训;培训机构', 'type': 'education', 'detail_url': 'http://api.map.baidu.com/place/detail?uid=bc7e9c235490d367715e804e&output=html&source=placeapi_v2', 'overall_rating': '5.0', 'comment_num': '1', 'children': []}}"
"{'name': '腊家滩驾校(展宏路分校)', 'location': {'lat': 34.12159, 'lng': 108.618274}, 'address': '陕西省西安市邑区展宏路132附近', 'province': '陕西省', 'city': '西安市', 'area': '邑区', 'street_id': 'bc7e9c235490d367715e804e', 'telephone': '13519118619', 'detail': 1, 'uid': 'bc7e9c235490d367715e804e', 'detail_info': {'tag': '教育培训;培训机构', 'type': 'education', 'detail_url': 'http://api.map.baidu.com/place/detail?uid=bc7e9c235490d367715e804e&output=html&source=placeapi_v2', 'overall_rating': '5.0', 'comment_num': '1', 'children': []}}"
西安方馨培训学校,108.60080113526097,34.10939387217659,be1ea5efa33848bf15948ea9,"{'name': '西安方馨培训学校', 'location': {'lat': 34.114036, 'lng': 108.611653}, 'address': '县政府对面金帝大厦3层', 'province': '陕西省', 'city': '西安市', 'area': '邑区', 'street_id': 'be1ea5efa33848bf15948ea9', 'telephone': '(029)87796553', 'detail': 1, 'uid': 'be1ea5efa33848bf15948ea9', 'detail_info': {'tag': '教育培训;培训机构', 'type': 'education', 'detail_url': 'http://api.map.baidu.com/place/detail?uid=be1ea5efa33848bf15948ea9&output=html&source=placeapi_v2', 'overall_rating': '5.0', 'comment_num': '1', 'children': []}}"
"{'name': '西安方馨培训学校', 'location': {'lat': 34.114036, 'lng': 108.611653}, 'address': '县政府对面金帝大厦3层', 'province': '陕西省', 'city': '西安市', 'area': '邑区', 'street_id': 'be1ea5efa33848bf15948ea9', 'telephone': '(029)87796553', 'detail': 1, 'uid': 'be1ea5efa33848bf15948ea9', 'detail_info': {'tag': '教育培训;培训机构', 'type': 'education', 'detail_url': 'http://api.map.baidu.com/place/detail?uid=be1ea5efa33848bf15948ea9&output=html&source=placeapi_v2', 'overall_rating': '5.0', 'comment_num': '1', 'children': []}}"
驾校北转盘分校-培训中心,108.6081410361428,34.125628133004696,f1458fe487f9931c25e0a0ea,"{'name': '驾校北转盘分校-培训中心', 'location': {'lat': 34.130221, 'lng': 108.619013}, 'address': '古城东路与展宏路交叉口西150米', 'province': '陕西省', 'city': '西安市', 'area': '邑区', 'street_id': 'f1458fe487f9931c25e0a0ea', 'telephone': '(029)84829289', 'detail': 1, 'uid': 'f1458fe487f9931c25e0a0ea', 'detail_info': {'tag': '教育培训;培训机构', 'type': 'education', 'detail_url': 'http://api.map.baidu.com/place/detail?uid=f1458fe487f9931c25e0a0ea&output=html&source=placeapi_v2', 'overall_rating': '5.0', 'children': []}}"
"{'name': '驾校北转盘分校-培训中心', 'location': {'lat': 34.130221, 'lng': 108.619013}, 'address': '古城东路与展宏路交叉口西150米', 'province': '陕西省', 'city': '西安市', 'area': '邑区', 'street_id': 'f1458fe487f9931c25e0a0ea', 'telephone': '(029)84829289', 'detail': 1, 'uid': 'f1458fe487f9931c25e0a0ea', 'detail_info': {'tag': '教育培训;培训机构', 'type': 'education', 'detail_url': 'http://api.map.baidu.com/place/detail?uid=f1458fe487f9931c25e0a0ea&output=html&source=placeapi_v2', 'overall_rating': '5.0', 'children': []}}"
静思教育,108.6051825613908,34.11320006706631,b2fa43bdc762e2e65fbe864c,"{'name': '静思教育', 'location': {'lat': 34.117817, 'lng': 108.616047}, 'address': '陕西省西安市邑区画展街24号东60米', 'province': '陕西省', 'city': '西安市', 'area': '邑区', 'street_id': 'b2fa43bdc762e2e65fbe864c', 'detail': 1, 'uid': 'b2fa43bdc762e2e65fbe864c', 'detail_info': {'tag': '教育培训;培训机构', 'type': 'education', 'detail_url': 'http://api.map.baidu.com/place/detail?uid=b2fa43bdc762e2e65fbe864c&output=html&source=placeapi_v2', 'children': []}}"
"{'name': '静思教育', 'location': {'lat': 34.117817, 'lng': 108.616047}, 'address': '陕西省西安市邑区画展街24号东60米', 'province': '陕西省', 'city': '西安市', 'area': '邑区', 'street_id': 'b2fa43bdc762e2e65fbe864c', 'detail': 1, 'uid': 'b2fa43bdc762e2e65fbe864c', 'detail_info': {'tag': '教育培训;培训机构', 'type': 'education', 'detail_url': 'http://api.map.baidu.com/place/detail?uid=b2fa43bdc762e2e65fbe864c&output=html&source=placeapi_v2', 'children': []}}"
星火教育,108.57751637678598,34.10917564682127,e51d4e98453baaa31d1d1103,"{'name': '星火教育', 'location': {'lat': 34.113698, 'lng': 108.588406}, 'address': '重阳路和305村道的交叉口附近', 'province': '陕西省', 'city': '西安市', 'area': '邑区', 'detail': 1, 'uid': 'e51d4e98453baaa31d1d1103', 'detail_info': {'tag': '教育培训;培训机构', 'type': 'education', 'detail_url': 'http://api.map.baidu.com/place/detail?uid=e51d4e98453baaa31d1d1103&output=html&source=placeapi_v2', 'children': []}}"
"{'name': '星火教育', 'location': {'lat': 34.113698, 'lng': 108.588406}, 'address': '重阳路和305村道的交叉口附近', 'province': '陕西省', 'city': '西安市', 'area': '邑区', 'detail': 1, 'uid': 'e51d4e98453baaa31d1d1103', 'detail_info': {'tag': '教育培训;培训机构', 'type': 'education', 'detail_url': 'http://api.map.baidu.com/place/detail?uid=e51d4e98453baaa31d1d1103&output=html&source=placeapi_v2', 'children': []}}"
新希望英语托培中心,108.59890692201525,34.102593740829995,233d764688bd97d0cac3db82,"{'name': '新希望英语托培中心', 'location': {'lat': 34.10724, 'lng': 108.609753}, 'address': '南街与钓台路交叉口西北50米', 'province': '陕西省', 'city': '西安市', 'area': '邑区', 'street_id': '233d764688bd97d0cac3db82', 'detail': 1, 'uid': '233d764688bd97d0cac3db82', 'detail_info': {'tag': '教育培训;培训机构', 'type': 'education', 'detail_url': 'http://api.map.baidu.com/place/detail?uid=233d764688bd97d0cac3db82&output=html&source=placeapi_v2', 'children': []}}"
"{'name': '新希望英语托培中心', 'location': {'lat': 34.10724, 'lng': 108.609753}, 'address': '南街与钓台路交叉口西北50米', 'province': '陕西省', 'city': '西安市', 'area': '邑区', 'street_id': '233d764688bd97d0cac3db82', 'detail': 1, 'uid': '233d764688bd97d0cac3db82', 'detail_info': {'tag': '教育培训;培训机构', 'type': 'education', 'detail_url': 'http://api.map.baidu.com/place/detail?uid=233d764688bd97d0cac3db82&output=html&source=placeapi_v2', 'children': []}}"
户县尖端教育致远教育培训基地,108.60352724868685,34.10561663601275,e4bf56e157db324eeb56fa77,"{'name': '户县尖端教育致远教育培训基地', 'location': {'lat': 34.110243, 'lng': 108.614385}, 'address': '东关卫生室2-3层', 'province': '陕西省', 'city': '西安市', 'area': '邑区', 'street_id': 'e4bf56e157db324eeb56fa77', 'telephone': '(029)68890388', 'detail': 1, 'uid': 'e4bf56e157db324eeb56fa77', 'detail_info': {'tag': '教育培训;培训机构', 'type': 'education', 'detail_url': 'http://api.map.baidu.com/place/detail?uid=e4bf56e157db324eeb56fa77&output=html&source=placeapi_v2', 'overall_rating': '5.0', 'children': []}}"
"{'name': '户县尖端教育致远教育培训基地', 'location': {'lat': 34.110243, 'lng': 108.614385}, 'address': '东关卫生室2-3层', 'province': '陕西省', 'city': '西安市', 'area': '邑区', 'street_id': 'e4bf56e157db324eeb56fa77', 'telephone': '(029)68890388', 'detail': 1, 'uid': 'e4bf56e157db324eeb56fa77', 'detail_info': {'tag': '教育培训;培训机构', 'type': 'education', 'detail_url': 'http://api.map.baidu.com/place/detail?uid=e4bf56e157db324eeb56fa77&output=html&source=placeapi_v2', 'overall_rating': '5.0', 'children': []}}"
户县外派劳务地服务培训中心,108.61624189425704,34.11387572933944,a97f4c23aa82d02582288ac1,"{'name': '户县外派劳务地服务培训中心', 'location': {'lat': 34.118368, 'lng': 108.627161}, 'address': '陕西省西安市邑区车站东路', 'province': '陕西省', 'city': '西安市', 'area': '邑区', 'street_id': 'a97f4c23aa82d02582288ac1', 'detail': 1, 'uid': 'a97f4c23aa82d02582288ac1', 'detail_info': {'tag': '教育培训;培训机构', 'type': 'education', 'detail_url': 'http://api.map.baidu.com/place/detail?uid=a97f4c23aa82d02582288ac1&output=html&source=placeapi_v2', 'overall_rating': '5.0', 'children': []}}"
"{'name': '户县外派劳务地服务培训中心', 'location': {'lat': 34.118368, 'lng': 108.627161}, 'address': '陕西省西安市邑区车站东路', 'province': '陕西省', 'city': '西安市', 'area': '邑区', 'street_id': 'a97f4c23aa82d02582288ac1', 'detail': 1, 'uid': 'a97f4c23aa82d02582288ac1', 'detail_info': {'tag': '教育培训;培训机构', 'type': 'education', 'detail_url': 'http://api.map.baidu.com/place/detail?uid=a97f4c23aa82d02582288ac1&output=html&source=placeapi_v2', 'overall_rating': '5.0', 'children': []}}"
户县腊家滩驾校大王七号路分校,108.65331701014762,34.20207573438405,15d8802246f8dbdc60180946,"{'name': '户县腊家滩驾校大王七号路分校', 'location': {'lat': 34.206166, 'lng': 108.664452}, 'address': '邑区G108百惠连锁超市西北方向10米', 'province': '陕西省', 'city': '西安市', 'area': '邑区', 'telephone': '13289351755', 'detail': 1, 'uid': '15d8802246f8dbdc60180946', 'detail_info': {'tag': '教育培训;培训机构', 'type': 'education', 'detail_url': 'http://api.map.baidu.com/place/detail?uid=15d8802246f8dbdc60180946&output=html&source=placeapi_v2', 'price': '0.0', 'overall_rating': '5.0', 'comment_num': '1', 'children': []}}"
"{'name': '户县腊家滩驾校大王七号路分校', 'location': {'lat': 34.206166, 'lng': 108.664452}, 'address': '邑区G108百惠连锁超市西北方向10米', 'province': '陕西省', 'city': '西安市', 'area': '邑区', 'telephone': '13289351755', 'detail': 1, 'uid': '15d8802246f8dbdc60180946', 'detail_info': {'tag': '教育培训;培训机构', 'type': 'education', 'detail_url': 'http://api.map.baidu.com/place/detail?uid=15d8802246f8dbdc60180946&output=html&source=placeapi_v2', 'price': '0.0', 'overall_rating': '5.0', 'comment_num': '1', 'children': []}}"
华西驾校报名处,108.64030903034076,34.20272100958497,3d723872231987552102204f,"{'name': '华西驾校报名处', 'location': {'lat': 34.206884, 'lng': 108.651383}, 'address': '中兴路与大张路交叉口东北50米', 'province': '陕西省', 'city': '西安市', 'area': '邑区', 'telephone': '15229098918', 'detail': 1, 'uid': '3d723872231987552102204f', 'detail_info': {'tag': '教育培训;培训机构', 'type': 'education', 'detail_url': 'http://api.map.baidu.com/place/detail?uid=3d723872231987552102204f&output=html&source=placeapi_v2', 'comment_num': '1', 'children': []}}"
"{'name': '华西驾校报名处', 'location': {'lat': 34.206884, 'lng': 108.651383}, 'address': '中兴路与大张路交叉口东北50米', 'province': '陕西省', 'city': '西安市', 'area': '邑区', 'telephone': '15229098918', 'detail': 1, 'uid': '3d723872231987552102204f', 'detail_info': {'tag': '教育培训;培训机构', 'type': 'education', 'detail_url': 'http://api.map.baidu.com/place/detail?uid=3d723872231987552102204f&output=html&source=placeapi_v2', 'comment_num': '1', 'children': []}}"
西安海贝英语培训学校,108.64202505095876,34.20523756688854,9462c55ce12aaa861e1d1112,"{'name': '西安海贝英语培训学校', 'location': {'lat': 34.209385, 'lng': 108.653112}, 'address': '陕西省西安市邑区大王初级中学(邑区大王镇政府东南)', 'province': '陕西省', 'city': '西安市', 'area': '邑区', 'telephone': '13379250064', 'detail': 1, 'uid': '9462c55ce12aaa861e1d1112', 'detail_info': {'tag': '教育培训;培训机构', 'navi_location': {'lng': 108.6532913835, 'lat': 34.209411033035}, 'type': 'education', 'detail_url': 'http://api.map.baidu.com/place/detail?uid=9462c55ce12aaa861e1d1112&output=html&source=placeapi_v2', 'overall_rating': '5.0', 'comment_num': '1', 'children': []}}"
"{'name': '西安海贝英语培训学校', 'location': {'lat': 34.209385, 'lng': 108.653112}, 'address': '陕西省西安市邑区大王初级中学(邑区大王镇政府东南)', 'province': '陕西省', 'city': '西安市', 'area': '邑区', 'telephone': '13379250064', 'detail': 1, 'uid': '9462c55ce12aaa861e1d1112', 'detail_info': {'tag': '教育培训;培训机构', 'navi_location': {'lng': 108.6532913835, 'lat': 34.209411033035}, 'type': 'education', 'detail_url': 'http://api.map.baidu.com/place/detail?uid=9462c55ce12aaa861e1d1112&output=html&source=placeapi_v2', 'overall_rating': '5.0', 'comment_num': '1', 'children': []}}"
佳文艺术学校,108.64707312599305,34.203548480680254,6d182fa7a1d3efbdb6f42fad,"{'name': '佳文艺术学校', 'location': {'lat': 34.207657, 'lng': 108.658185}, 'address': '大王镇咸余路东段', 'province': '陕西省', 'city': '西安市', 'area': '邑区', 'telephone': '18220818133', 'detail': 1, 'uid': '6d182fa7a1d3efbdb6f42fad', 'detail_info': {'tag': '教育培训;培训机构', 'navi_location': {'lng': 108.65819460716, 'lat': 34.207477661372}, 'type': 'education', 'detail_url': 'http://api.map.baidu.com/place/detail?uid=6d182fa7a1d3efbdb6f42fad&output=html&source=placeapi_v2', 'comment_num': '1', 'children': []}}"
"{'name': '佳文艺术学校', 'location': {'lat': 34.207657, 'lng': 108.658185}, 'address': '大王镇咸余路东段', 'province': '陕西省', 'city': '西安市', 'area': '邑区', 'telephone': '18220818133', 'detail': 1, 'uid': '6d182fa7a1d3efbdb6f42fad', 'detail_info': {'tag': '教育培训;培训机构', 'navi_location': {'lng': 108.65819460716, 'lat': 34.207477661372}, 'type': 'education', 'detail_url': 'http://api.map.baidu.com/place/detail?uid=6d182fa7a1d3efbdb6f42fad&output=html&source=placeapi_v2', 'comment_num': '1', 'children': []}}"
华西驾校,108.55163073442695,34.174999985035384,9932c652dec95b65fb2d61ce,"{'name': '华西驾校', 'location': {'lat': 34.179156, 'lng': 108.562649}, 'address': '西安市邑区', 'province': '陕西省', 'city': '西安市', 'area': '邑区', 'telephone': '13484819757', 'detail': 1, 'uid': '9932c652dec95b65fb2d61ce', 'detail_info': {'tag': '教育培训;培训机构', 'type': 'education', 'detail_url': 'http://api.map.baidu.com/place/detail?uid=9932c652dec95b65fb2d61ce&output=html&source=placeapi_v2', 'overall_rating': '4.0', 'comment_num': '0', 'children': []}}"
"{'name': '华西驾校', 'location': {'lat': 34.179156, 'lng': 108.562649}, 'address': '西安市邑区', 'province': '陕西省', 'city': '西安市', 'area': '邑区', 'telephone': '13484819757', 'detail': 1, 'uid': '9932c652dec95b65fb2d61ce', 'detail_info': {'tag': '教育培训;培训机构', 'type': 'education', 'detail_url': 'http://api.map.baidu.com/place/detail?uid=9932c652dec95b65fb2d61ce&output=html&source=placeapi_v2', 'overall_rating': '4.0', 'comment_num': '0', 'children': []}}"
新希望艺术培训学校,108.64459820285472,34.20294280716219,73896a261ad34f8a095cb3f8,"{'name': '新希望艺术培训学校', 'location': {'lat': 34.207067, 'lng': 108.655697}, 'address': '大王镇东升商场三楼', 'province': '陕西省', 'city': '西安市', 'area': '邑区', 'telephone': '15339125192', 'detail': 1, 'uid': '73896a261ad34f8a095cb3f8', 'detail_info': {'tag': '教育培训;培训机构', 'type': 'education', 'detail_url': 'http://api.map.baidu.com/place/detail?uid=73896a261ad34f8a095cb3f8&output=html&source=placeapi_v2', 'children': []}}"
"{'name': '新希望艺术培训学校', 'location': {'lat': 34.207067, 'lng': 108.655697}, 'address': '大王镇东升商场三楼', 'province': '陕西省', 'city': '西安市', 'area': '邑区', 'telephone': '15339125192', 'detail': 1, 'uid': '73896a261ad34f8a095cb3f8', 'detail_info': {'tag': '教育培训;培训机构', 'type': 'education', 'detail_url': 'http://api.map.baidu.com/place/detail?uid=73896a261ad34f8a095cb3f8&output=html&source=placeapi_v2', 'children': []}}"
华西驾校大王培训基地,108.63574330696613,34.196541266426735,eed7a66dd6bff9274d776e61,"{'name': '华西驾校大王培训基地', 'location': {'lat': 34.200755, 'lng': 108.646781}, 'address': '陕西省西安市邑区西环路', 'province': '陕西省', 'city': '西安市', 'area': '邑区', 'telephone': '15229099129', 'detail': 1, 'uid': 'eed7a66dd6bff9274d776e61', 'detail_info': {'tag': '教育培训;培训机构', 'navi_location': {'lng': 108.64751473919, 'lat': 34.200787479441}, 'type': 'education', 'detail_url': 'http://api.map.baidu.com/place/detail?uid=eed7a66dd6bff9274d776e61&output=html&source=placeapi_v2', 'overall_rating': '5.0', 'comment_num': '1', 'children': []}}"
"{'name': '华西驾校大王培训基地', 'location': {'lat': 34.200755, 'lng': 108.646781}, 'address': '陕西省西安市邑区西环路', 'province': '陕西省', 'city': '西安市', 'area': '邑区', 'telephone': '15229099129', 'detail': 1, 'uid': 'eed7a66dd6bff9274d776e61', 'detail_info': {'tag': '教育培训;培训机构', 'navi_location': {'lng': 108.64751473919, 'lat': 34.200787479441}, 'type': 'education', 'detail_url': 'http://api.map.baidu.com/place/detail?uid=eed7a66dd6bff9274d776e61&output=html&source=placeapi_v2', 'overall_rating': '5.0', 'comment_num': '1', 'children': []}}"
腊家滩驾校,108.54716912049221,34.172550715102446,ecfd63cee94d427638e4a64a,"{'name': '腊家滩驾校', 'location': {'lat': 34.176664, 'lng': 108.558212}, 'address': '108国道附近', 'province': '陕西省', 'city': '西安市', 'area': '邑区', 'detail': 1, 'uid': 'ecfd63cee94d427638e4a64a', 'detail_info': {'tag': '教育培训;培训机构', 'type': 'education', 'detail_url': 'http://api.map.baidu.com/place/detail?uid=ecfd63cee94d427638e4a64a&output=html&source=placeapi_v2', 'overall_rating': '5.0', 'comment_num': '0', 'children': []}}"
"{'name': '腊家滩驾校', 'location': {'lat': 34.176664, 'lng': 108.558212}, 'address': '108国道附近', 'province': '陕西省', 'city': '西安市', 'area': '邑区', 'detail': 1, 'uid': 'ecfd63cee94d427638e4a64a', 'detail_info': {'tag': '教育培训;培训机构', 'type': 'education', 'detail_url': 'http://api.map.baidu.com/place/detail?uid=ecfd63cee94d427638e4a64a&output=html&source=placeapi_v2', 'overall_rating': '5.0', 'comment_num': '0', 'children': []}}"
华西驾校(涝店分校),108.55844429261306,34.17676862492657,0b986921b41742c7931fc9d1,"{'name': '华西驾校(涝店分校)', 'location': {'lat': 34.181012, 'lng': 108.56942}, 'address': '陕西省西安市邑区108国道北50米', 'province': '陕西省', 'city': '西安市', 'area': '邑区', 'detail': 1, 'uid': '0b986921b41742c7931fc9d1', 'detail_info': {'tag': '教育培训;培训机构', 'type': 'education', 'detail_url': 'http://api.map.baidu.com/place/detail?uid=0b986921b41742c7931fc9d1&output=html&source=placeapi_v2', 'overall_rating': '5.0', 'comment_num': '0', 'children': []}}"
"{'name': '华西驾校(涝店分校)', 'location': {'lat': 34.181012, 'lng': 108.56942}, 'address': '陕西省西安市邑区108国道北50米', 'province': '陕西省', 'city': '西安市', 'area': '邑区', 'detail': 1, 'uid': '0b986921b41742c7931fc9d1', 'detail_info': {'tag': '教育培训;培训机构', 'type': 'education', 'detail_url': 'http://api.map.baidu.com/place/detail?uid=0b986921b41742c7931fc9d1&output=html&source=placeapi_v2', 'overall_rating': '5.0', 'comment_num': '0', 'children': []}}"
恒信会计工作室,108.64212424674746,34.20451695759147,2f97ffb059731b428d7727ef,"{'name': '恒信会计工作室', 'location': {'lat': 34.208663, 'lng': 108.653211}, 'address': '陕西省西安市邑区大王街心幼儿园(邑区大王镇政府东南)', 'province': '陕西省', 'city': '西安市', 'area': '邑区', 'telephone': '13991341158', 'detail': 1, 'uid': '2f97ffb059731b428d7727ef', 'detail_info': {'tag': '教育培训;培训机构', 'type': 'education', 'detail_url': 'http://api.map.baidu.com/place/detail?uid=2f97ffb059731b428d7727ef&output=html&source=placeapi_v2', 'comment_num': '1', 'children': []}}"
"{'name': '恒信会计工作室', 'location': {'lat': 34.208663, 'lng': 108.653211}, 'address': '陕西省西安市邑区大王街心幼儿园(邑区大王镇政府东南)', 'province': '陕西省', 'city': '西安市', 'area': '邑区', 'telephone': '13991341158', 'detail': 1, 'uid': '2f97ffb059731b428d7727ef', 'detail_info': {'tag': '教育培训;培训机构', 'type': 'education', 'detail_url': 'http://api.map.baidu.com/place/detail?uid=2f97ffb059731b428d7727ef&output=html&source=placeapi_v2', 'comment_num': '1', 'children': []}}"
户县驾校,108.63732576526296,34.197426003756,161b47b63694b8529122e0b0,"{'name': '户县驾校', 'location': {'lat': 34.20162, 'lng': 108.648375}, 'address': '陕西省西安市邑区大王镇咸余路西段', 'province': '陕西省', 'city': '西安市', 'area': '邑区', 'telephone': '(029)84938589', 'detail': 1, 'uid': '161b47b63694b8529122e0b0', 'detail_info': {'tag': '教育培训;培训机构', 'type': 'education', 'detail_url': 'http://api.map.baidu.com/place/detail?uid=161b47b63694b8529122e0b0&output=html&source=placeapi_v2', 'overall_rating': '5.0', 'comment_num': '1', 'children': []}}"
"{'name': '户县驾校', 'location': {'lat': 34.20162, 'lng': 108.648375}, 'address': '陕西省西安市邑区大王镇咸余路西段', 'province': '陕西省', 'city': '西安市', 'area': '邑区', 'telephone': '(029)84938589', 'detail': 1, 'uid': '161b47b63694b8529122e0b0', 'detail_info': {'tag': '教育培训;培训机构', 'type': 'education', 'detail_url': 'http://api.map.baidu.com/place/detail?uid=161b47b63694b8529122e0b0&output=html&source=placeapi_v2', 'overall_rating': '5.0', 'comment_num': '1', 'children': []}}"
定五村人口学校,108.62075592409745,34.21771872757818,4dd924f1dad1e3d4d618b777,"{'name': '定五村人口学校', 'location': {'lat': 34.222174, 'lng': 108.631708}, 'address': '北环街附近', 'province': '陕西省', 'city': '西安市', 'area': '邑区', 'detail': 1, 'uid': '4dd924f1dad1e3d4d618b777', 'detail_info': {'tag': '教育培训;培训机构', 'type': 'education', 'detail_url': 'http://api.map.baidu.com/place/detail?uid=4dd924f1dad1e3d4d618b777&output=html&source=placeapi_v2', 'children': []}}"
"{'name': '定五村人口学校', 'location': {'lat': 34.222174, 'lng': 108.631708}, 'address': '北环街附近', 'province': '陕西省', 'city': '西安市', 'area': '邑区', 'detail': 1, 'uid': '4dd924f1dad1e3d4d618b777', 'detail_info': {'tag': '教育培训;培训机构', 'type': 'education', 'detail_url': 'http://api.map.baidu.com/place/detail?uid=4dd924f1dad1e3d4d618b777&output=html&source=placeapi_v2', 'children': []}}"
恒顺驾校(大王分校),108.65324736402555,34.202876211629764,e9a32da3bc3373d0c27da2d2,"{'name': '恒顺驾校(大王分校)', 'location': {'lat': 34.206967, 'lng': 108.664383}, 'address': '陕西省西安市邑区易佰连锁旅店(西安大王店)南90米', 'province': '陕西省', 'city': '西安市', 'area': '邑区', 'telephone': '(029)84810905', 'detail': 1, 'uid': 'e9a32da3bc3373d0c27da2d2', 'detail_info': {'tag': '教育培训;培训机构', 'type': 'education', 'detail_url': 'http://api.map.baidu.com/place/detail?uid=e9a32da3bc3373d0c27da2d2&output=html&source=placeapi_v2', 'overall_rating': '5.0', 'children': []}}"
"{'name': '恒顺驾校(大王分校)', 'location': {'lat': 34.206967, 'lng': 108.664383}, 'address': '陕西省西安市邑区易佰连锁旅店(西安大王店)南90米', 'province': '陕西省', 'city': '西安市', 'area': '邑区', 'telephone': '(029)84810905', 'detail': 1, 'uid': 'e9a32da3bc3373d0c27da2d2', 'detail_info': {'tag': '教育培训;培训机构', 'type': 'education', 'detail_url': 'http://api.map.baidu.com/place/detail?uid=e9a32da3bc3373d0c27da2d2&output=html&source=placeapi_v2', 'overall_rating': '5.0', 'children': []}}"
盛达驾驶人训练场,108.6351324166573,34.304768244957124,9bdf8f8f00ad4281e011031b,"{'name': '盛达驾驶人训练场', 'location': {'lat': 34.309029, 'lng': 108.646165}, 'address': '胭脂路4号', 'province': '陕西省', 'city': '咸阳市', 'area': '秦都区', 'street_id': '9bdf8f8f00ad4281e011031b', 'detail': 1, 'uid': '9bdf8f8f00ad4281e011031b', 'detail_info': {'tag': '教育培训;培训机构', 'navi_location': {'lng': 108.64611996178, 'lat': 34.309272644669}, 'type': 'education', 'detail_url': 'http://api.map.baidu.com/place/detail?uid=9bdf8f8f00ad4281e011031b&output=html&source=placeapi_v2', 'overall_rating': '5.0', 'comment_num': '2', 'children': []}}"
"{'name': '盛达驾驶人训练场', 'location': {'lat': 34.309029, 'lng': 108.646165}, 'address': '胭脂路4号', 'province': '陕西省', 'city': '咸阳市', 'area': '秦都区', 'street_id': '9bdf8f8f00ad4281e011031b', 'detail': 1, 'uid': '9bdf8f8f00ad4281e011031b', 'detail_info': {'tag': '教育培训;培训机构', 'navi_location': {'lng': 108.64611996178, 'lat': 34.309272644669}, 'type': 'education', 'detail_url': 'http://api.map.baidu.com/place/detail?uid=9bdf8f8f00ad4281e011031b&output=html&source=placeapi_v2', 'overall_rating': '5.0', 'comment_num': '2', 'children': []}}"
咸阳市飞达科目三西郊训练场,108.62681984374994,34.30201966305473,46c75242225e4de8081cc7fc,"{'name': '咸阳市飞达科目三西郊训练场', 'location': {'lat': 34.306403, 'lng': 108.637791}, 'address': '留印路与留清路交叉口南200米', 'province': '陕西省', 'city': '咸阳市', 'area': '秦都区', 'street_id': '46c75242225e4de8081cc7fc', 'detail': 1, 'uid': '46c75242225e4de8081cc7fc', 'detail_info': {'tag': '教育培训;培训机构', 'navi_location': {'lng': 108.63799885058, 'lat': 34.306471203167}, 'type': 'education', 'detail_url': 'http://api.map.baidu.com/place/detail?uid=46c75242225e4de8081cc7fc&output=html&source=placeapi_v2', 'overall_rating': '5.0', 'comment_num': '2', 'children': []}}"
"{'name': '咸阳市飞达科目三西郊训练场', 'location': {'lat': 34.306403, 'lng': 108.637791}, 'address': '留印路与留清路交叉口南200米', 'province': '陕西省', 'city': '咸阳市', 'area': '秦都区', 'street_id': '46c75242225e4de8081cc7fc', 'detail': 1, 'uid': '46c75242225e4de8081cc7fc', 'detail_info': {'tag': '教育培训;培训机构', 'navi_location': {'lng': 108.63799885058, 'lat': 34.306471203167}, 'type': 'education', 'detail_url': 'http://api.map.baidu.com/place/detail?uid=46c75242225e4de8081cc7fc&output=html&source=placeapi_v2', 'overall_rating': '5.0', 'comment_num': '2', 'children': []}}"
陕西省兴平市武术院,108.55421794077095,34.298199542994034,43b7e8895c5c7e6a59f6be88,"{'name': '陕西省兴平市武术院', 'location': {'lat': 34.302432, 'lng': 108.565231}, 'address': '陕西省咸阳市兴平市西吴街道良咸兴路武术院', 'province': '陕西省', 'city': '咸阳市', 'area': '兴平市', 'telephone': '(029)38418101', 'detail': 1, 'uid': '43b7e8895c5c7e6a59f6be88', 'detail_info': {'tag': '教育培训;培训机构', 'navi_location': {'lng': 108.56498879717, 'lat': 34.303100234488}, 'type': 'education', 'detail_url': 'http://api.map.baidu.com/place/detail?uid=43b7e8895c5c7e6a59f6be88&output=html&source=placeapi_v2', 'overall_rating': '3.0', 'comment_num': '1', 'children': []}}"
"{'name': '陕西省兴平市武术院', 'location': {'lat': 34.302432, 'lng': 108.565231}, 'address': '陕西省咸阳市兴平市西吴街道良咸兴路武术院', 'province': '陕西省', 'city': '咸阳市', 'area': '兴平市', 'telephone': '(029)38418101', 'detail': 1, 'uid': '43b7e8895c5c7e6a59f6be88', 'detail_info': {'tag': '教育培训;培训机构', 'navi_location': {'lng': 108.56498879717, 'lat': 34.303100234488}, 'type': 'education', 'detail_url': 'http://api.map.baidu.com/place/detail?uid=43b7e8895c5c7e6a59f6be88&output=html&source=placeapi_v2', 'overall_rating': '3.0', 'comment_num': '1', 'children': []}}"
石铺学校,108.54468604197166,34.307107104646626,43ffa3e30d3a4ce8e81e97a4,"{'name': '石铺学校', 'location': {'lat': 34.311256, 'lng': 108.555758}, 'address': '陕西省咸阳市兴平市西吴街道迎宾大道石铺学校', 'province': '陕西省', 'city': '咸阳市', 'area': '兴平市', 'detail': 1, 'uid': '43ffa3e30d3a4ce8e81e97a4', 'detail_info': {'tag': '教育培训;培训机构', 'type': 'education', 'detail_url': 'http://api.map.baidu.com/place/detail?uid=43ffa3e30d3a4ce8e81e97a4&output=html&source=placeapi_v2', 'overall_rating': '0.0', 'comment_num': '0', 'children': []}}"
"{'name': '石铺学校', 'location': {'lat': 34.311256, 'lng': 108.555758}, 'address': '陕西省咸阳市兴平市西吴街道迎宾大道石铺学校', 'province': '陕西省', 'city': '咸阳市', 'area': '兴平市', 'detail': 1, 'uid': '43ffa3e30d3a4ce8e81e97a4', 'detail_info': {'tag': '教育培训;培训机构', 'type': 'education', 'detail_url': 'http://api.map.baidu.com/place/detail?uid=43ffa3e30d3a4ce8e81e97a4&output=html&source=placeapi_v2', 'overall_rating': '0.0', 'comment_num': '0', 'children': []}}"
咸阳市技工学校纺织服装专业教学区,108.61288498721053,34.323860289740935,ec7379df636765b11b94c659,"{'name': '咸阳市技工学校纺织服装专业教学区', 'location': {'lat': 34.328468, 'lng': 108.623784}, 'address': '珠泉路北100米', 'province': '陕西省', 'city': '咸阳市', 'area': '秦都区', 'street_id': 'ec7379df636765b11b94c659', 'detail': 1, 'uid': 'ec7379df636765b11b94c659', 'detail_info': {'tag': '教育培训;培训机构', 'type': 'education', 'detail_url': 'http://api.map.baidu.com/place/detail?uid=ec7379df636765b11b94c659&output=html&source=placeapi_v2', 'overall_rating': '5.0', 'children': []}}"
"{'name': '咸阳市技工学校纺织服装专业教学区', 'location': {'lat': 34.328468, 'lng': 108.623784}, 'address': '珠泉路北100米', 'province': '陕西省', 'city': '咸阳市', 'area': '秦都区', 'street_id': 'ec7379df636765b11b94c659', 'detail': 1, 'uid': 'ec7379df636765b11b94c659', 'detail_info': {'tag': '教育培训;培训机构', 'type': 'education', 'detail_url': 'http://api.map.baidu.com/place/detail?uid=ec7379df636765b11b94c659&output=html&source=placeapi_v2', 'overall_rating': '5.0', 'children': []}}"
咸阳光辉驾校宇都分校,108.60737341887696,34.31764909456248,11672ac7bbf70aa23fe23124,"{'name': '咸阳光辉驾校宇都分校', 'location': {'lat': 34.322313, 'lng': 108.618239}, 'address': '茂陵北街附近', 'province': '陕西省', 'city': '咸阳市', 'area': '秦都区', 'street_id': '11672ac7bbf70aa23fe23124', 'detail': 1, 'uid': '11672ac7bbf70aa23fe23124', 'detail_info': {'tag': '教育培训;培训机构', 'type': 'education', 'detail_url': 'http://api.map.baidu.com/place/detail?uid=11672ac7bbf70aa23fe23124&output=html&source=placeapi_v2', 'overall_rating': '5.0', 'children': []}}"
"{'name': '咸阳光辉驾校宇都分校', 'location': {'lat': 34.322313, 'lng': 108.618239}, 'address': '茂陵北街附近', 'province': '陕西省', 'city': '咸阳市', 'area': '秦都区', 'street_id': '11672ac7bbf70aa23fe23124', 'detail': 1, 'uid': '11672ac7bbf70aa23fe23124', 'detail_info': {'tag': '教育培训;培训机构', 'type': 'education', 'detail_url': 'http://api.map.baidu.com/place/detail?uid=11672ac7bbf70aa23fe23124&output=html&source=placeapi_v2', 'overall_rating': '5.0', 'children': []}}"
咸阳龙亿驾驶员培训学校(宝泉路报名处),108.64831087635064,34.32413809075314,1b788daa00e7167ced74f8e1,"{'name': '咸阳龙亿驾驶员培训学校(宝泉路报名处)', 'location': {'lat': 34.328289, 'lng': 108.659439}, 'address': '陕西省咸阳市秦都区宝泉路宝泉花园小区(地中海花园附近)', 'province': '陕西省', 'city': '咸阳市', 'area': '秦都区', 'street_id': '1b788daa00e7167ced74f8e1', 'detail': 1, 'uid': '1b788daa00e7167ced74f8e1', 'detail_info': {'tag': '教育培训;培训机构', 'type': 'education', 'detail_url': 'http://api.map.baidu.com/place/detail?uid=1b788daa00e7167ced74f8e1&output=html&source=placeapi_v2', 'overall_rating': '5.0', 'comment_num': '1', 'children': []}}"
"{'name': '咸阳龙亿驾驶员培训学校(宝泉路报名处)', 'location': {'lat': 34.328289, 'lng': 108.659439}, 'address': '陕西省咸阳市秦都区宝泉路宝泉花园小区(地中海花园附近)', 'province': '陕西省', 'city': '咸阳市', 'area': '秦都区', 'street_id': '1b788daa00e7167ced74f8e1', 'detail': 1, 'uid': '1b788daa00e7167ced74f8e1', 'detail_info': {'tag': '教育培训;培训机构', 'type': 'education', 'detail_url': 'http://api.map.baidu.com/place/detail?uid=1b788daa00e7167ced74f8e1&output=html&source=placeapi_v2', 'overall_rating': '5.0', 'comment_num': '1', 'children': []}}"
小太阳・蓝天学校,108.63983322038484,34.29805189367179,e87ff3b9f94fc1d0704b874a,"{'name': '小太阳・蓝天学校', 'location': {'lat': 34.302251, 'lng': 108.650893}, 'address': '咸阳市秦都区', 'province': '陕西省', 'city': '咸阳市', 'area': '秦都区', 'street_id': 'e87ff3b9f94fc1d0704b874a', 'detail': 1, 'uid': 'e87ff3b9f94fc1d0704b874a', 'detail_info': {'tag': '教育培训;培训机构', 'type': 'education', 'detail_url': 'http://api.map.baidu.com/place/detail?uid=e87ff3b9f94fc1d0704b874a&output=html&source=placeapi_v2', 'overall_rating': '5.0', 'comment_num': '1', 'children': []}}"
"{'name': '小太阳・蓝天学校', 'location': {'lat': 34.302251, 'lng': 108.650893}, 'address': '咸阳市秦都区', 'province': '陕西省', 'city': '咸阳市', 'area': '秦都区', 'street_id': 'e87ff3b9f94fc1d0704b874a', 'detail': 1, 'uid': 'e87ff3b9f94fc1d0704b874a', 'detail_info': {'tag': '教育培训;培训机构', 'type': 'education', 'detail_url': 'http://api.map.baidu.com/place/detail?uid=e87ff3b9f94fc1d0704b874a&output=html&source=placeapi_v2', 'overall_rating': '5.0', 'comment_num': '1', 'children': []}}"
咸阳劲草扶贫职业技术学校,108.64272418537448,34.316839164476214,e4ac174189c5b6ead81318ec,"{'name': '咸阳劲草扶贫职业技术学校', 'location': {'lat': 34.321022, 'lng': 108.653816}, 'address': '陕西省咸阳市秦都区', 'province': '陕西省', 'city': '咸阳市', 'area': '秦都区', 'street_id': 'e4ac174189c5b6ead81318ec', 'detail': 1, 'uid': 'e4ac174189c5b6ead81318ec', 'detail_info': {'tag': '教育培训;培训机构', 'type': 'education', 'detail_url': 'http://api.map.baidu.com/place/detail?uid=e4ac174189c5b6ead81318ec&output=html&source=placeapi_v2', 'overall_rating': '5.0', 'children': []}}"
"{'name': '咸阳劲草扶贫职业技术学校', 'location': {'lat': 34.321022, 'lng': 108.653816}, 'address': '陕西省咸阳市秦都区', 'province': '陕西省', 'city': '咸阳市', 'area': '秦都区', 'street_id': 'e4ac174189c5b6ead81318ec', 'detail': 1, 'uid': 'e4ac174189c5b6ead81318ec', 'detail_info': {'tag': '教育培训;培训机构', 'type': 'education', 'detail_url': 'http://api.map.baidu.com/place/detail?uid=e4ac174189c5b6ead81318ec&output=html&source=placeapi_v2', 'overall_rating': '5.0', 'children': []}}"
速睿培训托管中心,108.64638456027703,34.31700649107206,91c495a4a2585b372cb96d94,"{'name': '速睿培训托管中心', 'location': {'lat': 34.321162, 'lng': 108.657496}, 'address': '陕西省咸阳市秦都区咸平路与渭阳西路交叉口东南50米', 'province': '陕西省', 'city': '咸阳市', 'area': '秦都区', 'street_id': '91c495a4a2585b372cb96d94', 'detail': 1, 'uid': '91c495a4a2585b372cb96d94', 'detail_info': {'tag': '教育培训;培训机构', 'type': 'education', 'detail_url': 'http://api.map.baidu.com/place/detail?uid=91c495a4a2585b372cb96d94&output=html&source=placeapi_v2', 'children': []}}"
"{'name': '速睿培训托管中心', 'location': {'lat': 34.321162, 'lng': 108.657496}, 'address': '陕西省咸阳市秦都区咸平路与渭阳西路交叉口东南50米', 'province': '陕西省', 'city': '咸阳市', 'area': '秦都区', 'street_id': '91c495a4a2585b372cb96d94', 'detail': 1, 'uid': '91c495a4a2585b372cb96d94', 'detail_info': {'tag': '教育培训;培训机构', 'type': 'education', 'detail_url': 'http://api.map.baidu.com/place/detail?uid=91c495a4a2585b372cb96d94&output=html&source=placeapi_v2', 'children': []}}"
技能培训学校,108.66401091084212,34.31112083204679,989da7ebc207b6b3631c674a,"{'name': '技能培训学校', 'location': {'lat': 34.315302, 'lng': 108.675163}, 'address': '柳仓街枫景苑商铺1层', 'province': '陕西省', 'city': '咸阳市', 'area': '秦都区', 'street_id': '989da7ebc207b6b3631c674a', 'detail': 1, 'uid': '989da7ebc207b6b3631c674a', 'detail_info': {'tag': '教育培训;培训机构', 'navi_location': {'lng': 108.67512577329, 'lat': 34.315245858053}, 'type': 'education', 'detail_url': 'http://api.map.baidu.com/place/detail?uid=989da7ebc207b6b3631c674a&output=html&source=placeapi_v2', 'children': []}}"
"{'name': '技能培训学校', 'location': {'lat': 34.315302, 'lng': 108.675163}, 'address': '柳仓街枫景苑商铺1层', 'province': '陕西省', 'city': '咸阳市', 'area': '秦都区', 'street_id': '989da7ebc207b6b3631c674a', 'detail': 1, 'uid': '989da7ebc207b6b3631c674a', 'detail_info': {'tag': '教育培训;培训机构', 'navi_location': {'lng': 108.67512577329, 'lat': 34.315245858053}, 'type': 'education', 'detail_url': 'http://api.map.baidu.com/place/detail?uid=989da7ebc207b6b3631c674a&output=html&source=placeapi_v2', 'children': []}}"
龙亿驾校,108.64218234144535,34.354493842381835,087cab8aa78384d94107c142,"{'name': '龙亿驾校', 'location': {'lat': 34.358707, 'lng': 108.653298}, 'address': '陕西省咸阳市秦都区马泉街道下帝王咸平路龙亿驾校', 'province': '陕西省', 'city': '咸阳市', 'area': '秦都区', 'detail': 1, 'uid': '087cab8aa78384d94107c142', 'detail_info': {'tag': '教育培训;培训机构', 'navi_location': {'lng': 108.65283615909, 'lat': 34.358187552455}, 'type': 'education', 'detail_url': 'http://api.map.baidu.com/place/detail?uid=087cab8aa78384d94107c142&output=html&source=placeapi_v2', 'overall_rating': '5.0', 'comment_num': '0', 'children': []}}"
"{'name': '龙亿驾校', 'location': {'lat': 34.358707, 'lng': 108.653298}, 'address': '陕西省咸阳市秦都区马泉街道下帝王咸平路龙亿驾校', 'province': '陕西省', 'city': '咸阳市', 'area': '秦都区', 'detail': 1, 'uid': '087cab8aa78384d94107c142', 'detail_info': {'tag': '教育培训;培训机构', 'navi_location': {'lng': 108.65283615909, 'lat': 34.358187552455}, 'type': 'education', 'detail_url': 'http://api.map.baidu.com/place/detail?uid=087cab8aa78384d94107c142&output=html&source=placeapi_v2', 'overall_rating': '5.0', 'comment_num': '0', 'children': []}}"
华侨驾校,108.65241040289793,34.325427846771916,ceb66d63562e4b5940ab9a2e,"{'name': '华侨驾校', 'location': {'lat': 34.329569, 'lng': 108.663556}, 'address': '陕西省咸阳市秦都区宝泉路51号', 'province': '陕西省', 'city': '咸阳市', 'area': '秦都区', 'street_id': 'ceb66d63562e4b5940ab9a2e', 'telephone': '(029)33341688', 'detail': 1, 'uid': 'ceb66d63562e4b5940ab9a2e', 'detail_info': {'tag': '教育培训;培训机构', 'navi_location': {'lng': 108.66367310297, 'lat': 34.329299895866}, 'type': 'education', 'detail_url': 'http://api.map.baidu.com/place/detail?uid=ceb66d63562e4b5940ab9a2e&output=html&source=placeapi_v2', 'overall_rating': '5.0', 'comment_num': '1', 'children': []}}"
"{'name': '华侨驾校', 'location': {'lat': 34.329569, 'lng': 108.663556}, 'address': '陕西省咸阳市秦都区宝泉路51号', 'province': '陕西省', 'city': '咸阳市', 'area': '秦都区', 'street_id': 'ceb66d63562e4b5940ab9a2e', 'telephone': '(029)33341688', 'detail': 1, 'uid': 'ceb66d63562e4b5940ab9a2e', 'detail_info': {'tag': '教育培训;培训机构', 'navi_location': {'lng': 108.66367310297, 'lat': 34.329299895866}, 'type': 'education', 'detail_url': 'http://api.map.baidu.com/place/detail?uid=ceb66d63562e4b5940ab9a2e&output=html&source=placeapi_v2', 'overall_rating': '5.0', 'comment_num': '1', 'children': []}}"
华图教育集团陕西分校咸阳分部,108.6656007014555,34.32941869193876,ab61fca8b385c07b3f9a5e91,"{'name': '华图教育集团陕西分校咸阳分部', 'location': {'lat': 34.33363, 'lng': 108.676772}, 'address': '秦都区人民西路中国建设银行二楼', 'province': '陕西省', 'city': '咸阳市', 'area': '秦都区', 'street_id': 'ab61fca8b385c07b3f9a5e91', 'telephone': '(029)33219878', 'detail': 1, 'uid': 'ab61fca8b385c07b3f9a5e91', 'detail_info': {'tag': '教育培训;培训机构', 'navi_location': {'lng': 108.67662553476, 'lat': 34.333380255843}, 'type': 'education', 'detail_url': 'http://api.map.baidu.com/place/detail?uid=ab61fca8b385c07b3f9a5e91&output=html&source=placeapi_v2', 'price': '0.0', 'comment_num': '1', 'children': []}}"
"{'name': '华图教育集团陕西分校咸阳分部', 'location': {'lat': 34.33363, 'lng': 108.676772}, 'address': '秦都区人民西路中国建设银行二楼', 'province': '陕西省', 'city': '咸阳市', 'area': '秦都区', 'street_id': 'ab61fca8b385c07b3f9a5e91', 'telephone': '(029)33219878', 'detail': 1, 'uid': 'ab61fca8b385c07b3f9a5e91', 'detail_info': {'tag': '教育培训;培训机构', 'navi_location': {'lng': 108.67662553476, 'lat': 34.333380255843}, 'type': 'education', 'detail_url': 'http://api.map.baidu.com/place/detail?uid=ab61fca8b385c07b3f9a5e91&output=html&source=placeapi_v2', 'price': '0.0', 'comment_num': '1', 'children': []}}"
咸阳华侨儿童智能培训中心,108.65277810781946,34.32548903170904,b63fd3f6eaf86abeb4265534,"{'name': '咸阳华侨儿童智能培训中心', 'location': {'lat': 34.32963, 'lng': 108.663925}, 'address': '宝泉路51号', 'province': '陕西省', 'city': '咸阳市', 'area': '秦都区', 'street_id': 'b63fd3f6eaf86abeb4265534', 'detail': 1, 'uid': 'b63fd3f6eaf86abeb4265534', 'detail_info': {'tag': '教育培训;培训机构', 'type': 'education', 'detail_url': 'http://api.map.baidu.com/place/detail?uid=b63fd3f6eaf86abeb4265534&output=html&source=placeapi_v2', 'overall_rating': '5.0', 'comment_num': '1', 'children': []}}"
"{'name': '咸阳华侨儿童智能培训中心', 'location': {'lat': 34.32963, 'lng': 108.663925}, 'address': '宝泉路51号', 'province': '陕西省', 'city': '咸阳市', 'area': '秦都区', 'street_id': 'b63fd3f6eaf86abeb4265534', 'detail': 1, 'uid': 'b63fd3f6eaf86abeb4265534', 'detail_info': {'tag': '教育培训;培训机构', 'type': 'education', 'detail_url': 'http://api.map.baidu.com/place/detail?uid=b63fd3f6eaf86abeb4265534&output=html&source=placeapi_v2', 'overall_rating': '5.0', 'comment_num': '1', 'children': []}}"
陕西省工贸职业技能培训中心,108.65277412520672,34.32548503295469,94dad4808113dfe43517dc30,"{'name': '陕西省工贸职业技能培训中心', 'location': {'lat': 34.329626, 'lng': 108.663921}, 'address': '宝泉路51号', 'province': '陕西省', 'city': '咸阳市', 'area': '秦都区', 'street_id': '94dad4808113dfe43517dc30', 'detail': 1, 'uid': '94dad4808113dfe43517dc30', 'detail_info': {'tag': '教育培训;培训机构', 'type': 'education', 'detail_url': 'http://api.map.baidu.com/place/detail?uid=94dad4808113dfe43517dc30&output=html&source=placeapi_v2', 'overall_rating': '5.0', 'comment_num': '0', 'children': []}}"
"{'name': '陕西省工贸职业技能培训中心', 'location': {'lat': 34.329626, 'lng': 108.663921}, 'address': '宝泉路51号', 'province': '陕西省', 'city': '咸阳市', 'area': '秦都区', 'street_id': '94dad4808113dfe43517dc30', 'detail': 1, 'uid': '94dad4808113dfe43517dc30', 'detail_info': {'tag': '教育培训;培训机构', 'type': 'education', 'detail_url': 'http://api.map.baidu.com/place/detail?uid=94dad4808113dfe43517dc30&output=html&source=placeapi_v2', 'overall_rating': '5.0', 'comment_num': '0', 'children': []}}"
秦都区残疾人就业扶贫培训基地,108.66669366146631,34.33755752148079,b0cd9289ad12301702294ff1,"{'name': '秦都区残疾人就业扶贫培训基地', 'location': {'lat': 34.341787, 'lng': 108.677872}, 'address': '陕西省咸阳市秦都区玉泉路秦博大厦', 'province': '陕西省', 'city': '咸阳市', 'area': '秦都区', 'street_id': 'b0cd9289ad12301702294ff1', 'detail': 1, 'uid': 'b0cd9289ad12301702294ff1', 'detail_info': {'tag': '教育培训;培训机构', 'navi_location': {'lng': 108.67838917797, 'lat': 34.341756637126}, 'type': 'education', 'detail_url': 'http://api.map.baidu.com/place/detail?uid=b0cd9289ad12301702294ff1&output=html&source=placeapi_v2', 'overall_rating': '5.0', 'children': []}}"
"{'name': '秦都区残疾人就业扶贫培训基地', 'location': {'lat': 34.341787, 'lng': 108.677872}, 'address': '陕西省咸阳市秦都区玉泉路秦博大厦', 'province': '陕西省', 'city': '咸阳市', 'area': '秦都区', 'street_id': 'b0cd9289ad12301702294ff1', 'detail': 1, 'uid': 'b0cd9289ad12301702294ff1', 'detail_info': {'tag': '教育培训;培训机构', 'navi_location': {'lng': 108.67838917797, 'lat': 34.341756637126}, 'type': 'education', 'detail_url': 'http://api.map.baidu.com/place/detail?uid=b0cd9289ad12301702294ff1&output=html&source=placeapi_v2', 'overall_rating': '5.0', 'children': []}}"
优加优教育,108.65299289278403,34.43944528904739,bd37703884e7f32e2e4733f1,"{'name': '优加优教育', 'location': {'lat': 34.443646, 'lng': 108.664144}, 'address': '咸阳市秦都区马庄镇喜客来超市斜对面向西100米路北', 'province': '陕西省', 'city': '咸阳市', 'area': '秦都区', 'detail': 1, 'uid': 'bd37703884e7f32e2e4733f1', 'detail_info': {'tag': '教育培训;培训机构', 'type': 'education', 'detail_url': 'http://api.map.baidu.com/place/detail?uid=bd37703884e7f32e2e4733f1&output=html&source=placeapi_v2', 'children': []}}"
"{'name': '优加优教育', 'location': {'lat': 34.443646, 'lng': 108.664144}, 'address': '咸阳市秦都区马庄镇喜客来超市斜对面向西100米路北', 'province': '陕西省', 'city': '咸阳市', 'area': '秦都区', 'detail': 1, 'uid': 'bd37703884e7f32e2e4733f1', 'detail_info': {'tag': '教育培训;培训机构', 'type': 'education', 'detail_url': 'http://api.map.baidu.com/place/detail?uid=bd37703884e7f32e2e4733f1&output=html&source=placeapi_v2', 'children': []}}"
E阳教育,108.65346625089289,34.43770092727724,f1539865b0b75e45a1d230ee,"{'name': 'E阳教育', 'location': {'lat': 34.4419, 'lng': 108.664617}, 'address': '咸阳市秦都区', 'province': '陕西省', 'city': '咸阳市', 'area': '秦都区', 'telephone': '(029)33128182,13379402182,13379402181', 'detail': 1, 'uid': 'f1539865b0b75e45a1d230ee', 'detail_info': {'tag': '教育培训;培训机构', 'type': 'education', 'detail_url': 'http://api.map.baidu.com/place/detail?uid=f1539865b0b75e45a1d230ee&output=html&source=placeapi_v2', 'children': []}}"
"{'name': 'E阳教育', 'location': {'lat': 34.4419, 'lng': 108.664617}, 'address': '咸阳市秦都区', 'province': '陕西省', 'city': '咸阳市', 'area': '秦都区', 'telephone': '(029)33128182,13379402182,13379402181', 'detail': 1, 'uid': 'f1539865b0b75e45a1d230ee', 'detail_info': {'tag': '教育培训;培训机构', 'type': 'education', 'detail_url': 'http://api.map.baidu.com/place/detail?uid=f1539865b0b75e45a1d230ee&output=html&source=placeapi_v2', 'children': []}}"
小应学校,108.57853406521937,34.55421823479352,d6df91c16cb5c86af6b916be,"{'name': '小应学校', 'location': {'lat': 34.558964, 'lng': 108.589427}, 'address': '咸阳市礼泉县', 'province': '陕西省', 'city': '咸阳市', 'area': '礼泉县', 'detail': 1, 'uid': 'd6df91c16cb5c86af6b916be', 'detail_info': {'tag': '教育培训;培训机构', 'type': 'education', 'detail_url': 'http://api.map.baidu.com/place/detail?uid=d6df91c16cb5c86af6b916be&output=html&source=placeapi_v2', 'overall_rating': '5.0', 'children': []}}"
"{'name': '小应学校', 'location': {'lat': 34.558964, 'lng': 108.589427}, 'address': '咸阳市礼泉县', 'province': '陕西省', 'city': '咸阳市', 'area': '礼泉县', 'detail': 1, 'uid': 'd6df91c16cb5c86af6b916be', 'detail_info': {'tag': '教育培训;培训机构', 'type': 'education', 'detail_url': 'http://api.map.baidu.com/place/detail?uid=d6df91c16cb5c86af6b916be&output=html&source=placeapi_v2', 'overall_rating': '5.0', 'children': []}}"
翔龙机动车驾驶员培训有限公司,108.78296987395547,34.12631010323279,53349ee39938156d22026262,"{'name': '翔龙机动车驾驶员培训有限公司', 'location': {'lat': 34.130503, 'lng': 108.794278}, 'address': '105县道附近', 'province': '陕西省', 'city': '西安市', 'area': '长安区', 'detail': 1, 'uid': '53349ee39938156d22026262', 'detail_info': {'tag': '教育培训;培训机构', 'navi_location': {'lng': 108.7944736076, 'lat': 34.13027430203}, 'type': 'education', 'detail_url': 'http://api.map.baidu.com/place/detail?uid=53349ee39938156d22026262&output=html&source=placeapi_v2', 'overall_rating': '5.0', 'comment_num': '0', 'children': []}}"
"{'name': '翔龙机动车驾驶员培训有限公司', 'location': {'lat': 34.130503, 'lng': 108.794278}, 'address': '105县道附近', 'province': '陕西省', 'city': '西安市', 'area': '长安区', 'detail': 1, 'uid': '53349ee39938156d22026262', 'detail_info': {'tag': '教育培训;培训机构', 'navi_location': {'lng': 108.7944736076, 'lat': 34.13027430203}, 'type': 'education', 'detail_url': 'http://api.map.baidu.com/place/detail?uid=53349ee39938156d22026262&output=html&source=placeapi_v2', 'overall_rating': '5.0', 'comment_num': '0', 'children': []}}"
西安市公安局交通管理支队车管所机动车驾驶人考训场(南区),108.78314740545311,34.126257124238194,e5b437a2ff04c9df42d63e73,"{'name': '西安市公安局交通管理支队车管所机动车驾驶人考训场(南区)', 'location': {'lat': 34.130451, 'lng': 108.794455}, 'address': '105县道附近', 'province': '陕西省', 'city': '西安市', 'area': '长安区', 'detail': 1, 'uid': 'e5b437a2ff04c9df42d63e73', 'detail_info': {'tag': '教育培训;培训机构', 'type': 'education', 'detail_url': 'http://api.map.baidu.com/place/detail?uid=e5b437a2ff04c9df42d63e73&output=html&source=placeapi_v2', 'overall_rating': '5.0', 'children': []}}"
"{'name': '西安市公安局交通管理支队车管所机动车驾驶人考训场(南区)', 'location': {'lat': 34.130451, 'lng': 108.794455}, 'address': '105县道附近', 'province': '陕西省', 'city': '西安市', 'area': '长安区', 'detail': 1, 'uid': 'e5b437a2ff04c9df42d63e73', 'detail_info': {'tag': '教育培训;培训机构', 'type': 'education', 'detail_url': 'http://api.map.baidu.com/place/detail?uid=e5b437a2ff04c9df42d63e73&output=html&source=placeapi_v2', 'overall_rating': '5.0', 'children': []}}"
钢铁驾校,108.7638407725957,34.119427671411636,902732df304aa13aa8175aa4,"{'name': '钢铁驾校', 'location': {'lat': 34.123668, 'lng': 108.775156}, 'address': '105县道附近', 'province': '陕西省', 'city': '西安市', 'area': '长安区', 'detail': 1, 'uid': '902732df304aa13aa8175aa4', 'detail_info': {'tag': '教育培训;培训机构', 'type': 'education', 'detail_url': 'http://api.map.baidu.com/place/detail?uid=902732df304aa13aa8175aa4&output=html&source=placeapi_v2', 'comment_num': '1', 'children': []}}"
"{'name': '钢铁驾校', 'location': {'lat': 34.123668, 'lng': 108.775156}, 'address': '105县道附近', 'province': '陕西省', 'city': '西安市', 'area': '长安区', 'detail': 1, 'uid': '902732df304aa13aa8175aa4', 'detail_info': {'tag': '教育培训;培训机构', 'type': 'education', 'detail_url': 'http://api.map.baidu.com/place/detail?uid=902732df304aa13aa8175aa4&output=html&source=placeapi_v2', 'comment_num': '1', 'children': []}}"
户县秦镇凉皮协会-培训中心,108.75016743454364,34.11048364020474,74127e0181c6c3d4ab0dd883,"{'name': '户县秦镇凉皮协会-培训中心', 'location': {'lat': 34.114915, 'lng': 108.761425}, 'address': '秦镇西街西段', 'province': '陕西省', 'city': '西安市', 'area': '邑区', 'detail': 1, 'uid': '74127e0181c6c3d4ab0dd883', 'detail_info': {'tag': '教育培训;培训机构', 'type': 'education', 'detail_url': 'http://api.map.baidu.com/place/detail?uid=74127e0181c6c3d4ab0dd883&output=html&source=placeapi_v2', 'overall_rating': '5.0', 'comment_num': '1', 'children': []}}"
"{'name': '户县秦镇凉皮协会-培训中心', 'location': {'lat': 34.114915, 'lng': 108.761425}, 'address': '秦镇西街西段', 'province': '陕西省', 'city': '西安市', 'area': '邑区', 'detail': 1, 'uid': '74127e0181c6c3d4ab0dd883', 'detail_info': {'tag': '教育培训;培训机构', 'type': 'education', 'detail_url': 'http://api.map.baidu.com/place/detail?uid=74127e0181c6c3d4ab0dd883&output=html&source=placeapi_v2', 'overall_rating': '5.0', 'comment_num': '1', 'children': []}}"
宏桥学校小学教学区,108.74394015149872,34.11162097648942,64ff3be12fd9ebbb91114ca8,"{'name': '宏桥学校小学教学区', 'location': {'lat': 34.116159, 'lng': 108.755162}, 'address': '陕西省西安市邑区秦渡镇秦一丰京路西安宏桥小学', 'province': '陕西省', 'city': '西安市', 'area': '邑区', 'detail': 1, 'uid': '64ff3be12fd9ebbb91114ca8', 'detail_info': {'tag': '教育培训;培训机构', 'type': 'education', 'detail_url': 'http://api.map.baidu.com/place/detail?uid=64ff3be12fd9ebbb91114ca8&output=html&source=placeapi_v2', 'overall_rating': '5.0', 'comment_num': '1', 'children': []}}"
"{'name': '宏桥学校小学教学区', 'location': {'lat': 34.116159, 'lng': 108.755162}, 'address': '陕西省西安市邑区秦渡镇秦一丰京路西安宏桥小学', 'province': '陕西省', 'city': '西安市', 'area': '邑区', 'detail': 1, 'uid': '64ff3be12fd9ebbb91114ca8', 'detail_info': {'tag': '教育培训;培训机构', 'type': 'education', 'detail_url': 'http://api.map.baidu.com/place/detail?uid=64ff3be12fd9ebbb91114ca8&output=html&source=placeapi_v2', 'overall_rating': '5.0', 'comment_num': '1', 'children': []}}"
华西驾校,108.6960327896035,34.108856691781014,c7657f3c9f0d7f089c09f75a,"{'name': '华西驾校', 'location': {'lat': 34.1135, 'lng': 108.707134}, 'address': '陕西省西安市邑区牛东村', 'province': '陕西省', 'city': '西安市', 'area': '邑区', 'detail': 1, 'uid': 'c7657f3c9f0d7f089c09f75a', 'detail_info': {'tag': '教育培训;培训机构', 'type': 'education', 'detail_url': 'http://api.map.baidu.com/place/detail?uid=c7657f3c9f0d7f089c09f75a&output=html&source=placeapi_v2', 'children': []}}"
"{'name': '华西驾校', 'location': {'lat': 34.1135, 'lng': 108.707134}, 'address': '陕西省西安市邑区牛东村', 'province': '陕西省', 'city': '西安市', 'area': '邑区', 'detail': 1, 'uid': 'c7657f3c9f0d7f089c09f75a', 'detail_info': {'tag': '教育培训;培训机构', 'type': 'education', 'detail_url': 'http://api.map.baidu.com/place/detail?uid=c7657f3c9f0d7f089c09f75a&output=html&source=placeapi_v2', 'children': []}}"
薛花园村人口学校,108.710147268105,34.121186325658094,baf147ac81e469ef7c29bd12,"{'name': '薛花园村人口学校', 'location': {'lat': 34.125994, 'lng': 108.721233}, 'address': '213县道附近', 'province': '陕西省', 'city': '西安市', 'area': '邑区', 'detail': 1, 'uid': 'baf147ac81e469ef7c29bd12', 'detail_info': {'tag': '教育培训;培训机构', 'type': 'education', 'detail_url': 'http://api.map.baidu.com/place/detail?uid=baf147ac81e469ef7c29bd12&output=html&source=placeapi_v2', 'children': []}}"
"{'name': '薛花园村人口学校', 'location': {'lat': 34.125994, 'lng': 108.721233}, 'address': '213县道附近', 'province': '陕西省', 'city': '西安市', 'area': '邑区', 'detail': 1, 'uid': 'baf147ac81e469ef7c29bd12', 'detail_info': {'tag': '教育培训;培训机构', 'type': 'education', 'detail_url': 'http://api.map.baidu.com/place/detail?uid=baf147ac81e469ef7c29bd12&output=html&source=placeapi_v2', 'children': []}}"
恒顺驾校(秦镇分校),108.74105630512261,34.111485390234094,5f7614328639b3178bf15d10,"{'name': '恒顺驾校(秦镇分校)', 'location': {'lat': 34.116072, 'lng': 108.752261}, 'address': 'X213新天地汽车装潢西侧', 'province': '陕西省', 'city': '西安市', 'area': '邑区', 'telephone': '(029)84943599', 'detail': 1, 'uid': '5f7614328639b3178bf15d10', 'detail_info': {'tag': '教育培训;培训机构', 'type': 'education', 'detail_url': 'http://api.map.baidu.com/place/detail?uid=5f7614328639b3178bf15d10&output=html&source=placeapi_v2', 'price': '0.0', 'overall_rating': '5.0', 'comment_num': '1', 'children': []}}"
"{'name': '恒顺驾校(秦镇分校)', 'location': {'lat': 34.116072, 'lng': 108.752261}, 'address': 'X213新天地汽车装潢西侧', 'province': '陕西省', 'city': '西安市', 'area': '邑区', 'telephone': '(029)84943599', 'detail': 1, 'uid': '5f7614328639b3178bf15d10', 'detail_info': {'tag': '教育培训;培训机构', 'type': 'education', 'detail_url': 'http://api.map.baidu.com/place/detail?uid=5f7614328639b3178bf15d10&output=html&source=placeapi_v2', 'price': '0.0', 'overall_rating': '5.0', 'comment_num': '1', 'children': []}}"
宏森武艺培训中心,108.73894399530799,34.10975244753276,9b73b42b0fa96c028bdb731f,"{'name': '宏森武艺培训中心', 'location': {'lat': 34.114373, 'lng': 108.750136}, 'address': '秦镇农行向西300米秦英小学内', 'province': '陕西省', 'city': '西安市', 'area': '邑区', 'telephone': '13572577945', 'detail': 1, 'uid': '9b73b42b0fa96c028bdb731f', 'detail_info': {'tag': '教育培训;培训机构', 'type': 'education', 'detail_url': 'http://api.map.baidu.com/place/detail?uid=9b73b42b0fa96c028bdb731f&output=html&source=placeapi_v2', 'overall_rating': '5.0', 'children': []}}"
"{'name': '宏森武艺培训中心', 'location': {'lat': 34.114373, 'lng': 108.750136}, 'address': '秦镇农行向西300米秦英小学内', 'province': '陕西省', 'city': '西安市', 'area': '邑区', 'telephone': '13572577945', 'detail': 1, 'uid': '9b73b42b0fa96c028bdb731f', 'detail_info': {'tag': '教育培训;培训机构', 'type': 'education', 'detail_url': 'http://api.map.baidu.com/place/detail?uid=9b73b42b0fa96c028bdb731f&output=html&source=placeapi_v2', 'overall_rating': '5.0', 'children': []}}"
西安鹏翔驾校,108.77670982465739,34.17747022106467,8bfea6c4268ae9ca077ce8fc,"{'name': '西安鹏翔驾校', 'location': {'lat': 34.18165, 'lng': 108.788004}, 'address': '陕西省西安市长安区新韦斗路西段', 'province': '陕西省', 'city': '西安市', 'area': '长安区', 'telephone': '(029)85965888', 'detail': 1, 'uid': '8bfea6c4268ae9ca077ce8fc', 'detail_info': {'tag': '教育培训;培训机构', 'navi_location': {'lng': 108.78845397434, 'lat': 34.181935583432}, 'type': 'education', 'detail_url': 'http://api.map.baidu.com/place/detail?uid=8bfea6c4268ae9ca077ce8fc&output=html&source=placeapi_v2', 'overall_rating': '1.0', 'comment_num': '2', 'children': []}}"
"{'name': '西安鹏翔驾校', 'location': {'lat': 34.18165, 'lng': 108.788004}, 'address': '陕西省西安市长安区新韦斗路西段', 'province': '陕西省', 'city': '西安市', 'area': '长安区', 'telephone': '(029)85965888', 'detail': 1, 'uid': '8bfea6c4268ae9ca077ce8fc', 'detail_info': {'tag': '教育培训;培训机构', 'navi_location': {'lng': 108.78845397434, 'lat': 34.181935583432}, 'type': 'education', 'detail_url': 'http://api.map.baidu.com/place/detail?uid=8bfea6c4268ae9ca077ce8fc&output=html&source=placeapi_v2', 'overall_rating': '1.0', 'comment_num': '2', 'children': []}}"
西安武术职业学校,108.79144672395721,34.15836382780113,81d6a50983a7f7406e20b947,"{'name': '西安武术职业学校', 'location': {'lat': 34.162629, 'lng': 108.802693}, 'address': '陕西省西安市长安区细柳街道办事处东庙村', 'province': '陕西省', 'city': '西安市', 'area': '长安区', 'detail': 1, 'uid': '81d6a50983a7f7406e20b947', 'detail_info': {'tag': '教育培训;培训机构', 'navi_location': {'lng': 108.80254387201, 'lat': 34.162625894169}, 'type': 'education', 'detail_url': 'http://api.map.baidu.com/place/detail?uid=81d6a50983a7f7406e20b947&output=html&source=placeapi_v2', 'overall_rating': '5.0', 'children': []}}"
"{'name': '西安武术职业学校', 'location': {'lat': 34.162629, 'lng': 108.802693}, 'address': '陕西省西安市长安区细柳街道办事处东庙村', 'province': '陕西省', 'city': '西安市', 'area': '长安区', 'detail': 1, 'uid': '81d6a50983a7f7406e20b947', 'detail_info': {'tag': '教育培训;培训机构', 'navi_location': {'lng': 108.80254387201, 'lat': 34.162625894169}, 'type': 'education', 'detail_url': 'http://api.map.baidu.com/place/detail?uid=81d6a50983a7f7406e20b947&output=html&source=placeapi_v2', 'overall_rating': '5.0', 'children': []}}"
恒通驾校,108.78635103054057,34.23258550290347,6824fa01f1c668056fc02c5b,"{'name': '恒通驾校', 'location': {'lat': 34.236837, 'lng': 108.797661}, 'address': '南丰村附近', 'province': '陕西省', 'city': '西安市', 'area': '长安区', 'street_id': '6824fa01f1c668056fc02c5b', 'detail': 1, 'uid': '6824fa01f1c668056fc02c5b', 'detail_info': {'tag': '教育培训;培训机构', 'type': 'education', 'detail_url': 'http://api.map.baidu.com/place/detail?uid=6824fa01f1c668056fc02c5b&output=html&source=placeapi_v2', 'overall_rating': '5.0', 'comment_num': '0', 'children': []}}"
"{'name': '恒通驾校', 'location': {'lat': 34.236837, 'lng': 108.797661}, 'address': '南丰村附近', 'province': '陕西省', 'city': '西安市', 'area': '长安区', 'street_id': '6824fa01f1c668056fc02c5b', 'detail': 1, 'uid': '6824fa01f1c668056fc02c5b', 'detail_info': {'tag': '教育培训;培训机构', 'type': 'education', 'detail_url': 'http://api.map.baidu.com/place/detail?uid=6824fa01f1c668056fc02c5b&output=html&source=placeapi_v2', 'overall_rating': '5.0', 'comment_num': '0', 'children': []}}"
快乐ABC英语培训,108.7673940503017,34.15690831360461,39dcd7c1e507622d1b94c60a,"{'name': '快乐ABC英语培训', 'location': {'lat': 34.161118, 'lng': 108.778689}, 'address': '陕西省西安市长安区细柳街道杨柳祝秦路光明加油站西50米', 'province': '陕西省', 'city': '西安市', 'area': '长安区', 'detail': 1, 'uid': '39dcd7c1e507622d1b94c60a', 'detail_info': {'tag': '教育培训;培训机构', 'type': 'education', 'detail_url': 'http://api.map.baidu.com/place/detail?uid=39dcd7c1e507622d1b94c60a&output=html&source=placeapi_v2', 'overall_rating': '5.0', 'comment_num': '0', 'children': []}}"
"{'name': '快乐ABC英语培训', 'location': {'lat': 34.161118, 'lng': 108.778689}, 'address': '陕西省西安市长安区细柳街道杨柳祝秦路光明加油站西50米', 'province': '陕西省', 'city': '西安市', 'area': '长安区', 'detail': 1, 'uid': '39dcd7c1e507622d1b94c60a', 'detail_info': {'tag': '教育培训;培训机构', 'type': 'education', 'detail_url': 'http://api.map.baidu.com/place/detail?uid=39dcd7c1e507622d1b94c60a&output=html&source=placeapi_v2', 'overall_rating': '5.0', 'comment_num': '0', 'children': []}}"
西安市博安驾校培训基地,108.76306049734335,34.194354505723894,efc5893b951cdc29eb56fa99,"{'name': '西安市博安驾校培训基地', 'location': {'lat': 34.198618, 'lng': 108.774355}, 'address': '新韦斗路西50米', 'province': '陕西省', 'city': '西安市', 'area': '长安区', 'detail': 1, 'uid': 'efc5893b951cdc29eb56fa99', 'detail_info': {'tag': '教育培训;培训机构', 'navi_location': {'lng': 108.77447877771, 'lat': 34.198664861153}, 'type': 'education', 'detail_url': 'http://api.map.baidu.com/place/detail?uid=efc5893b951cdc29eb56fa99&output=html&source=placeapi_v2', 'overall_rating': '5.0', 'children': []}}"
"{'name': '西安市博安驾校培训基地', 'location': {'lat': 34.198618, 'lng': 108.774355}, 'address': '新韦斗路西50米', 'province': '陕西省', 'city': '西安市', 'area': '长安区', 'detail': 1, 'uid': 'efc5893b951cdc29eb56fa99', 'detail_info': {'tag': '教育培训;培训机构', 'navi_location': {'lng': 108.77447877771, 'lat': 34.198664861153}, 'type': 'education', 'detail_url': 'http://api.map.baidu.com/place/detail?uid=efc5893b951cdc29eb56fa99&output=html&source=placeapi_v2', 'overall_rating': '5.0', 'children': []}}"
西安市钢铁驾校,108.70997305233674,34.23853933347964,72e57fd7e74e96aff8dc8541,"{'name': '西安市钢铁驾校', 'location': {'lat': 34.243384, 'lng': 108.721069}, 'address': '陕西省西安市长安区', 'province': '陕西省', 'city': '西安市', 'area': '长安区', 'detail': 1, 'uid': '72e57fd7e74e96aff8dc8541', 'detail_info': {'tag': '教育培训;培训机构', 'type': 'education', 'detail_url': 'http://api.map.baidu.com/place/detail?uid=72e57fd7e74e96aff8dc8541&output=html&source=placeapi_v2', 'overall_rating': '5.0', 'comment_num': '0', 'children': []}}"
"{'name': '西安市钢铁驾校', 'location': {'lat': 34.243384, 'lng': 108.721069}, 'address': '陕西省西安市长安区', 'province': '陕西省', 'city': '西安市', 'area': '长安区', 'detail': 1, 'uid': '72e57fd7e74e96aff8dc8541', 'detail_info': {'tag': '教育培训;培训机构', 'type': 'education', 'detail_url': 'http://api.map.baidu.com/place/detail?uid=72e57fd7e74e96aff8dc8541&output=html&source=placeapi_v2', 'overall_rating': '5.0', 'comment_num': '0', 'children': []}}"
恒通驾校报名处,108.79267906619805,34.15778560382497,588325622bb1d95faecb6615,"{'name': '恒通驾校报名处', 'location': {'lat': 34.162065, 'lng': 108.803919}, 'address': '陕西省西安市长安区细柳街道祝秦路细柳公交站', 'province': '陕西省', 'city': '西安市', 'area': '长安区', 'telephone': '(029)85961804', 'detail': 1, 'uid': '588325622bb1d95faecb6615', 'detail_info': {'tag': '教育培训;培训机构', 'navi_location': {'lng': 108.80394261993, 'lat': 34.161837453452}, 'type': 'education', 'detail_url': 'http://api.map.baidu.com/place/detail?uid=588325622bb1d95faecb6615&output=html&source=placeapi_v2', 'overall_rating': '5.0', 'children': []}}"
"{'name': '恒通驾校报名处', 'location': {'lat': 34.162065, 'lng': 108.803919}, 'address': '陕西省西安市长安区细柳街道祝秦路细柳公交站', 'province': '陕西省', 'city': '西安市', 'area': '长安区', 'telephone': '(029)85961804', 'detail': 1, 'uid': '588325622bb1d95faecb6615', 'detail_info': {'tag': '教育培训;培训机构', 'navi_location': {'lng': 108.80394261993, 'lat': 34.161837453452}, 'type': 'education', 'detail_url': 'http://api.map.baidu.com/place/detail?uid=588325622bb1d95faecb6615&output=html&source=placeapi_v2', 'overall_rating': '5.0', 'children': []}}"
中大养生学院(西安分院),108.7658064587164,34.229044507544145,b1dbf395b1b8e6e12b06ce88,"{'name': '中大养生学院(西安分院)', 'location': {'lat': 34.233301, 'lng': 108.777137}, 'address': '陕西省西安市长安区359乡道花园一号垂钓园', 'province': '陕西省', 'city': '西安市', 'area': '长安区', 'detail': 1, 'uid': 'b1dbf395b1b8e6e12b06ce88', 'detail_info': {'tag': '教育培训;培训机构', 'navi_location': {'lng': 108.77710809638, 'lat': 34.232839209779}, 'type': 'education', 'detail_url': 'http://api.map.baidu.com/place/detail?uid=b1dbf395b1b8e6e12b06ce88&output=html&source=placeapi_v2', 'overall_rating': '5.0', 'children': []}}"
"{'name': '中大养生学院(西安分院)', 'location': {'lat': 34.233301, 'lng': 108.777137}, 'address': '陕西省西安市长安区359乡道花园一号垂钓园', 'province': '陕西省', 'city': '西安市', 'area': '长安区', 'detail': 1, 'uid': 'b1dbf395b1b8e6e12b06ce88', 'detail_info': {'tag': '教育培训;培训机构', 'navi_location': {'lng': 108.77710809638, 'lat': 34.232839209779}, 'type': 'education', 'detail_url': 'http://api.map.baidu.com/place/detail?uid=b1dbf395b1b8e6e12b06ce88&output=html&source=placeapi_v2', 'overall_rating': '5.0', 'children': []}}"
西安市公安局交通警察支队机动车驾驶人考训场南区,108.77699814468895,34.177601062215544,0315d99ef10c8af0f119379c,"{'name': '西安市公安局交通警察支队机动车驾驶人考训场南区', 'location': {'lat': 34.181781, 'lng': 108.788292}, 'address': '新韦斗路附近', 'province': '陕西省', 'city': '西安市', 'area': '长安区', 'detail': 1, 'uid': '0315d99ef10c8af0f119379c', 'detail_info': {'tag': '教育培训;培训机构', 'type': 'education', 'detail_url': 'http://api.map.baidu.com/place/detail?uid=0315d99ef10c8af0f119379c&output=html&source=placeapi_v2', 'overall_rating': '5.0', 'comment_num': '0', 'children': []}}"
"{'name': '西安市公安局交通警察支队机动车驾驶人考训场南区', 'location': {'lat': 34.181781, 'lng': 108.788292}, 'address': '新韦斗路附近', 'province': '陕西省', 'city': '西安市', 'area': '长安区', 'detail': 1, 'uid': '0315d99ef10c8af0f119379c', 'detail_info': {'tag': '教育培训;培训机构', 'type': 'education', 'detail_url': 'http://api.map.baidu.com/place/detail?uid=0315d99ef10c8af0f119379c&output=html&source=placeapi_v2', 'overall_rating': '5.0', 'comment_num': '0', 'children': []}}"
西安顺峰驾校报名处,108.75580858596294,34.20508707000672,10bff4705483bbf4f1193764,"{'name': '西安顺峰驾校报名处', 'location': {'lat': 34.209452, 'lng': 108.767087}, 'address': '陕西省西安市长安区马营寨斗细路西安顺峰驾校报名处', 'province': '陕西省', 'city': '西安市', 'area': '长安区', 'telephone': '15991851889', 'detail': 1, 'uid': '10bff4705483bbf4f1193764', 'detail_info': {'tag': '教育培训;培训机构', 'type': 'education', 'detail_url': 'http://api.map.baidu.com/place/detail?uid=10bff4705483bbf4f1193764&output=html&source=placeapi_v2', 'overall_rating': '5.0', 'children': []}}"
"{'name': '西安顺峰驾校报名处', 'location': {'lat': 34.209452, 'lng': 108.767087}, 'address': '陕西省西安市长安区马营寨斗细路西安顺峰驾校报名处', 'province': '陕西省', 'city': '西安市', 'area': '长安区', 'telephone': '15991851889', 'detail': 1, 'uid': '10bff4705483bbf4f1193764', 'detail_info': {'tag': '教育培训;培训机构', 'type': 'education', 'detail_url': 'http://api.map.baidu.com/place/detail?uid=10bff4705483bbf4f1193764&output=html&source=placeapi_v2', 'overall_rating': '5.0', 'children': []}}"
西安和爱中老年养生学院,108.7658064587164,34.229044507544145,6792a4699469933ba6c75657,"{'name': '西安和爱中老年养生学院', 'location': {'lat': 34.233301, 'lng': 108.777137}, 'address': '陕西省西安市长安区359乡道花园一号垂钓园', 'province': '陕西省', 'city': '西安市', 'area': '长安区', 'detail': 1, 'uid': '6792a4699469933ba6c75657', 'detail_info': {'tag': '教育培训;培训机构', 'navi_location': {'lng': 108.77710809638, 'lat': 34.232839209779}, 'type': 'education', 'detail_url': 'http://api.map.baidu.com/place/detail?uid=6792a4699469933ba6c75657&output=html&source=placeapi_v2', 'children': []}}"
"{'name': '西安和爱中老年养生学院', 'location': {'lat': 34.233301, 'lng': 108.777137}, 'address': '陕西省西安市长安区359乡道花园一号垂钓园', 'province': '陕西省', 'city': '西安市', 'area': '长安区', 'detail': 1, 'uid': '6792a4699469933ba6c75657', 'detail_info': {'tag': '教育培训;培训机构', 'navi_location': {'lng': 108.77710809638, 'lat': 34.232839209779}, 'type': 'education', 'detail_url': 'http://api.map.baidu.com/place/detail?uid=6792a4699469933ba6c75657&output=html&source=placeapi_v2', 'children': []}}"
西安医药科技学校,108.78735797968267,34.29420673736985,2848ffd6d381b10f48cc4a62,"{'name': '西安医药科技学校', 'location': {'lat': 34.298479, 'lng': 108.798631}, 'address': '陕西省西安市长安区三桥后围寨工业园区一号路', 'province': '陕西省', 'city': '西安市', 'area': '长安区', 'street_id': '2848ffd6d381b10f48cc4a62', 'telephone': '(029)84514461', 'detail': 1, 'uid': '2848ffd6d381b10f48cc4a62', 'detail_info': {'tag': '教育培训;培训机构', 'navi_location': {'lng': 108.79854828995, 'lat': 34.297548837231}, 'type': 'education', 'detail_url': 'http://api.map.baidu.com/place/detail?uid=2848ffd6d381b10f48cc4a62&output=html&source=placeapi_v2', 'overall_rating': '5.0', 'comment_num': '1', 'children': []}}"
"{'name': '西安医药科技学校', 'location': {'lat': 34.298479, 'lng': 108.798631},