[{"name": "\u897f\u5b89\u665a\u62a5\u793e", "location": {"lat": 34.258723, "lng": 108.943471}, "address": "\u897f\u5b89\u5e02\u7891\u6797\u533a\u592a\u9633\u5e99\u95e843\u53f7", "street_id": "53cebd50e67690612a02e106", "detail": 1, "uid": "53cebd50e67690612a02e106", "detail_info": {"tag": "\u6587\u5316\u4f20\u5a92;\u65b0\u95fb\u51fa\u7248", "navi_location": {"lng": 108.94335407726, "lat": 34.258603578506}, "type": "enterprise", "detail_url": "http://api.map.baidu.com/place/detail?uid=53cebd50e67690612a02e106&output=html&source=placeapi_v2"}}, {"name": "\u897f\u5b89\u65e5\u62a5\u793e", "location": {"lat": 34.258756, "lng": 108.943405}, "address": "\u9655\u897f\u7701\u897f\u5b89\u5e02\u7891\u6797\u533a\u592a\u9633\u5e99\u95e843\u53f7", "street_id": "df3df4a1453b4a72b13c813f", "detail": 1, "uid": "bd5046e8f0432841d72ce206", "detail_info": {"tag": "\u6587\u5316\u4f20\u5a92;\u65b0\u95fb\u51fa\u7248", "navi_location": {"lng": 108.94338094199, "lat": 34.258604010762}, "type": "enterprise", "detail_url": "http://api.map.baidu.com/place/detail?uid=bd5046e8f0432841d72ce206&output=html&source=placeapi_v2"}}, {"name": "\u6c38\u5b81\u56fd\u9645\u7f8e\u672f\u9986", "location": {"lat": 34.258679, "lng": 108.952206}, "address": "\u5357\u5927\u88572\u53f7", "street_id": "b821a65f7dd57caff90cad64", "detail": 1, "uid": "b821a65f7dd57caff90cad64", "detail_info": {"tag": "\u6587\u5316\u4f20\u5a92;\u7f8e\u672f\u9986", "type": "scope", "detail_url": "http://api.map.baidu.com/place/detail?uid=b821a65f7dd57caff90cad64&output=html&source=placeapi_v2", "overall_rating": "4.3", "comment_num": "3"}}, {"name": "\u5112\u5ba2\u4f20\u5a92", "location": {"lat": 34.26364, "lng": 108.94886}, "address": "\u897f\u5b89\u5e02\u7891\u6797\u533a\u9a6c\u574a\u95e88\u53f7", "street_id": "5a0a06a185dda074d12dd6d7", "detail": 1, "uid": "5a0a06a185dda074d12dd6d7", "detail_info": {"tag": "\u6587\u5316\u4f20\u5a92;\u5176\u4ed6", "type": "enterprise", "detail_url": "http://api.map.baidu.com/place/detail?uid=5a0a06a185dda074d12dd6d7&output=html&source=placeapi_v2"}}, {"name": "\u9655\u897f\u5efa\u82d1\u5927\u53a6-\u4f1a\u8bae\u5ba4", "location": {"lat": 34.260839, "lng": 108.94525}, "address": "\u6731\u96c0\u95e8\u91cc\u5357\u5e7f\u6d4e\u885738\u53f7\u9655\u897f\u5efa\u82d1\u5927\u53a6", "street_id": "4552df4d2451634e14b54b6e", "telephone": "(029)87606999", "detail": 1, "uid": "4552df4d2451634e14b54b6e", "detail_info": {"tag": "\u6587\u5316\u4f20\u5a92;\u5c55\u89c8\u9986", "type": "scope", "detail_url": "http://api.map.baidu.com/place/detail?uid=4552df4d2451634e14b54b6e&output=html&source=placeapi_v2"}}, {"name": "\u897f\u5b89\u5317\u5e7f\u6d4e\u8857\u6e05\u771f\u5bfa\u6587\u5316\u4e2d\u5fc3", "location": {"lat": 34.267389, "lng": 108.945898}, "address": "\u5317\u5e7f\u6d4e\u885783\u53f7", "street_id": "b55e5d95bcbe502d167643f6", "detail": 1, "uid": "b55e5d95bcbe502d167643f6", "detail_info": {"tag": "\u6587\u5316\u4f20\u5a92;\u6587\u5316\u5bab", "navi_location": {"lng": 108.94547203462, "lat": 34.267357327604}, "type": "cater", "detail_url": "http://api.map.baidu.com/place/detail?uid=b55e5d95bcbe502d167643f6&output=html&source=placeapi_v2"}}, {"name": "\u6e58\u5b50\u5e9970#\u7f8e\u672f\u9986", "location": {"lat": 34.258485, "lng": 108.948517}, "address": "\u9655\u897f\u7701\u897f\u5b89\u5e02\u7891\u6797\u533a\u6e58\u5b50\u5e9970\u53f7\u7f8e\u672f\u9986(\u73af\u57ce\u516c\u56ed\u9644\u8fd1)", "street_id": "d8a6d2d7f943f3b949fd3f15", "telephone": "029-87269787", "detail": 1, "uid": "d8a6d2d7f943f3b949fd3f15", "detail_info": {"tag": "\u6587\u5316\u4f20\u5a92;\u7f8e\u672f\u9986", "navi_location": {"lng": 108.94845974844, "lat": 34.25867157568}, "type": "scope", "detail_url": "http://api.map.baidu.com/place/detail?uid=d8a6d2d7f943f3b949fd3f15&output=html&source=placeapi_v2", "overall_rating": "4.0", "comment_num": "1"}}, {"name": "\u897f\u5b89\u65e5\u62a5-\u897f\u5b89\u665a\u62a5", "location": {"lat": 34.258785, "lng": 108.943389}, "address": "\u592a\u9633\u5e99\u95e843\u53f7", "street_id": "7ee81bda7cff9ab649fc8d03", "detail": 1, "uid": "cedefade9c28d3da16c905b1", "detail_info": {"tag": "\u6587\u5316\u4f20\u5a92;\u65b0\u95fb\u51fa\u7248", "type": "enterprise", "detail_url": "http://api.map.baidu.com/place/detail?uid=cedefade9c28d3da16c905b1&output=html&source=placeapi_v2", "price": "100"}}, {"name": "\u5929\u4fdd\u827a\u672f\u4e2d\u5fc3", "location": {"lat": 34.263909, "lng": 108.942241}, "address": "\u7409\u7483\u88571\u53f7", "street_id": "7698caea4079a703cafa5f05", "detail": 1, "uid": "7698caea4079a703cafa5f05", "detail_info": {"tag": "\u6587\u5316\u4f20\u5a92;\u7f8e\u672f\u9986", "type": "scope", "detail_url": "http://api.map.baidu.com/place/detail?uid=7698caea4079a703cafa5f05&output=html&source=placeapi_v2", "comment_num": "0"}}, {"name": "\u9655\u897f\u5e74\u9274\u793e", "location": {"lat": 34.265305, "lng": 108.947813}, "address": "\u7891\u6797\u533a\u897f\u5927\u885770\u53f7", "street_id": "c61bd305e1299d69c37da2ae", "detail": 1, "uid": "c61bd305e1299d69c37da2ae", "detail_info": {"tag": "\u6587\u5316\u4f20\u5a92;\u65b0\u95fb\u51fa\u7248", "type": "life", "detail_url": "http://api.map.baidu.com/place/detail?uid=c61bd305e1299d69c37da2ae&output=html&source=placeapi_v2", "image_num": "1"}}, {"name": "\u897f\u5b89\u4e09\u79e6\u9752\u5c11\u5e74\u6587\u5316\u4ea4\u6d41\u4e2d\u5fc3", "location": {"lat": 34.267791, "lng": 108.936058}, "address": "\u897f\u5927\u8857\u8d21\u9662\u95e8\u513f\u7ae5\u516c\u56ed\u79d1\u6280\u9986\u4e09\u697c", "street_id": "2432d7e1037eeed11188249c", "detail": 1, "uid": "2432d7e1037eeed11188249c", "detail_info": {"tag": "\u6587\u5316\u4f20\u5a92;\u6587\u5316\u5bab", "type": "education", "detail_url": "http://api.map.baidu.com/place/detail?uid=2432d7e1037eeed11188249c&output=html&source=placeapi_v2", "price": "0"}}, {"name": "\u9526\u8fbe\u5de5\u827a\u5236\u4f5c\u4e2d\u5fc3", "location": {"lat": 34.26452, "lng": 108.948701}, "address": "\u4e2d\u73af\u5e7f\u573aC\u5ea7102\u53f7", "street_id": "8c2a4c08672db336e311038f", "telephone": "029-83791880|029-87257460|13891925785", "detail": 1, "uid": "8c2a4c08672db336e311038f", "detail_info": {"tag": "\u6587\u5316\u4f20\u5a92", "navi_location": {"lng": 108.94853957906, "lat": 34.263772247576}, "type": "shopping", "detail_url": "http://api.map.baidu.com/place/detail?uid=8c2a4c08672db336e311038f&output=html&source=placeapi_v2", "price": "0"}}, {"name": "\u5915\u9633\u7ea2\u4e2d\u8001\u5e74\u6d3b\u52a8\u7ad9", "location": {"lat": 34.260813, "lng": 108.939313}, "address": "\u51b0\u7a91\u5df748\u53f7", "street_id": "30ef6a1411acad87deee8be6", "detail": 1, "uid": "30ef6a1411acad87deee8be6", "detail_info": {"tag": "\u6587\u5316\u4f20\u5a92;\u6587\u5316\u5bab", "navi_location": {"lng": 108.93930895725, "lat": 34.260515593496}, "type": "life", "detail_url": "http://api.map.baidu.com/place/detail?uid=30ef6a1411acad87deee8be6&output=html&source=placeapi_v2", "image_num": "5", "comment_num": "0"}}, {"name": "\u897f\u5b89\u5e02\u4e07\u5409\u5a5a\u5e86\u4e07\u5409\u6587\u5316\u4f20\u64ad\u6709\u9650\u516c\u53f8", "location": {"lat": 34.265231, "lng": 108.936026}, "address": "\u897f\u5b89\u5e02\u897f\u5927\u8857\u5b8f\u5e9c\u5927\u53a6\u5b89\u5b9a\u95e8\u5e7f\u573a4\u53f7\u697c2\u5355\u5143420\u5ba4", "street_id": "c08ee75f711b97e7fc0eb0f6", "detail": 1, "uid": "c08ee75f711b97e7fc0eb0f6", "detail_info": {"tag": "\u516c\u53f8\u4f01\u4e1a;\u516c\u53f8", "type": "enterprise", "detail_url": "http://api.map.baidu.com/place/detail?uid=c08ee75f711b97e7fc0eb0f6&output=html&source=placeapi_v2"}}, {"name": "\u60a6\u8bda\u5e7f\u544a(\u6587\u5316\u4f20\u64ad\u6709\u9650\u516c\u53f8)", "location": {"lat": 34.267983, "lng": 108.938918}, "address": "\u9655\u897f\u7701\u897f\u5b89\u5e02\u83b2\u6e56\u533a\u5927\u9ea6\u5e02\u885774", "street_id": "448848241d77879f843304be", "detail": 1, "uid": "448848241d77879f843304be", "detail_info": {"tag": "\u6587\u5316\u4f20\u5a92;\u5176\u4ed6", "type": "enterprise", "detail_url": "http://api.map.baidu.com/place/detail?uid=448848241d77879f843304be&output=html&source=placeapi_v2"}}, {"name": "\u9655\u897f\u65e5\u62a5\u793e\u5e7f\u544a\u4e2d\u5fc3(\u4e66\u9662\u95e8\u6b65\u884c\u8857)", "location": {"lat": 34.259713, "lng": 108.953927}, "address": "\u5357\u5927\u88573\u53f7\u535a\u6c34\u5546\u52a1\u5927\u53a6\u5317\u697cC\u5ea74\u5c42\u548c\u897f\u697cB\u5ea74\u5c42", "street_id": "48e6e4a903e256995e17c351", "detail": 1, "uid": "48e6e4a903e256995e17c351", "detail_info": {"tag": "\u6587\u5316\u4f20\u5a92;\u65b0\u95fb\u51fa\u7248", "type": "enterprise", "detail_url": "http://api.map.baidu.com/place/detail?uid=48e6e4a903e256995e17c351&output=html&source=placeapi_v2"}}, {"name": "\u9655\u897f\u5efa\u82d1\u5927\u53a6-\u591a\u529f\u80fd\u5385", "location": {"lat": 34.260839, "lng": 108.94525}, "address": "\u6731\u96c0\u95e8\u91cc\u5357\u5e7f\u6d4e\u885738\u53f7\u9655\u897f\u5efa\u82d1\u5927\u53a6", "street_id": "894507cdd9a84f604e554701", "telephone": "(029)87606999", "detail": 1, "uid": "894507cdd9a84f604e554701", "detail_info": {"tag": "\u6587\u5316\u4f20\u5a92;\u5c55\u89c8\u9986", "type": "scope", "detail_url": "http://api.map.baidu.com/place/detail?uid=894507cdd9a84f604e554701&output=html&source=placeapi_v2"}}, {"name": "\u4e2d\u56fd\u7535\u5b50\u540d\u7247\u7f51", "location": {"lat": 34.256498, "lng": 108.943918}, "address": "\u73af\u57ce\u5357\u8def\u897f\u6bb533\u53f7\u65fa\u56ed\u5927\u53a6A508", "street_id": "dd5ece86e83352ccd0ff2341", "detail": 1, "uid": "dd5ece86e83352ccd0ff2341", "detail_info": {"tag": "\u6587\u5316\u4f20\u5a92", "type": "enterprise", "detail_url": "http://api.map.baidu.com/place/detail?uid=dd5ece86e83352ccd0ff2341&output=html&source=placeapi_v2"}}, {"name": "\u300a\u7a0e\u6536\u4e0e\u793e\u4f1a\u300b\u6742\u5fd7\u793e", "location": {"lat": 34.263499, "lng": 108.938631}, "address": "\u542b\u5149\u885728\u53f7\u534e\u6c47\u5927\u53a67\u5c42", "street_id": "611199de50dacd5d96ca0773", "detail": 1, "uid": "611199de50dacd5d96ca0773", "detail_info": {"tag": "\u6587\u5316\u4f20\u5a92;\u65b0\u95fb\u51fa\u7248", "type": "enterprise", "detail_url": "http://api.map.baidu.com/place/detail?uid=611199de50dacd5d96ca0773&output=html&source=placeapi_v2"}}, {"name": "\u897f\u5b89\u524d\u4eac\u5370\u5237\u5382\u4e1a\u52a1\u5904", "location": {"lat": 34.265311, "lng": 108.947584}, "address": "\u897f\u5927\u885774", "street_id": "10354c0c79860a90a11de921", "detail": 1, "uid": "10354c0c79860a90a11de921", "detail_info": {"tag": "\u6587\u5316\u4f20\u5a92", "type": "enterprise", "detail_url": "http://api.map.baidu.com/place/detail?uid=10354c0c79860a90a11de921&output=html&source=placeapi_v2"}}, {"name": "\u897f\u5b89\u62a5\u53cb\u6587\u5316\u4f20\u64ad\u6709\u9650\u8d23\u4efb\u516c\u53f8", "location": {"lat": 34.259159, "lng": 108.942733}, "address": "\u9655\u897f\u7701\u897f\u5b89\u5e02\u7891\u6797\u533a\u56db\u5e9c\u88579\u53f7", "street_id": "140c441e70809abb3a13fd89", "detail": 1, "uid": "140c441e70809abb3a13fd89", "detail_info": {"tag": "\u6587\u5316\u4f20\u5a92;\u5176\u4ed6", "type": "enterprise", "detail_url": "http://api.map.baidu.com/place/detail?uid=140c441e70809abb3a13fd89&output=html&source=placeapi_v2"}}, {"name": "\u5c0f\u5929\u9e45(\u897f\u5927\u8857\u5e97)", "location": {"lat": 34.266766, "lng": 108.937337}, "address": "\u897f\u5b89\u83b2\u6e56\u533a\u4e1c\u4e3e\u9662\u5df71\u53f7", "street_id": "d5109807521fca5d84154164", "detail": 1, "uid": "d5109807521fca5d84154164", "detail_info": {"tag": "\u6587\u5316\u4f20\u5a92;\u827a\u672f\u56e2\u4f53", "type": "enterprise", "detail_url": "http://api.map.baidu.com/place/detail?uid=d5109807521fca5d84154164&output=html&source=placeapi_v2"}}, {"name": "\u9655\u897f\u7701\u6c11\u95f4\u827a\u672f\u6536\u85cf\u534f\u4f1a-\u4e66\u753b\u827a\u672f\u54c1\u4ea4\u6d41\u4e2d\u5fc3", "location": {"lat": 34.258781, "lng": 108.949491}, "address": "\u6e58\u5b50\u5e99\u885785\u53f7", "street_id": "b4fc21d2f7115f7c6140a945", "detail": 1, "uid": "b4fc21d2f7115f7c6140a945", "detail_info": {"tag": "\u6587\u5316\u4f20\u5a92;\u5c55\u89c8\u9986", "navi_location": {"lng": 108.94952169916, "lat": 34.258712260654}, "type": "life", "detail_url": "http://api.map.baidu.com/place/detail?uid=b4fc21d2f7115f7c6140a945&output=html&source=placeapi_v2", "image_num": "1"}}, {"name": "\u91d1\u82b1\u8c6a\u751f\u56fd\u9645\u5927\u9152\u5e97-\u4f1a\u8bae\u5ba4", "location": {"lat": 34.256685, "lng": 108.949833}, "address": "\u73af\u57ce\u5357\u8def\u897f\u6bb518\u53f7\u91d1\u82b1\u8c6a\u751f\u56fd\u9645\u5927\u9152\u5e973\u5c42", "street_id": "8afefcf99b29c6283310af78", "telephone": "(029)88181111", "detail": 1, "uid": "8afefcf99b29c6283310af78", "detail_info": {"tag": "\u6587\u5316\u4f20\u5a92;\u5c55\u89c8\u9986", "type": "scope", "detail_url": "http://api.map.baidu.com/place/detail?uid=8afefcf99b29c6283310af78&output=html&source=placeapi_v2"}}, {"name": "\u9655\u897f\u65e5\u62a5\u5e7f\u544a\u4e2d\u5fc3", "location": {"lat": 34.259716, "lng": 108.953934}, "address": "\u5357\u5927\u88573\u53f7\u535a\u6c34\u5546\u52a1\u5927\u53a6\u897f\u697cB\u5ea74\u5c42\u3001\u5317\u697cC\u5ea74\u5c42", "street_id": "2b6ce61643eaf1d617c8f66b", "detail": 1, "uid": "2b6ce61643eaf1d617c8f66b", "detail_info": {"tag": "\u6587\u5316\u4f20\u5a92;\u65b0\u95fb\u51fa\u7248", "type": "enterprise", "detail_url": "http://api.map.baidu.com/place/detail?uid=2b6ce61643eaf1d617c8f66b&output=html&source=placeapi_v2"}}, {"name": "\u72fc\u667a\u6587\u5316\u4f20\u5a92\u673a\u6784", "location": {"lat": 34.257242, "lng": 108.929113}, "address": "\u4e30\u5e86\u8def1A\u9ea6\u5c14\u65af\u8d22\u5bcc\u5e7f\u573a15\u5c42", "street_id": "0f367884fd0f9627250bd06b", "detail": 1, "uid": "0f367884fd0f9627250bd06b", "detail_info": {"tag": "\u6559\u80b2\u57f9\u8bad;\u57f9\u8bad\u673a\u6784", "type": "enterprise", "detail_url": "http://api.map.baidu.com/place/detail?uid=0f367884fd0f9627250bd06b&output=html&source=placeapi_v2"}}, {"name": "\u9655\u897f\u8f7b\u821f\u6587\u5316\u4f20\u5a92\u6709\u9650\u516c\u53f8", "location": {"lat": 34.261939, "lng": 108.951555}, "address": "\u9655\u897f\u7701\u897f\u5b89\u5e02\u7891\u6797\u533a\u7c89\u5df75\u53f7", "street_id": "8db476f19909de721e1d1192", "detail": 1, "uid": "8db476f19909de721e1d1192", "detail_info": {"tag": "\u6587\u5316\u4f20\u5a92;\u5176\u4ed6", "type": "enterprise", "detail_url": "http://api.map.baidu.com/place/detail?uid=8db476f19909de721e1d1192&output=html&source=placeapi_v2"}}, {"name": "\u8363\u6c11\u56fd\u9645\u996d\u5e97-\u5546\u52a1\u4e2d\u5fc3", "location": {"lat": 34.265316, "lng": 108.943961}, "address": "\u897f\u5927\u8857126\u53f7\u8363\u6c11\u56fd\u9645\u996d\u5e97", "street_id": "66b10ac1884ad16ec51e51f8", "detail": 1, "uid": "66b10ac1884ad16ec51e51f8", "detail_info": {"tag": "\u6587\u5316\u4f20\u5a92", "type": "enterprise", "detail_url": "http://api.map.baidu.com/place/detail?uid=66b10ac1884ad16ec51e51f8&output=html&source=placeapi_v2"}}, {"name": "\u5b9e\u7528\u653e\u5c04\u5b66\u6742\u5fd7\u793e", "location": {"lat": 34.256773, "lng": 108.94829}, "address": "\u73af\u57ce\u5357\u8def20\u53f7\u6d77\u8054\u5927\u53a66\u5c4205", "street_id": "f78aed2764c5758df11937d9", "detail": 1, "uid": "f78aed2764c5758df11937d9", "detail_info": {"tag": "\u6587\u5316\u4f20\u5a92;\u65b0\u95fb\u51fa\u7248", "type": "enterprise", "detail_url": "http://api.map.baidu.com/place/detail?uid=f78aed2764c5758df11937d9&output=html&source=placeapi_v2"}}, {"name": "\u9655\u897f\u7ffc\u5929\u6559\u80b2\u6587\u5316\u4f20\u5a92\u6709\u9650\u516c\u53f8", "location": {"lat": 34.256513, "lng": 108.943936}, "address": "\u73af\u57ce\u5357\u8def\u897f\u6bb533\u53f7\u65fa\u56ed\u5927\u53a6B2101", "street_id": "b3fbf9aaa91dbebdd13ce387", "detail": 1, "uid": "b3fbf9aaa91dbebdd13ce387", "detail_info": {"tag": "\u6587\u5316\u4f20\u5a92;\u5176\u4ed6", "type": "enterprise", "detail_url": "http://api.map.baidu.com/place/detail?uid=b3fbf9aaa91dbebdd13ce387&output=html&source=placeapi_v2"}}, {"name": "\u66f9\u94d6\u4e66\u6cd5\u827a\u672f\u9986", "location": {"lat": 34.260005, "lng": 108.953776}, "address": "\u897f\u5b89\u5e02\u7891\u6797\u533a\u5357\u5927\u8857", "street_id": "5302aaa79c055a89abf0cd85", "detail": 1, "uid": "5302aaa79c055a89abf0cd85", "detail_info": {"tag": "\u6587\u5316\u4f20\u5a92;\u7f8e\u672f\u9986", "navi_location": {"lng": 108.9535418948, "lat": 34.259992212036}, "type": "scope", "detail_url": "http://api.map.baidu.com/place/detail?uid=5302aaa79c055a89abf0cd85&output=html&source=placeapi_v2", "overall_rating": "0"}}, {"name": "\u534e\u822a\u98ce\u683c\u9152\u5e97-\u5546\u52a1\u4e2d\u5fc3", "location": {"lat": 34.262749, "lng": 108.953875}, "address": "\u5357\u5927\u88578\u53f7\u534e\u822a\u98ce\u683c\u9152\u5e97\u5185", "street_id": "edd5e36606612d8e6fa3cc5a", "telephone": "(029)87687000", "detail": 1, "uid": "edd5e36606612d8e6fa3cc5a", "detail_info": {"tag": "\u6587\u5316\u4f20\u5a92", "navi_location": {"lng": 108.95353919629, "lat": 34.262778365536}, "type": "enterprise", "detail_url": "http://api.map.baidu.com/place/detail?uid=edd5e36606612d8e6fa3cc5a&output=html&source=placeapi_v2"}}, {"name": "\u4eba\u6c11\u65e5\u62a5\u5927\u5730\u520a\u9655\u897f\u7ad9", "location": {"lat": 34.262052, "lng": 108.942126}, "address": "\u4e94\u661f\u88571\u53f7\u4e07\u5fb7\u5546\u52a1\u4e2d\u5fc34\u5c42B-03", "street_id": "d504abd1d8dd01bee81e97ae", "detail": 1, "uid": "d504abd1d8dd01bee81e97ae", "detail_info": {"tag": "\u6587\u5316\u4f20\u5a92;\u65b0\u95fb\u51fa\u7248", "type": "enterprise", "detail_url": "http://api.map.baidu.com/place/detail?uid=d504abd1d8dd01bee81e97ae&output=html&source=placeapi_v2"}}, {"name": "\u9655\u897f\u6bd4\u8f83\u6587\u5316\u4f20\u64ad\u6709\u9650\u516c\u53f8", "location": {"lat": 34.267821, "lng": 108.95393}, "address": "\u897f\u4e00\u8def290\u53f7\u91d1\u949f\u5927\u53a6A\u5ea71-2\u5c42", "street_id": "2253a12c5de4f1ad4002454e", "detail": 1, "uid": "2253a12c5de4f1ad4002454e", "detail_info": {"tag": "\u6587\u5316\u4f20\u5a92;\u5176\u4ed6", "type": "enterprise", "detail_url": "http://api.map.baidu.com/place/detail?uid=2253a12c5de4f1ad4002454e&output=html&source=placeapi_v2"}}, {"name": "\u601d\u516b\u8fbe\u6587\u5316\u827a\u672f\u4f20\u5a92\u6709\u9650\u8d23\u4efb\u516c\u53f8", "location": {"lat": 34.269969, "lng": 108.928777}, "address": "\u73af\u57ce\u897f\u8def\u5317\u6bb5240\u53f7\u946b\u76db\u5927\u53a6A\u5ea710\u5c42A10-4", "street_id": "07cf1f185ffcb92e6268583c", "detail": 1, "uid": "07cf1f185ffcb92e6268583c", "detail_info": {"tag": "\u6587\u5316\u4f20\u5a92;\u5176\u4ed6", "navi_location": {"lng": 108.92887606759, "lat": 34.269970178922}, "type": "enterprise", "detail_url": "http://api.map.baidu.com/place/detail?uid=07cf1f185ffcb92e6268583c&output=html&source=placeapi_v2"}}, {"name": "\u65b0\u519c\u6751\u5546\u62a5\u4e13\u520a\u90e8", "location": {"lat": 34.26898, "lng": 108.928788}, "address": "\u73af\u57ce\u897f\u8def\u5317\u6bb5218\u53f7\u878d\u5408\u5927\u53a6A\u5ea76\u5c42617", "street_id": "ba1c1f1b8cbd500affa7784f", "detail": 1, "uid": "ba1c1f1b8cbd500affa7784f", "detail_info": {"tag": "\u6587\u5316\u4f20\u5a92;\u65b0\u95fb\u51fa\u7248", "type": "enterprise", "detail_url": "http://api.map.baidu.com/place/detail?uid=ba1c1f1b8cbd500affa7784f&output=html&source=placeapi_v2"}}, {"name": "\u897f\u5b89\u6559\u80b2\u7535\u89c6\u5bb6\u6709\u559c\u4e8b\u680f\u76ee\u7ec4", "location": {"lat": 34.26898, "lng": 108.928788}, "address": "\u73af\u57ce\u897f\u8def\u5317\u6bb5218\u53f7\u878d\u5408\u5927\u53a6A\u5ea75\u5c42504", "street_id": "463a5b3a9c66b3b9373a718d", "detail": 1, "uid": "463a5b3a9c66b3b9373a718d", "detail_info": {"tag": "\u6587\u5316\u4f20\u5a92;\u5e7f\u64ad\u7535\u89c6", "type": "enterprise", "detail_url": "http://api.map.baidu.com/place/detail?uid=463a5b3a9c66b3b9373a718d&output=html&source=placeapi_v2"}}, {"name": "\u91d1\u82b1\u8c6a\u751f\u56fd\u9645\u5927\u9152\u5e97-\u591a\u529f\u80fd\u4f1a\u8bae\u5385", "location": {"lat": 34.256685, "lng": 108.949833}, "address": "\u73af\u57ce\u5357\u8def\u897f\u6bb518\u53f7\u91d1\u82b1\u8c6a\u751f\u56fd\u9645\u5927\u9152\u5e973\u5c42", "street_id": "5e5412abd4752c4fc92915f0", "telephone": "(029)88181111", "detail": 1, "uid": "5e5412abd4752c4fc92915f0", "detail_info": {"tag": "\u6587\u5316\u4f20\u5a92;\u5c55\u89c8\u9986", "type": "scope", "detail_url": "http://api.map.baidu.com/place/detail?uid=5e5412abd4752c4fc92915f0&output=html&source=placeapi_v2"}}, {"name": "\u897f\u5b89\u4e34\u98ce\u6613\u521b\u6587\u5316\u4f20\u64ad\u6709\u9650\u516c\u53f8", "location": {"lat": 34.269967, "lng": 108.928634}, "address": "\u73af\u57ce\u897f\u8def\u5317\u6bb5240\u53f7\u946b\u76db\u5927\u53a6A708", "street_id": "1f509601ac7f1e49a0acc440", "detail": 1, "uid": "1f509601ac7f1e49a0acc440", "detail_info": {"tag": "\u6587\u5316\u4f20\u5a92;\u5176\u4ed6", "type": "enterprise", "detail_url": "http://api.map.baidu.com/place/detail?uid=1f509601ac7f1e49a0acc440&output=html&source=placeapi_v2"}}, {"name": "\u68a6\u5e90\u4e66\u753b\u827a\u672f\u9986", "location": {"lat": 34.265217, "lng": 108.941654}, "address": "\u897f\u5927\u8857160\u53f72\u5c42", "street_id": "157766d276e67a0ea20464d7", "telephone": "(029)62885209", "detail": 1, "uid": "157766d276e67a0ea20464d7", "detail_info": {"tag": "\u6587\u5316\u4f20\u5a92;\u7f8e\u672f\u9986", "type": "scope", "detail_url": "http://api.map.baidu.com/place/detail?uid=157766d276e67a0ea20464d7&output=html&source=placeapi_v2", "comment_num": "0"}}, {"name": "\u897f\u5b89\u5b8f\u6cf0\u5370\u5237\u5382\u4e1a\u52a1\u5904", "location": {"lat": 34.265241, "lng": 108.947715}, "address": "\u897f\u5927\u885774", "street_id": "1122df3eb63abda60b69d9f8", "detail": 1, "uid": "1122df3eb63abda60b69d9f8", "detail_info": {"tag": "\u6587\u5316\u4f20\u5a92", "type": "enterprise", "detail_url": "http://api.map.baidu.com/place/detail?uid=1122df3eb63abda60b69d9f8&output=html&source=placeapi_v2"}}, {"name": "\u9655\u897f\u516b\u4e5d\u70b9\u949f\u5e7f\u544a\u6587\u5316\u4f20\u64ad\u6709\u9650\u516c\u53f8", "location": {"lat": 34.267359, "lng": 108.951971}, "address": "\u793e\u4f1a\u8def3", "street_id": "ea01af8fafd43139601c6768", "detail": 1, "uid": "ea01af8fafd43139601c6768", "detail_info": {"tag": "\u6587\u5316\u4f20\u5a92;\u5176\u4ed6", "type": "enterprise", "detail_url": "http://api.map.baidu.com/place/detail?uid=ea01af8fafd43139601c6768&output=html&source=placeapi_v2"}}, {"name": "\u9655\u897f\u548c\u5408\u667a\u4e1a\u6587\u5316\u4f20\u64ad\u6709\u9650\u516c\u53f8", "location": {"lat": 34.256682, "lng": 108.943789}, "address": "\u73af\u57ce\u5357\u8def\u897f\u6bb533\u53f7\u65fa\u56ed\u5927\u53a6A\u5ea71901\u5ba4", "street_id": "f18facb0269a8379095cb38d", "detail": 1, "uid": "f18facb0269a8379095cb38d", "detail_info": {"tag": "\u6587\u5316\u4f20\u5a92;\u5176\u4ed6", "type": "enterprise", "detail_url": "http://api.map.baidu.com/place/detail?uid=f18facb0269a8379095cb38d&output=html&source=placeapi_v2"}}, {"name": "\u9655\u897f\u597d\u732b\u6587\u5316\u4f20\u64ad\u6709\u9650\u516c\u53f8", "location": {"lat": 34.256435, "lng": 108.947623}, "address": "\u73af\u57ce\u5357\u8def48\u53f7\u57ce\u5e02\u90e6\u666f1-8003", "street_id": "3c4c0bbe97a76908c7f50df9", "detail": 1, "uid": "3c4c0bbe97a76908c7f50df9", "detail_info": {"tag": "\u6587\u5316\u4f20\u5a92;\u5176\u4ed6", "type": "enterprise", "detail_url": "http://api.map.baidu.com/place/detail?uid=3c4c0bbe97a76908c7f50df9&output=html&source=placeapi_v2"}}, {"name": "\u7ecf\u6d4e\u79d1\u5b66\u51fa\u7248\u793e\u9655\u897f\u53d1\u884c\u90e8", "location": {"lat": 34.260357, "lng": 108.942665}, "address": "\u56db\u5e9c\u885741\u9655\u897f\u7701\u6536\u8d39\u8d44\u91d1\u7ba1\u7406\u4e2d\u5fc3\u9644\u8fd1", "street_id": "2aa09daad7a7e07b3be4a6c9", "detail": 1, "uid": "2aa09daad7a7e07b3be4a6c9", "detail_info": {"tag": "\u6587\u5316\u4f20\u5a92;\u65b0\u95fb\u51fa\u7248", "type": "enterprise", "detail_url": "http://api.map.baidu.com/place/detail?uid=2aa09daad7a7e07b3be4a6c9&output=html&source=placeapi_v2"}}, {"name": "\u897f\u5b89\u4e9a\u8fea\u5e7f\u544a\u6587\u5316\u4f20\u64ad\u6709\u9650\u516c\u53f8", "location": {"lat": 34.261338, "lng": 108.945897}, "address": "\u4e94\u5473\u4ec0\u5b5769\u53f7\u4f1f\u4e1a\u5927\u53a6A-13", "street_id": "834df85d11bbf4bbf50e77dd", "detail": 1, "uid": "834df85d11bbf4bbf50e77dd", "detail_info": {"tag": "\u6587\u5316\u4f20\u5a92;\u5176\u4ed6", "type": "enterprise", "detail_url": "http://api.map.baidu.com/place/detail?uid=834df85d11bbf4bbf50e77dd&output=html&source=placeapi_v2"}}, {"name": "\u6bdb\u5dfe\u827a\u672f\u9986(\u4e16\u7eaa\u91d1\u82b1\u7f8e\u5c45\u751f\u6d3b\u5bb6)", "location": {"lat": 34.26484, "lng": 108.938366}, "address": "\u897f\u5927\u8857\u793e\u4f1a\u8def12\u53f7B1\u5c42B43", "street_id": "c88d0c2db308827c4bcc4ac0", "detail": 1, "uid": "c88d0c2db308827c4bcc4ac0", "detail_info": {"tag": "\u6587\u5316\u4f20\u5a92;\u7f8e\u672f\u9986", "type": "scope", "detail_url": "http://api.map.baidu.com/place/detail?uid=c88d0c2db308827c4bcc4ac0&output=html&source=placeapi_v2"}}, {"name": "\u897f\u5b89\u76db\u535a\u5e7f\u544a\u6587\u5316\u4f20\u64ad\u6709\u9650\u516c\u53f8", "location": {"lat": 34.265812, "lng": 108.936071}, "address": "\u4e3e\u4eba\u9601\u5927\u53a6912", "street_id": "4532228a6832825df4b9163b", "detail": 1, "uid": "4532228a6832825df4b9163b", "detail_info": {"tag": "\u6587\u5316\u4f20\u5a92;\u5176\u4ed6", "type": "enterprise", "detail_url": "http://api.map.baidu.com/place/detail?uid=4532228a6832825df4b9163b&output=html&source=placeapi_v2"}}, {"name": "\u897f\u5b89\u5e0c\u671b\u5e7f\u544a\u4f20\u64ad\u6709\u9650\u8d23\u4efb\u516c\u53f8", "location": {"lat": 34.269969, "lng": 108.928777}, "address": "\u73af\u57ce\u897f\u8def\u5317\u6bb5240\u53f7\u946b\u76db\u5927\u53a6A\u5ea74\u5c42A4-06/08", "street_id": "bbe4fcac9b8efba19f82ea8b", "detail": 1, "uid": "bbe4fcac9b8efba19f82ea8b", "detail_info": {"tag": "\u6587\u5316\u4f20\u5a92;\u5176\u4ed6", "navi_location": {"lng": 108.92887606759, "lat": 34.269970178922}, "type": "enterprise", "detail_url": "http://api.map.baidu.com/place/detail?uid=bbe4fcac9b8efba19f82ea8b&output=html&source=placeapi_v2"}}, {"name": "\u897f\u5b89\u8a89\u8f89\u5e7f\u544a\u6587\u5316\u4f20\u64ad\u6709\u9650\u516c\u53f8", "location": {"lat": 34.263529, "lng": 108.939308}, "address": "\u6881\u5bb6\u724c\u697c28\u53f7\u5982\u610f\u5927\u53a69\u5c42", "street_id": "50b9fc122b678f03b21e364c", "detail": 1, "uid": "50b9fc122b678f03b21e364c", "detail_info": {"tag": "\u6587\u5316\u4f20\u5a92;\u5176\u4ed6", "type": "enterprise", "detail_url": "http://api.map.baidu.com/place/detail?uid=50b9fc122b678f03b21e364c&output=html&source=placeapi_v2"}}, {"name": "\u897f\u5b89\u53e4\u6d1b\u8d6b\u8272\u5f69\u6587\u5316\u4f20\u64ad\u6709\u9650\u516c\u53f8", "location": {"lat": 34.26917, "lng": 108.953042}, "address": "\u897f\u5b89\u5e02\u83b2\u6e56\u533a\u5317\u5927\u88571\u53f7\u5b8f\u5e9c\u5609\u4f1a\u5e7f\u573aB\u5ea78014\u5ba4", "street_id": "797e778228290e61d1f49ea6", "detail": 1, "uid": "797e778228290e61d1f49ea6", "detail_info": {"tag": "\u6587\u5316\u4f20\u5a92;\u5176\u4ed6", "type": "enterprise", "detail_url": "http://api.map.baidu.com/place/detail?uid=797e778228290e61d1f49ea6&output=html&source=placeapi_v2"}}, {"name": "\u897f\u5b89\u7231\u8bfa\u5e7f\u544a\u6587\u5316\u4f20\u64ad\u6709\u9650\u516c\u53f8", "location": {"lat": 34.256851, "lng": 108.94819}, "address": "\u9655\u897f\u7701\u897f\u5b89\u5e02\u7891\u6797\u533a\u73af\u57ce\u5357\u8def20\u53f7\u6d77\u8054\u5927\u53a610\u5c4208", "street_id": "68c881f3bd6441d6c17da21a", "detail": 1, "uid": "68c881f3bd6441d6c17da21a", "detail_info": {"tag": "\u6587\u5316\u4f20\u5a92;\u5176\u4ed6", "type": "enterprise", "detail_url": "http://api.map.baidu.com/place/detail?uid=68c881f3bd6441d6c17da21a&output=html&source=placeapi_v2"}}, {"name": "\u9655\u897f\u9f99\u884c\u5929\u4e0b\u6587\u5316\u4f20\u64ad\u6709\u9650\u516c\u53f8", "location": {"lat": 34.264997, "lng": 108.929229}, "address": "\u73af\u57ce\u897f\u8def\u5357\u6bb578\u53f7\u4e1c\u5149\u5927\u53a611\u5c42", "street_id": "83bd16d610246fc9c6effbd5", "detail": 1, "uid": "83bd16d610246fc9c6effbd5", "detail_info": {"tag": "\u516c\u53f8\u4f01\u4e1a;\u516c\u53f8", "type": "enterprise", "detail_url": "http://api.map.baidu.com/place/detail?uid=83bd16d610246fc9c6effbd5&output=html&source=placeapi_v2"}}, {"name": "\u516b\u4e5d\u70b9\u949f\u5e7f\u544a\u6587\u5316\u4f20\u64ad\u6709\u9650\u516c\u53f8(\u5317\u95e8)", "location": {"lat": 34.267357, "lng": 108.951964}, "address": "\u9655\u897f\u7701\u897f\u5b89\u5e02\u83b2\u6e56\u533a\u793e\u4f1a\u8def3\u53f7", "street_id": "8d3dfa8ddbe38c3ac9c3db87", "detail": 1, "uid": "8d3dfa8ddbe38c3ac9c3db87", "detail_info": {"tag": "\u51fa\u5165\u53e3;\u95e8", "type": "life", "detail_url": "http://api.map.baidu.com/place/detail?uid=8d3dfa8ddbe38c3ac9c3db87&output=html&source=placeapi_v2", "overall_rating": "0", "image_num": "1"}}, {"name": "\u5eb7\u7f8e\u6587\u5316\u7ea4\u701b\u670d\u9970\u4f20\u64ad\u4e2d\u5fc3", "location": {"lat": 34.267828, "lng": 108.95393}, "address": "\u897f\u4e00\u8def290\u53f7\u91d1\u949f\u5927\u53a6A\u5ea74\u5c42", "street_id": "10625f9be0c0045f96ca073b", "detail": 1, "uid": "10625f9be0c0045f96ca073b", "detail_info": {"tag": "\u8d2d\u7269;\u5546\u94fa", "type": "enterprise", "detail_url": "http://api.map.baidu.com/place/detail?uid=10625f9be0c0045f96ca073b&output=html&source=placeapi_v2"}}, {"name": "\u9655\u897f\u4eba\u6c11\u51fa\u7248\u793e", "location": {"lat": 34.277387, "lng": 108.953858}, "address": "\u5317\u5927\u8857147\u53f7", "street_id": "d6c5d991aaff349530169bf7", "detail": 1, "uid": "d6c5d991aaff349530169bf7", "detail_info": {"tag": "\u6587\u5316\u4f20\u5a92;\u65b0\u95fb\u51fa\u7248", "navi_location": {"lng": 108.95362287794, "lat": 34.277385018287}, "type": "enterprise", "detail_url": "http://api.map.baidu.com/place/detail?uid=d6c5d991aaff349530169bf7&output=html&source=placeapi_v2"}}, {"name": "\u6b62\u56ed\u996d\u5e97-\u5927\u793c\u5802", "location": {"lat": 34.278614, "lng": 108.945332}, "address": "\u9752\u5e74\u8def111\u53f7", "street_id": "cdbc3a58938b8b0b2bd7ab5a", "telephone": "(029)87688322", "detail": 1, "uid": "cdbc3a58938b8b0b2bd7ab5a", "detail_info": {"tag": "\u6587\u5316\u4f20\u5a92;\u5c55\u89c8\u9986", "navi_location": {"lng": 108.94534134285, "lat": 34.278455252037}, "type": "scope", "detail_url": "http://api.map.baidu.com/place/detail?uid=cdbc3a58938b8b0b2bd7ab5a&output=html&source=placeapi_v2"}}, {"name": "\u9655\u897f\u79d1\u6280\u62a5\u793e", "location": {"lat": 34.279863, "lng": 108.942137}, "address": "\u897f\u836f\u738b\u6d1e155\u53f7", "street_id": "606ab0d0c16c092a0e3dda06", "detail": 1, "uid": "606ab0d0c16c092a0e3dda06", "detail_info": {"tag": "\u6587\u5316\u4f20\u5a92;\u65b0\u95fb\u51fa\u7248", "navi_location": {"lng": 108.94214056982, "lat": 34.279723914787}, "type": "enterprise", "detail_url": "http://api.map.baidu.com/place/detail?uid=606ab0d0c16c092a0e3dda06&output=html&source=placeapi_v2"}}, {"name": "\u9633\u5149\u62a5\u793e", "location": {"lat": 34.285598, "lng": 108.953267}, "address": "\u9655\u897f\u7701\u897f\u5b89\u5e02\u5317\u5173\u6b63\u885722\u53f73", "street_id": "5ce2637d5294ea51ae31e506", "telephone": "(029)86262269", "detail": 1, "uid": "5ce2637d5294ea51ae31e506", "detail_info": {"tag": "\u6587\u5316\u4f20\u5a92;\u65b0\u95fb\u51fa\u7248", "type": "enterprise", "detail_url": "http://api.map.baidu.com/place/detail?uid=5ce2637d5294ea51ae31e506&output=html&source=placeapi_v2"}}, {"name": "\u73af\u57ce\u897f\u8def\u5de5\u4eba\u6587\u5316\u5bab", "location": {"lat": 34.272015, "lng": 108.928739}, "address": "\u73af\u57ce\u897f\u8def\u5317\u6bb5300", "street_id": "61e46963b44c3b23ad080f07", "detail": 1, "uid": "61e46963b44c3b23ad080f07", "detail_info": {"tag": "\u6587\u5316\u4f20\u5a92;\u6587\u5316\u5bab", "navi_location": {"lng": 108.92886419649, "lat": 34.272114103858}, "type": "life", "detail_url": "http://api.map.baidu.com/place/detail?uid=61e46963b44c3b23ad080f07&output=html&source=placeapi_v2", "image_num": "5", "comment_num": "0"}}, {"name": "\u9655\u897f\u5de5\u4eba\u62a5\u793e", "location": {"lat": 34.276066, "lng": 108.937018}, "address": "\u83b2\u6e56\u8def239\u53f7\u804c\u65c5\u5927\u53a6", "street_id": "f3c2373c64c91952d22dd606", "detail": 1, "uid": "f3c2373c64c91952d22dd606", "detail_info": {"tag": "\u6587\u5316\u4f20\u5a92;\u65b0\u95fb\u51fa\u7248", "type": "enterprise", "detail_url": "http://api.map.baidu.com/place/detail?uid=f3c2373c64c91952d22dd606&output=html&source=placeapi_v2"}}, {"name": "\u9655\u897f\u6559\u80b2\u62a5\u520a\u793e", "location": {"lat": 34.279856, "lng": 108.942336}, "address": "\u836f\u738b\u6d1e155\u53f7", "street_id": "f2473456bed96d807369d336", "detail": 1, "uid": "f2473456bed96d807369d336", "detail_info": {"tag": "\u6587\u5316\u4f20\u5a92;\u65b0\u95fb\u51fa\u7248", "navi_location": {"lng": 108.94229655698, "lat": 34.279726481039}, "type": "enterprise", "detail_url": "http://api.map.baidu.com/place/detail?uid=f2473456bed96d807369d336&output=html&source=placeapi_v2"}}, {"name": "\u9655\u897f\u79d1\u5b66\u6280\u672f\u51fa\u7248\u793e", "location": {"lat": 34.277818, "lng": 108.954097}, "address": "\u9655\u897f\u7701\u897f\u5b89\u5e02\u65b0\u57ce\u533a\u5317\u5927\u8857157", "street_id": "e93761f6a885980e223bf26c", "detail": 1, "uid": "e93761f6a885980e223bf26c", "detail_info": {"tag": "\u6587\u5316\u4f20\u5a92;\u65b0\u95fb\u51fa\u7248", "type": "enterprise", "detail_url": "http://api.map.baidu.com/place/detail?uid=e93761f6a885980e223bf26c&output=html&source=placeapi_v2"}}, {"name": "\u897f\u5b89\u5e02\u73af\u57ce\u897f\u8def\u5de5\u4eba\u6587\u5316\u5bab\u6b4c\u821e\u5385", "location": {"lat": 34.272171, "lng": 108.928506}, "address": "\u73af\u57ce\u897f\u8def300\u53f7", "street_id": "13a4052ab2373140b05c6a45", "detail": 1, "uid": "13a4052ab2373140b05c6a45", "detail_info": {"tag": "\u6587\u5316\u4f20\u5a92;\u6587\u5316\u5bab", "type": "life", "detail_url": "http://api.map.baidu.com/place/detail?uid=13a4052ab2373140b05c6a45&output=html&source=placeapi_v2", "overall_rating": "3.0", "image_num": "1", "comment_num": "1"}}, {"name": "\u4e09\u79e6\u90fd\u5e02\u62a5(\u83b2\u6e56\u53d1\u884c\u7ad9)", "location": {"lat": 34.278481, "lng": 108.944787}, "address": "\u9752\u5e74\u4e00\u5df718", "street_id": "28facafb5d777336130daac8", "telephone": "(029)87339107", "detail": 1, "uid": "28facafb5d777336130daac8", "detail_info": {"tag": "\u6587\u5316\u4f20\u5a92;\u65b0\u95fb\u51fa\u7248", "type": "enterprise", "detail_url": "http://api.map.baidu.com/place/detail?uid=28facafb5d777336130daac8&output=html&source=placeapi_v2"}}, {"name": "\u592a\u767d\u6587\u827a\u51fa\u7248\u793e", "location": {"lat": 34.277789, "lng": 108.954097}, "address": "\u897f\u5b89\u5e02\u65b0\u57ce\u533a\u5317\u5927\u8857147\u53f7", "street_id": "108b1cea902f17ad3586f41e", "detail": 1, "uid": "108b1cea902f17ad3586f41e", "detail_info": {"tag": "\u6587\u5316\u4f20\u5a92;\u65b0\u95fb\u51fa\u7248", "type": "enterprise", "detail_url": "http://api.map.baidu.com/place/detail?uid=108b1cea902f17ad3586f41e&output=html&source=placeapi_v2"}}, {"name": "\u9655\u897f\u4e1d\u7ef8\u4e4b\u8def\u6587\u5316\u4ea4\u6d41\u4e2d\u5fc3", "location": {"lat": 34.274953, "lng": 108.938377}, "address": "\u9655\u897f\u7701\u897f\u5b89\u5e02\u83b2\u6e56\u533a\u83b2\u6e56\u8def172\u53f7", "street_id": "5d0246515a73ef92223bf2d9", "detail": 1, "uid": "5d0246515a73ef92223bf2d9", "detail_info": {"tag": "\u6587\u5316\u4f20\u5a92;\u6587\u5316\u5bab", "type": "life", "detail_url": "http://api.map.baidu.com/place/detail?uid=5d0246515a73ef92223bf2d9&output=html&source=placeapi_v2", "image_num": "3"}}, {"name": "\u9655\u897f\u4eba\u6c11\u51fa\u7248\u793e\u56fe\u4e66\u53d1\u884c\u95e8\u5e02\u90e8", "location": {"lat": 34.277537, "lng": 108.953858}, "address": "\u5317\u5927\u8857151\u53f7", "street_id": "6108521138ecf2b8c51b75c6", "telephone": "(029)87287423", "detail": 1, "uid": "6108521138ecf2b8c51b75c6", "detail_info": {"tag": "\u6587\u5316\u4f20\u5a92;\u65b0\u95fb\u51fa\u7248", "type": "shopping", "detail_url": "http://api.map.baidu.com/place/detail?uid=6108521138ecf2b8c51b75c6&output=html&source=placeapi_v2", "overall_rating": "3.0", "comment_num": "5"}}, {"name": "\u4e16\u7eaa\u5c71\u6c34\u9152\u5e97-\u5546\u52a1\u4e2d\u5fc3", "location": {"lat": 34.272941, "lng": 108.953124}, "address": "\u5317\u5927\u885788\u53f7\u4e16\u7eaa\u5c71\u6c34\u9152\u5e97", "street_id": "ea0e704fe6c721fdc72ba152", "telephone": "(029)87373388", "detail": 1, "uid": "ea0e704fe6c721fdc72ba152", "detail_info": {"tag": "\u6587\u5316\u4f20\u5a92", "navi_location": {"lng": 108.95324554291, "lat": 34.27293284978}, "type": "enterprise", "detail_url": "http://api.map.baidu.com/place/detail?uid=ea0e704fe6c721fdc72ba152&output=html&source=placeapi_v2"}}, {"name": "\u5317\u4eac\u535a\u5f71\u4e16\u7eaa\u6587\u5316\u4f20\u64ad\u6709\u9650\u516c\u53f8\u897f\u5b89\u5206\u516c\u53f8", "location": {"lat": 34.274643, "lng": 108.928114}, "address": "\u9655\u897f\u897f\u5b89\u83b2\u6e56\u7389\u7965\u95e8\u5927\u5e86\u8def2\u53f7\u6052\u5929\u624d\u667a\u5927\u53a612A03", "street_id": "dfc5132816684ce8f7e73bce", "detail": 1, "uid": "dfc5132816684ce8f7e73bce", "detail_info": {"tag": "\u6587\u5316\u4f20\u5a92;\u5176\u4ed6", "type": "enterprise", "detail_url": "http://api.map.baidu.com/place/detail?uid=dfc5132816684ce8f7e73bce&output=html&source=placeapi_v2"}}, {"name": "\u5c0f\u5317\u95e8\u4e2d\u8001\u5e74\u6d3b\u52a8\u7ad9", "location": {"lat": 34.281448, "lng": 108.940042}, "address": "\u9655\u897f\u7701\u897f\u5b89\u5e02\u83b2\u6e56\u533a\u987a\u57ce\u5317\u8def\u65b0\u5174\u5c0f\u533a(\u73af\u57ce\u516c\u56ed\u9644\u8fd1)", "street_id": "c49ddc9e45c058bed22dd6b7", "detail": 1, "uid": "c49ddc9e45c058bed22dd6b7", "detail_info": {"tag": "\u6587\u5316\u4f20\u5a92;\u6587\u5316\u5bab", "type": "life", "detail_url": "http://api.map.baidu.com/place/detail?uid=c49ddc9e45c058bed22dd6b7&output=html&source=placeapi_v2", "image_num": "6", "comment_num": "0"}}, {"name": "\u5510\u5723\u9601\u9152\u5e97-\u4f1a\u8bae\u5ba4", "location": {"lat": 34.279495, "lng": 108.937562}, "address": "\u4e60\u6b66\u56ed8\u53f7", "street_id": "817ea657b5c9ce05ca09f012", "telephone": "(029)87315999", "detail": 1, "uid": "817ea657b5c9ce05ca09f012", "detail_info": {"tag": "\u6587\u5316\u4f20\u5a92;\u5c55\u89c8\u9986", "type": "scope", "detail_url": "http://api.map.baidu.com/place/detail?uid=817ea657b5c9ce05ca09f012&output=html&source=placeapi_v2"}}, {"name": "\u897f\u5b89\u8c26\u820d\u4f53\u80b2\u6587\u5316\u4f20\u64ad\u6709\u9650\u516c\u53f8", "location": {"lat": 34.28624, "lng": 108.952511}, "address": "\u9655\u897f\u7701\u897f\u5b89\u5e02\u83b2\u6e56\u533a\u81ea\u5f3a\u897f\u8def15\u53f7", "street_id": "fb7e7f0eccb590544f6d46e5", "detail": 1, "uid": "fb7e7f0eccb590544f6d46e5", "detail_info": {"tag": "\u6587\u5316\u4f20\u5a92;\u5176\u4ed6", "type": "enterprise", "detail_url": "http://api.map.baidu.com/place/detail?uid=fb7e7f0eccb590544f6d46e5&output=html&source=placeapi_v2"}}, {"name": "\u559c\u4e8b\u6742\u5fd7\u793e", "location": {"lat": 34.275684, "lng": 108.945922}, "address": "\u897f\u5b89\u5e02\u83b2\u6e56\u8def18\u53f7", "street_id": "2730659054331cf9e2110334", "detail": 1, "uid": "2730659054331cf9e2110334", "detail_info": {"tag": "\u6587\u5316\u4f20\u5a92;\u65b0\u95fb\u51fa\u7248", "type": "enterprise", "detail_url": "http://api.map.baidu.com/place/detail?uid=2730659054331cf9e2110334&output=html&source=placeapi_v2"}}, {"name": "\u8b66\u82d1\u4e2d\u8001\u5e74\u6d3b\u52a8\u4e2d\u5fc3", "location": {"lat": 34.278359, "lng": 108.942998}, "address": "\u9655\u897f\u7701\u897f\u5b89\u5e02\u83b2\u6e56\u533a\u9752\u5e74\u4e8c\u5df7\u5efa\u897f\u9910\u9986(\u8b66\u82d1\u996d\u5e97\u65c1)", "street_id": "26f2d656d2e15f771b94c611", "detail": 1, "uid": "26f2d656d2e15f771b94c611", "detail_info": {"tag": "\u6587\u5316\u4f20\u5a92;\u6587\u5316\u5bab", "navi_location": {"lng": 108.94286372642, "lat": 34.278354060061}, "type": "life", "detail_url": "http://api.map.baidu.com/place/detail?uid=26f2d656d2e15f771b94c611&output=html&source=placeapi_v2", "image_num": "5", "comment_num": "0"}}, {"name": "\u8b66\u82d1\u996d\u5e97-\u4f1a\u8bae\u5ba4", "location": {"lat": 34.278888, "lng": 108.943024}, "address": "\u9752\u5e74\u4e8c\u5df73\u53f7", "street_id": "e86f10ffd95f0e6f42e19293", "telephone": "(029)87316390", "detail": 1, "uid": "e86f10ffd95f0e6f42e19293", "detail_info": {"tag": "\u6587\u5316\u4f20\u5a92;\u5c55\u89c8\u9986", "navi_location": {"lng": 108.94289218025, "lat": 34.278856403192}, "type": "scope", "detail_url": "http://api.map.baidu.com/place/detail?uid=e86f10ffd95f0e6f42e19293&output=html&source=placeapi_v2"}}, {"name": "\u897f\u5b89\u4e50\u9014\u827a\u672f\u6587\u5316\u4f20\u64ad\u6709\u9650\u516c\u53f8", "location": {"lat": 34.277832, "lng": 108.953326}, "address": "\u9752\u5e74\u8def13\u53f7", "street_id": "aea3540317f8d26fa10464e7", "detail": 1, "uid": "aea3540317f8d26fa10464e7", "detail_info": {"tag": "\u6587\u5316\u4f20\u5a92;\u5176\u4ed6", "type": "enterprise", "detail_url": "http://api.map.baidu.com/place/detail?uid=aea3540317f8d26fa10464e7&output=html&source=placeapi_v2"}}, {"name": "\u5929\u5929\u4e50\u4e2d\u8001\u5e74\u6d3b\u52a8\u4e2d\u5fc3(\u9752\u5e74\u4e00\u5df7)", "location": {"lat": 34.277732, "lng": 108.944817}, "address": "\u9752\u5e74\u4e00\u5df711", "street_id": "cc2e038dac98190581a12ef3", "detail": 1, "uid": "cc2e038dac98190581a12ef3", "detail_info": {"tag": "\u6587\u5316\u4f20\u5a92;\u6587\u5316\u5bab", "type": "life", "detail_url": "http://api.map.baidu.com/place/detail?uid=cc2e038dac98190581a12ef3&output=html&source=placeapi_v2", "image_num": "2", "comment_num": "0"}}, {"name": "\u98de\u9e7f\u5546\u52a1\u9152\u5e97-\u5546\u52a1\u4e2d\u5fc3", "location": {"lat": 34.276547, "lng": 108.935326}, "address": "\u83b2\u6e56\u8def323\u53f7", "street_id": "af27761b4513d5cda2d23000", "telephone": "(029)87510999", "detail": 1, "uid": "af27761b4513d5cda2d23000", "detail_info": {"tag": "\u6587\u5316\u4f20\u5a92", "type": "enterprise", "detail_url": "http://api.map.baidu.com/place/detail?uid=af27761b4513d5cda2d23000&output=html&source=placeapi_v2"}}, {"name": "\u897f\u5b89\u767d\u9e6d\u6587\u5316\u4f20\u5a92", "location": {"lat": 34.274881, "lng": 108.927239}, "address": "\u897f\u5b89\u5e02\u83b2\u6e56\u533a\u5927\u5e86\u8def3\u53f7\u6052\u5929\u56fd\u9645\u57ce2\u53f7\u697cA\u5ea71402", "street_id": "0e6573bb4db61faf82288ab9", "detail": 0, "uid": "0e6573bb4db61faf82288ab9", "detail_info": {"tag": "\u6587\u5316\u4f20\u5a92;\u5176\u4ed6"}}, {"name": "\u9655\u897f\u897f\u5317\u4eba\u6559\u7389\u6210\u6587\u5316\u4f20\u5a92\u6709\u9650\u516c\u53f8", "location": {"lat": 34.285377, "lng": 108.953367}, "address": "\u9655\u897f\u7701\u897f\u5b89\u5e02\u83b2\u6e56\u533a\u5317\u5173\u6b63\u88576", "street_id": "91bcc7d0cac257b99222e00e", "detail": 1, "uid": "91bcc7d0cac257b99222e00e", "detail_info": {"tag": "\u6587\u5316\u4f20\u5a92;\u5176\u4ed6", "type": "enterprise", "detail_url": "http://api.map.baidu.com/place/detail?uid=91bcc7d0cac257b99222e00e&output=html&source=placeapi_v2"}}, {"name": "\u4e8c\u5e9c\u8857\u793e\u533a\u515a\u652f\u90e8\u515a\u5458\u6d3b\u52a8\u5ba4", "location": {"lat": 34.272609, "lng": 108.950813}, "address": "\u4e8c\u5e9c\u885736\u53f7\u9644\u8fd1", "street_id": "e21f35b6c6e181a3d2f49e65", "detail": 1, "uid": "e21f35b6c6e181a3d2f49e65", "detail_info": {"tag": "\u6587\u5316\u4f20\u5a92;\u6587\u5316\u5bab", "type": "life", "detail_url": "http://api.map.baidu.com/place/detail?uid=e21f35b6c6e181a3d2f49e65&output=html&source=placeapi_v2", "image_num": "1"}}, {"name": "\u9999\u6e2f\u5546\u62a5\u9655\u897f\u529e\u4e8b\u5904", "location": {"lat": 34.271242, "lng": 108.952927}, "address": "\u897f\u534e\u95e8\u5927\u88571\u53f7\u51ef\u7231\u5927\u53a6B\u5ea7B6-12\u5ba4", "street_id": "23865cfd5d04d19d51e5c540", "detail": 1, "uid": "23865cfd5d04d19d51e5c540", "detail_info": {"tag": "\u6587\u5316\u4f20\u5a92;\u65b0\u95fb\u51fa\u7248", "type": "enterprise", "detail_url": "http://api.map.baidu.com/place/detail?uid=23865cfd5d04d19d51e5c540&output=html&source=placeapi_v2"}}, {"name": "\u897f\u90e8-\u897f\u90e8\u6742\u5fd7\u793e", "location": {"lat": 34.276417, "lng": 108.927661}, "address": "\u9655\u897f\u7701\u897f\u5b89\u5e02\u7389\u7965\u95e8\u851a\u84dd\u56fd\u9645b\u5ea71502\u5ba4", "street_id": "c12bfdf27d7110a11c389451", "detail": 1, "uid": "c12bfdf27d7110a11c389451", "detail_info": {"tag": "\u6587\u5316\u4f20\u5a92;\u65b0\u95fb\u51fa\u7248", "type": "enterprise", "detail_url": "http://api.map.baidu.com/place/detail?uid=c12bfdf27d7110a11c389451&output=html&source=placeapi_v2"}}, {"name": "\u7ea2\u9a6c\u5e7f\u544a\u6587\u5316\u4f20\u64ad\u516c\u53f8", "location": {"lat": 34.27876, "lng": 108.953309}, "address": "\u5317\u5927\u8857364\u53f7\u9e3f\u8fbe\u5927\u53a66\u5c42604", "street_id": "91aa328cbd8a7b4090114c2b", "detail": 1, "uid": "91aa328cbd8a7b4090114c2b", "detail_info": {"tag": "\u6587\u5316\u4f20\u5a92;\u5176\u4ed6", "type": "enterprise", "detail_url": "http://api.map.baidu.com/place/detail?uid=91aa328cbd8a7b4090114c2b&output=html&source=placeapi_v2"}}, {"name": "\u8001\u5e74\u6d3b\u52a8\u4e2d\u5fc3", "location": {"lat": 34.279865, "lng": 108.944038}, "address": "\u9655\u897f\u7701\u897f\u5b89\u5e02\u83b2\u6e56\u533a\u836f\u738b\u6d1e\u5c0f\u533a2\u53f7\u697c", "street_id": "48b7ed61d68c13113617dc65", "detail": 1, "uid": "48b7ed61d68c13113617dc65", "detail_info": {"tag": "\u6587\u5316\u4f20\u5a92;\u6587\u5316\u5bab", "navi_location": {"lng": 108.94403771381, "lat": 34.279755586391}, "type": "life", "detail_url": "http://api.map.baidu.com/place/detail?uid=48b7ed61d68c13113617dc65&output=html&source=placeapi_v2", "image_num": "5"}}, {"name": "\u80dc\u5229\u95e8\u5934\u5b57\u724c\u5e7f\u544a", "location": {"lat": 34.285339, "lng": 108.928625}, "address": "\u661f\u706b\u8def8\u53f7\u8bda\u4fe1\u94dd\u5851\u73bb\u7483\u95e8\u7a97\u9644\u8fd1", "street_id": "c09e4fc199fa4f129e82eaa6", "detail": 1, "uid": "c09e4fc199fa4f129e82eaa6", "detail_info": {"tag": "\u6587\u5316\u4f20\u5a92", "type": "enterprise", "detail_url": "http://api.map.baidu.com/place/detail?uid=c09e4fc199fa4f129e82eaa6&output=html&source=placeapi_v2"}}, {"name": "\u9655\u897f\u5929\u4eba\u6587\u5316\u4f20\u64ad\u6709\u9650\u8d23\u4efb\u516c\u53f8", "location": {"lat": 34.27876, "lng": 108.953309}, "address": "\u5317\u5927\u8857364\u53f7\u9e3f\u8fbe\u5927\u53a66\u5c42603", "street_id": "e06f7ed95a7e924f213bf253", "detail": 1, "uid": "e06f7ed95a7e924f213bf253", "detail_info": {"tag": "\u6587\u5316\u4f20\u5a92;\u5176\u4ed6", "type": "enterprise", "detail_url": "http://api.map.baidu.com/place/detail?uid=e06f7ed95a7e924f213bf253&output=html&source=placeapi_v2"}}, {"name": "\u6587\u5316\u827a\u672f\u62a5\u793e", "location": {"lat": 34.285548, "lng": 108.953264}, "address": "\u5317\u5173\u6b63\u88576", "street_id": "3da907f31d72de50b320a8db", "telephone": "(029)86261624,(029)86273782", "detail": 1, "uid": "3da907f31d72de50b320a8db", "detail_info": {"tag": "\u6587\u5316\u4f20\u5a92;\u65b0\u95fb\u51fa\u7248", "type": "enterprise", "detail_url": "http://api.map.baidu.com/place/detail?uid=3da907f31d72de50b320a8db&output=html&source=placeapi_v2"}}, {"name": "\u9655\u897f\u7701\u5927\u4f17\u6587\u5316\u4f20\u64ad\u5de5\u4f5c\u8005\u534f\u4f1a", "location": {"lat": 34.27876, "lng": 108.953309}, "address": "\u5317\u5927\u8857364\u53f7\u9e3f\u8fbe\u5927\u53a65\u5c42506", "street_id": "4a4f64f80da42c7e6cc02c0d", "detail": 1, "uid": "4a4f64f80da42c7e6cc02c0d", "detail_info": {"tag": "\u6587\u5316\u4f20\u5a92;\u5176\u4ed6", "type": "life", "detail_url": "http://api.map.baidu.com/place/detail?uid=4a4f64f80da42c7e6cc02c0d&output=html&source=placeapi_v2", "overall_rating": "0", "image_num": "1"}}, {"name": "\u897f\u5b89\u827a\u672f\u7f16\u8f91\u90e8", "location": {"lat": 34.285245, "lng": 108.950587}, "address": "\u81ea\u5f3a\u897f\u8def44", "street_id": "b4cc839711f11c2dd2f49e68", "detail": 1, "uid": "b4cc839711f11c2dd2f49e68", "detail_info": {"tag": "\u6587\u5316\u4f20\u5a92;\u65b0\u95fb\u51fa\u7248", "navi_location": {"lng": 108.95062329121, "lat": 34.285336311908}, "type": "enterprise", "detail_url": "http://api.map.baidu.com/place/detail?uid=b4cc839711f11c2dd2f49e68&output=html&source=placeapi_v2"}}, {"name": "\u6dfb\u8da3\u4e2d\u8001\u5e74\u6d3b\u52a8\u4e2d\u5fc3", "location": {"lat": 34.279352, "lng": 108.934185}, "address": "\u897f\u5317\u4e00\u8def65\u53f73\u5c42", "street_id": "482460c68ef5b5320782c2c7", "detail": 1, "uid": "482460c68ef5b5320782c2c7", "detail_info": {"tag": "\u6587\u5316\u4f20\u5a92;\u6587\u5316\u5bab", "type": "life", "detail_url": "http://api.map.baidu.com/place/detail?uid=482460c68ef5b5320782c2c7&output=html&source=placeapi_v2", "image_num": "1", "comment_num": "0"}}, {"name": "\u6d3b\u52a8\u4e2d\u5fc3", "location": {"lat": 34.277768, "lng": 108.937086}, "address": "\u897f\u5317\u4e8c\u8def8\u53f7\u91d1\u6865\u5546\u52a11\u5c42", "street_id": "172a41489289ae4772210bc4", "detail": 1, "uid": "172a41489289ae4772210bc4", "detail_info": {"tag": "\u6587\u5316\u4f20\u5a92;\u6587\u5316\u5bab", "type": "life", "detail_url": "http://api.map.baidu.com/place/detail?uid=172a41489289ae4772210bc4&output=html&source=placeapi_v2", "image_num": "6"}}, {"name": "\u9655\u897f\u7701\u56fd\u9645\u6587\u5316\u7ecf\u6d4e\u4ea4\u6d41\u4e2d\u5fc3", "location": {"lat": 34.273599, "lng": 108.952932}, "address": "\u5317\u5927\u8857238\u53f7\u5b8f\u5e9c\u5927\u53a68\u5c4210809", "street_id": "54f5c65ef89d53ee220262bd", "detail": 1, "uid": "54f5c65ef89d53ee220262bd", "detail_info": {"tag": "\u6587\u5316\u4f20\u5a92;\u6587\u5316\u5bab", "type": "life", "detail_url": "http://api.map.baidu.com/place/detail?uid=54f5c65ef89d53ee220262bd&output=html&source=placeapi_v2", "image_num": "2", "comment_num": "0"}}, {"name": "\u897f\u5b89\u98ce\u7433\u5e7f\u544a\u6587\u5316\u4f20\u64ad\u6709\u9650\u516c\u53f8", "location": {"lat": 34.270997, "lng": 108.952788}, "address": "\u897f\u534e\u95e81\u53f7\u51ef\u7231\u5927\u53a6B\u5ea710\u5c42B10-2\u5ba4", "street_id": "1bbc0c3a3cf0bd57373a7154", "detail": 1, "uid": "1bbc0c3a3cf0bd57373a7154", "detail_info": {"tag": "\u6587\u5316\u4f20\u5a92;\u5176\u4ed6", "navi_location": {"lng": 108.95278783739, "lat": 34.270847878973}, "type": "enterprise", "detail_url": "http://api.map.baidu.com/place/detail?uid=1bbc0c3a3cf0bd57373a7154&output=html&source=placeapi_v2"}}, {"name": "\u9655\u897f\u7b4b\u6597\u4e91\u4f53\u80b2\u6587\u5316\u4f20\u64ad\u6709\u9650\u516c\u53f8", "location": {"lat": 34.271426, "lng": 108.952737}, "address": "\u897f\u5b89\u5e02\u83b2\u6e56\u533a\u897f\u534e\u95e8\u5927\u88571\u53f7\u51ef\u7231\u5927\u53a6B\u5ea76\u5c42", "street_id": "9afbe0014766df670a5cb3d8", "detail": 1, "uid": "9afbe0014766df670a5cb3d8", "detail_info": {"tag": "\u516c\u53f8\u4f01\u4e1a;\u516c\u53f8", "type": "enterprise", "detail_url": "http://api.map.baidu.com/place/detail?uid=9afbe0014766df670a5cb3d8&output=html&source=placeapi_v2"}}, {"name": "\u897f\u5b89\u96c4\u6770\u5e7f\u544a\u6587\u5316\u4f20\u64ad\u6709\u9650\u516c\u53f8", "location": {"lat": 34.277064, "lng": 108.944095}, "address": "\u9752\u5e74\u8def\u8857\u9053\u9752\u5e74\u8def156\u53f71\u5e627\u5c4210701\u53f7", "street_id": "b3e2385b69c85f79e8e582eb", "detail": 1, "uid": "b3e2385b69c85f79e8e582eb", "detail_info": {"tag": "\u6587\u5316\u4f20\u5a92;\u5176\u4ed6", "type": "enterprise", "detail_url": "http://api.map.baidu.com/place/detail?uid=b3e2385b69c85f79e8e582eb&output=html&source=placeapi_v2"}}, {"name": "\u897f\u5b89\u5c0f\u9e7f\u5e7f\u544a\u6587\u5316\u4f20\u64ad\u6709\u9650\u516c\u53f8", "location": {"lat": 34.28723, "lng": 108.954249}, "address": "\u65b0\u57ce\u533a\u5317\u5173\u6b63\u885721\u53f7\u79e6\u5730\u96c5\u4ed51\u680b1\u5355\u5143603\u5ba4", "street_id": "f0eccaeacb61a472e115f981", "detail": 1, "uid": "f0eccaeacb61a472e115f981", "detail_info": {"tag": "\u6587\u5316\u4f20\u5a92;\u5176\u4ed6", "type": "enterprise", "detail_url": "http://api.map.baidu.com/place/detail?uid=f0eccaeacb61a472e115f981&output=html&source=placeapi_v2", "price": "0", "overall_rating": "5", "comment_num": "1"}}, {"name": "\u897f\u5b89\u8349\u6728\u4eba\u8336\u6587\u5316\u4f20\u64ad\u6709\u9650\u516c\u53f8", "location": {"lat": 34.27456, "lng": 108.927191}, "address": "\u5927\u5e86\u8def4\u53f7\u9644\u8fd1", "street_id": "01a7a0106117c609f7eafc9e", "detail": 1, "uid": "01a7a0106117c609f7eafc9e", "detail_info": {"tag": "\u516c\u53f8\u4f01\u4e1a;\u516c\u53f8", "type": "enterprise", "detail_url": "http://api.map.baidu.com/place/detail?uid=01a7a0106117c609f7eafc9e&output=html&source=placeapi_v2"}}, {"name": "\u897f\u5b89\u5e02\u9752\u5c11\u5e74\u5bab", "location": {"lat": 34.270263, "lng": 108.958468}, "address": "\u9655\u897f\u7701\u897f\u5b89\u5e02\u65b0\u57ce\u533a\u897f\u65b0\u88574\u53f7", "street_id": "6ee010208291a1ef52e5c506", "telephone": "(029)87216033", "detail": 1, "uid": "6ee010208291a1ef52e5c506", "detail_info": {"tag": "\u6587\u5316\u4f20\u5a92;\u6587\u5316\u5bab", "navi_location": {"lng": 108.95867126417, "lat": 34.270587142316}, "type": "life", "detail_url": "http://api.map.baidu.com/place/detail?uid=6ee010208291a1ef52e5c506&output=html&source=placeapi_v2", "overall_rating": "3.5", "image_num": "6", "comment_num": "1"}}, {"name": "\u897f\u5b89\u5e02\u7fa4\u4f17\u827a\u672f\u9986", "location": {"lat": 34.256835, "lng": 108.9611}, "address": "\u6587\u827a\u5317\u8def197", "street_id": "f5e3bcaec16605c15e17c306", "detail": 1, "uid": "f5e3bcaec16605c15e17c306", "detail_info": {"tag": "\u6587\u5316\u4f20\u5a92;\u7f8e\u672f\u9986", "navi_location": {"lng": 108.96054704196, "lat": 34.256945433401}, "type": "scope", "detail_url": "http://api.map.baidu.com/place/detail?uid=f5e3bcaec16605c15e17c306&output=html&source=placeapi_v2", "overall_rating": "3.0", "comment_num": "2"}}, {"name": "\u9655\u897f\u7f8e\u672f\u9986", "location": {"lat": 34.266277, "lng": 108.957816}, "address": "\u65b0\u57ce\u533a\u4e1c\u5927\u8857355\u53f7", "street_id": "07a700a38ef6048f276e9863", "detail": 1, "uid": "07a700a38ef6048f276e9863", "detail_info": {"tag": "\u6587\u5316\u4f20\u5a92;\u7f8e\u672f\u9986", "navi_location": {"lng": 108.95747858934, "lat": 34.265954906718}, "type": "scope", "detail_url": "http://api.map.baidu.com/place/detail?uid=07a700a38ef6048f276e9863&output=html&source=placeapi_v2", "overall_rating": "3", "comment_num": "6"}}, {"name": "\u7891\u6797\u533a\u5c11\u5e74\u5bab", "location": {"lat": 34.259102, "lng": 108.960005}, "address": "\u4e09\u5b66\u88573\u53f7", "street_id": "7531b024d4e5e15ab8bd6313", "telephone": "(029)87212797", "detail": 1, "uid": "7531b024d4e5e15ab8bd6313", "detail_info": {"tag": "\u6587\u5316\u4f20\u5a92;\u6587\u5316\u5bab", "navi_location": {"lng": 108.96042762123, "lat": 34.2591031584}, "type": "life", "detail_url": "http://api.map.baidu.com/place/detail?uid=7531b024d4e5e15ab8bd6313&output=html&source=placeapi_v2", "image_num": "8"}}, {"name": "\u65b0\u57ce\u533a\u5c11\u5e74\u5bab", "location": {"lat": 34.268166, "lng": 108.956658}, "address": "\u897f\u4e00\u8def181\u53f7", "street_id": "550fd5f9b4905879931fc906", "telephone": "(029)87272182", "detail": 1, "uid": "550fd5f9b4905879931fc906", "detail_info": {"tag": "\u6587\u5316\u4f20\u5a92;\u6587\u5316\u5bab", "navi_location": {"lng": 108.95664857571, "lat": 34.26805956582}, "type": "life", "detail_url": "http://api.map.baidu.com/place/detail?uid=550fd5f9b4905879931fc906&output=html&source=placeapi_v2", "image_num": "6", "comment_num": "0"}}, {"name": "\u4e09\u79e6\u90fd\u5e02\u62a5", "location": {"lat": 34.256946, "lng": 108.978427}, "address": "\u9655\u897f\u7701\u897f\u5b89\u5e02\u73af\u57ce\u5357\u8def\u4e1c\u6bb51\u53f7\u5b89\u4e1c\u8857175\u53f7", "street_id": "bbbbf6cb2b43126e15a190db", "detail": 1, "uid": "8a267d0769ca16b9d5b74ec3", "detail_info": {"tag": "\u6587\u5316\u4f20\u5a92;\u65b0\u95fb\u51fa\u7248", "navi_location": {"lng": 108.97860737093, "lat": 34.256945465252}, "type": "enterprise", "detail_url": "http://api.map.baidu.com/place/detail?uid=8a267d0769ca16b9d5b74ec3&output=html&source=placeapi_v2"}}, {"name": "\u4e2d\u8d1d\u5143\u513f\u7ae5\u827a\u672f\u4e2d\u5fc3", "location": {"lat": 34.256956, "lng": 108.96095}, "address": "\u7891\u6797\u533a\u6587\u827a\u5317\u8def197\u53f7\uff08\u6587\u660c\u95e8\u5341\u5b57\u4e1c\u5357\u89d2\uff0c\u7fa4\u4f17\u827a\u672f\u9986\u8d1f\u4e00\u5c42\uff09", "street_id": "39d43f82a6141b85a8059ddb", "telephone": "(029)87852465", "detail": 1, "uid": "39d43f82a6141b85a8059ddb", "detail_info": {"tag": "\u6587\u5316\u4f20\u5a92;\u827a\u672f\u56e2\u4f53", "navi_location": {"lng": 108.96054172848, "lat": 34.256683943417}, "type": "life", "detail_url": "http://api.map.baidu.com/place/detail?uid=39d43f82a6141b85a8059ddb&output=html&source=placeapi_v2", "price": "33", "overall_rating": "4.6", "image_num": "106", "comment_num": "763"}}, {"name": "\u9655\u897f\u65e5\u62a5\u793e\u5e7f\u544a\u4e2d\u5fc3(\u57ce\u5e02\u6d69\u661f\u4e1c)", "location": {"lat": 34.257013, "lng": 108.97659}, "address": "\u73af\u57ce\u5357\u8def\u4e1c\u6bb51\u53f7", "street_id": "0110de5b74d4bb6f96f08c4b", "telephone": "(029)82231527,(029)82267114,(029)82267888", "detail": 1, "uid": "0110de5b74d4bb6f96f08c4b", "detail_info": {"tag": "\u6587\u5316\u4f20\u5a92;\u65b0\u95fb\u51fa\u7248", "type": "enterprise", "detail_url": "http://api.map.baidu.com/place/detail?uid=0110de5b74d4bb6f96f08c4b&output=html&source=placeapi_v2"}}, {"name": "\u9526\u6c5f\u4e4b\u661f\u5efa\u56fd\u95e8\u5e97-\u4f1a\u8bae\u4e2d\u5fc3", "location": {"lat": 34.258341, "lng": 108.979961}, "address": "\u73af\u57ce\u4e1c\u8def5\u53f7", "street_id": "5b9f2e346a3baf3cf72310c2", "detail": 1, "uid": "5b9f2e346a3baf3cf72310c2", "detail_info": {"tag": "\u6587\u5316\u4f20\u5a92;\u5c55\u89c8\u9986", "navi_location": {"lng": 108.97969360196, "lat": 34.2582652951}, "type": "scope", "detail_url": "http://api.map.baidu.com/place/detail?uid=5b9f2e346a3baf3cf72310c2&output=html&source=placeapi_v2", "overall_rating": "5", "comment_num": "1"}}, {"name": "\u4e09\u79e6\u90fd\u5e02\u62a5\u53d1\u884c\u4e2d\u5fc3", "location": {"lat": 34.255967, "lng": 108.975649}, "address": "\u9655\u897f\u7701\u897f\u5b89\u5e02\u7891\u6797\u533a\u73af\u57ce\u5357\u8def\u4e1c\u6bb51\u53f7\u5b89\u4e1c\u8857177\u53f7", "street_id": "7a589a707be29455ebe582e5", "telephone": "(029)82255333", "detail": 1, "uid": "7a589a707be29455ebe582e5", "detail_info": {"tag": "\u6587\u5316\u4f20\u5a92;\u65b0\u95fb\u51fa\u7248", "type": "enterprise", "detail_url": "http://api.map.baidu.com/place/detail?uid=7a589a707be29455ebe582e5&output=html&source=placeapi_v2"}}, {"name": "\u7687\u57ce\u6d77\u822a\u9152\u5e97-\u6d77\u8f69\u5385", "location": {"lat": 34.269683, "lng": 108.962194}, "address": "\u9655\u897f\u7701\u897f\u5b89\u5e02\u65b0\u57ce\u533a\u4e1c\u65b0\u8857258\u53f7\u7687\u57ce\u6d77\u822a\u9152\u5e975\u697c", "street_id": "7ca0287ff7452dbff72310cc", "telephone": "(029)87482888", "detail": 1, "uid": "7ca0287ff7452dbff72310cc", "detail_info": {"tag": "\u6587\u5316\u4f20\u5a92;\u5c55\u89c8\u9986", "navi_location": {"lng": 108.96214699414, "lat": 34.270093662836}, "type": "scope", "detail_url": "http://api.map.baidu.com/place/detail?uid=7ca0287ff7452dbff72310cc&output=html&source=placeapi_v2"}}, {"name": "\u9655\u897f\u65e5\u62a5\u6587\u5316\u4f20\u64ad\u6709\u9650\u516c\u53f8", "location": {"lat": 34.257044, "lng": 108.976274}, "address": "\u9655\u897f\u7701\u897f\u5b89\u5e02\u7891\u6797\u533a\u73af\u57ce\u5357\u8def\u9655\u897f\u65e5\u62a5\u5317\u95e8", "street_id": "c260e1be786283f90e3dda25", "detail": 1, "uid": "c260e1be786283f90e3dda25", "detail_info": {"tag": "\u6587\u5316\u4f20\u5a92;\u5176\u4ed6", "type": "enterprise", "detail_url": "http://api.map.baidu.com/place/detail?uid=c260e1be786283f90e3dda25&output=html&source=placeapi_v2"}}, {"name": "\u6d77\u971e\u5929\u5730\u7f8e\u672f\u9986", "location": {"lat": 34.258795, "lng": 108.955053}, "address": "\u4e66\u9662\u95e880\u53f7", "street_id": "34a1f962646edd14ed74f881", "detail": 1, "uid": "34a1f962646edd14ed74f881", "detail_info": {"tag": "\u6587\u5316\u4f20\u5a92;\u7f8e\u672f\u9986", "navi_location": {"lng": 108.95428420416, "lat": 34.259205205369}, "type": "scope", "detail_url": "http://api.map.baidu.com/place/detail?uid=34a1f962646edd14ed74f881&output=html&source=placeapi_v2"}}, {"name": "\u9655\u897f\u7701\u620f\u5267\u5bb6\u534f\u4f1a-\u6885\u82b1\u5956\u827a\u672f\u56e2", "location": {"lat": 34.262209, "lng": 108.95464}, "address": "\u4e1c\u6728\u5934\u5e02200\u53f7", "street_id": "d6ee872401086de0a8f0cd06", "detail": 1, "uid": "d6ee872401086de0a8f0cd06", "detail_info": {"tag": "\u6587\u5316\u4f20\u5a92;\u827a\u672f\u56e2\u4f53", "type": "enterprise", "detail_url": "http://api.map.baidu.com/place/detail?uid=d6ee872401086de0a8f0cd06&output=html&source=placeapi_v2"}}, {"name": "\u897f\u5b89\u9633\u5149\u79e6\u5927\u9152\u5e97-\u4f1a\u8bae\u5ba4", "location": {"lat": 34.26545, "lng": 108.972364}, "address": "\u4e1c\u5927\u8857130\u53f7\u9633\u5149\u79e6\u5927\u9152\u5e97", "street_id": "793ebd7014e01bb7eb1e970f", "detail": 1, "uid": "793ebd7014e01bb7eb1e970f", "detail_info": {"tag": "\u6587\u5316\u4f20\u5a92;\u5c55\u89c8\u9986", "type": "scope", "detail_url": "http://api.map.baidu.com/place/detail?uid=793ebd7014e01bb7eb1e970f&output=html&source=placeapi_v2"}}, {"name": "\u4e16\u7eaa\u5199\u771f\u55b7\u7ed8\u96d5\u523b", "location": {"lat": 34.256952, "lng": 108.980704}, "address": "\u54b8\u5b81\u897f\u8def66\u9644\u8fd1", "street_id": "9dffdaf1d8ae5ddef8dc8593", "detail": 1, "uid": "9dffdaf1d8ae5ddef8dc8593", "detail_info": {"tag": "\u6587\u5316\u4f20\u5a92", "navi_location": {"lng": 108.98070132018, "lat": 34.257190626382}, "type": "life", "detail_url": "http://api.map.baidu.com/place/detail?uid=9dffdaf1d8ae5ddef8dc8593&output=html&source=placeapi_v2", "image_num": "1"}}, {"name": "\u897f\u5b89\u660e\u9633\u4e66\u753b\u6587\u5316\u4f20\u64ad\u6709\u9650\u516c\u53f8", "location": {"lat": 34.258786, "lng": 108.956521}, "address": "\u4e66\u9662\u95e8\u53e4\u73a9\u827a\u672f\u57ce8\u53f7\u5927\u9662", "street_id": "3e6ebf0a337f79be0c0a70a7", "detail": 1, "uid": "3e6ebf0a337f79be0c0a70a7", "detail_info": {"tag": "\u516c\u53f8\u4f01\u4e1a;\u516c\u53f8", "type": "enterprise", "detail_url": "http://api.map.baidu.com/place/detail?uid=3e6ebf0a337f79be0c0a70a7&output=html&source=placeapi_v2", "comment_num": "1"}}, {"name": "\u897f\u5b89\u8499\u5b66\u6587\u5316\u4f20\u64ad\u6709\u9650\u516c\u53f8", "location": {"lat": 34.262064, "lng": 108.969351}, "address": "\u897f\u5b89\u5e02\u7891\u6797\u533a\u548c\u5e73\u8def66\u53f7\u548c\u5e73\u5927\u9053\u4e94\u697c", "street_id": "779d1162cfe0ede835b06c2e", "detail": 1, "uid": "779d1162cfe0ede835b06c2e", "detail_info": {"tag": "\u6587\u5316\u4f20\u5a92;\u5176\u4ed6", "type": "enterprise", "detail_url": "http://api.map.baidu.com/place/detail?uid=779d1162cfe0ede835b06c2e&output=html&source=placeapi_v2"}}, {"name": "\u897f\u5b89\u5e02\u7fa4\u4f17\u827a\u672f\u9986\u661f\u6d77\u5408\u5531\u56e2", "location": {"lat": 34.256946, "lng": 108.960761}, "address": "\u6587\u827a\u5317\u8def\u7532\u5b571\u53f7", "street_id": "d5f93c0efb514422eddfca0b", "detail": 1, "uid": "d5f93c0efb514422eddfca0b", "detail_info": {"tag": "\u6587\u5316\u4f20\u5a92;\u827a\u672f\u56e2\u4f53", "navi_location": {"lng": 108.96054704196, "lat": 34.256945433401}, "type": "enterprise", "detail_url": "http://api.map.baidu.com/place/detail?uid=d5f93c0efb514422eddfca0b&output=html&source=placeapi_v2"}}, {"name": "\u5bcc\u51ef\u79a7\u73a5\u9152\u5e97-\u4f1a\u8bae\u5ba4", "location": {"lat": 34.269005, "lng": 108.960959}, "address": "\u5357\u65b0\u885727\u53f7\u5bcc\u51ef\u79a7\u73a5\u9152\u5e97\u5185", "street_id": "f73a6fa998e9b19932870a4e", "telephone": "(029)87218666", "detail": 1, "uid": "f73a6fa998e9b19932870a4e", "detail_info": {"tag": "\u6587\u5316\u4f20\u5a92;\u5c55\u89c8\u9986", "navi_location": {"lng": 108.96077594547, "lat": 34.269012982987}, "type": "scope", "detail_url": "http://api.map.baidu.com/place/detail?uid=f73a6fa998e9b19932870a4e&output=html&source=placeapi_v2"}}, {"name": "\u897f\u5b89\u5e02\u7fa4\u4f17\u827a\u672f\u9986-\u5b89\u5fd7\u987a\u6253\u51fb\u4e50\u827a\u672f\u56e2", "location": {"lat": 34.256947, "lng": 108.960761}, "address": "\u6587\u827a\u5317\u8def\u7532\u5b571\u53f7", "street_id": "e3e2cd9d2447579dc7f50d01", "detail": 1, "uid": "e3e2cd9d2447579dc7f50d01", "detail_info": {"tag": "\u6587\u5316\u4f20\u5a92;\u827a\u672f\u56e2\u4f53", "navi_location": {"lng": 108.96054704196, "lat": 34.256945433401}, "type": "enterprise", "detail_url": "http://api.map.baidu.com/place/detail?uid=e3e2cd9d2447579dc7f50d01&output=html&source=placeapi_v2"}}, {"name": "\u897f\u5b89\u743b\u6613\u65c5\u6e38\u6587\u5316\u4f20\u64ad\u6709\u9650\u516c\u53f8", "location": {"lat": 34.255806, "lng": 108.959585}, "address": "\u9655\u897f\u7701\u897f\u5b89\u5e02\u7891\u6797\u533a\u6587\u827a\u5317\u8def190\u53f7\u4e2d\u8054\u9890\u534e\u82d1A\u5ea72504", "street_id": "dfc047e49c865f790bf5eb51", "detail": 1, "uid": "dfc047e49c865f790bf5eb51", "detail_info": {"tag": "\u516c\u53f8\u4f01\u4e1a;\u516c\u53f8", "type": "enterprise", "detail_url": "http://api.map.baidu.com/place/detail?uid=dfc047e49c865f790bf5eb51&output=html&source=placeapi_v2"}}, {"name": "\u9655\u897f\u5546\u8054\u5e7f\u544a\u6587\u5316\u4f20\u64ad\u6709\u9650\u516c\u53f8", "location": {"lat": 34.267411, "lng": 108.969804}, "address": "\u89e3\u653e\u8def25\u53f7\u6df1\u4e1a\u5927\u53a6621", "street_id": "bfdf288f42c629c34e554734", "detail": 1, "uid": "bfdf288f42c629c34e554734", "detail_info": {"tag": "\u6587\u5316\u4f20\u5a92;\u5176\u4ed6", "type": "enterprise", "detail_url": "http://api.map.baidu.com/place/detail?uid=bfdf288f42c629c34e554734&output=html&source=placeapi_v2"}}, {"name": "\u9655\u897f\u5b87\u5b99\u987d\u4e50\u5f71\u89c6\u6587\u5316\u4f20\u64ad\u6709\u9650\u516c\u53f8", "location": {"lat": 34.26546, "lng": 108.969195}, "address": "\u9655\u897f\u7701\u897f\u5b89\u5e02\u7891\u6797\u533a\u5927\u5dee\u5e02\u5341\u5b57\u897f\u5357\u89d2\u4e07\u8fbe\u65b0\u5929\u5730\u7b2c1\u5e621\u5355\u51433\u5c4210331\u53f7\u623f", "street_id": "6f98b036662b8664fea778fe", "detail": 1, "uid": "6f98b036662b8664fea778fe", "detail_info": {"tag": "\u6587\u5316\u4f20\u5a92;\u5e7f\u64ad\u7535\u89c6", "type": "enterprise", "detail_url": "http://api.map.baidu.com/place/detail?uid=6f98b036662b8664fea778fe&output=html&source=placeapi_v2"}}, {"name": "\u9ad8\u901f\u795e\u5dde\u9152\u5e97-\u4f1a\u8bae\u5ba4", "location": {"lat": 34.259385, "lng": 108.979458}, "address": "\u73af\u57ce\u4e1c\u8def\u5357\u6bb59\u53f7", "street_id": "406f1d7311a1fa132a02e181", "telephone": "(029)83381234", "detail": 1, "uid": "406f1d7311a1fa132a02e181", "detail_info": {"tag": "\u6587\u5316\u4f20\u5a92;\u5c55\u89c8\u9986", "type": "scope", "detail_url": "http://api.map.baidu.com/place/detail?uid=406f1d7311a1fa132a02e181&output=html&source=placeapi_v2"}}, {"name": "\u7687\u57ce\u8c6a\u95e8\u9152\u5e97-\u4f1a\u8bae\u5ba4", "location": {"lat": 34.265141, "lng": 108.962301}, "address": "\u4e1c\u5927\u8857334\u53f7\u7687\u57ce\u8c6a\u95e8\u9152\u5e972\u5c42", "street_id": "6759155245540ef0081cc71f", "telephone": "(029)87690000", "detail": 1, "uid": "6759155245540ef0081cc71f", "detail_info": {"tag": "\u6587\u5316\u4f20\u5a92;\u5c55\u89c8\u9986", "type": "scope", "detail_url": "http://api.map.baidu.com/place/detail?uid=6759155245540ef0081cc71f&output=html&source=placeapi_v2"}}, {"name": "\u9655\u897f\u5e7f\u7535\u533b\u7597\u6587\u5316\u4f20\u5a92\u6709\u9650\u516c\u53f8", "location": {"lat": 34.265323, "lng": 108.96425}, "address": "\u83ca\u82b1\u56ed1\u53f7", "street_id": "d3f071e437a42ecd6340a9ee", "detail": 1, "uid": "d3f071e437a42ecd6340a9ee", "detail_info": {"tag": "\u516c\u53f8\u4f01\u4e1a;\u516c\u53f8", "type": "enterprise", "detail_url": "http://api.map.baidu.com/place/detail?uid=d3f071e437a42ecd6340a9ee&output=html&source=placeapi_v2"}}, {"name": "\u897f\u5b89\u5e02\u65b0\u57ce\u533a\u6587\u5316\u9986", "location": {"lat": 34.267531, "lng": 108.969799}, "address": "\u89e3\u653e\u8def25\u53f7\u6df1\u4e1a\u5927\u53a67\u5c42709", "street_id": "129030410f21e8051e58007a", "detail": 1, "uid": "129030410f21e8051e58007a", "detail_info": {"tag": "\u6587\u5316\u4f20\u5a92;\u6587\u5316\u5bab", "type": "life", "detail_url": "http://api.map.baidu.com/place/detail?uid=129030410f21e8051e58007a&output=html&source=placeapi_v2", "image_num": "1", "comment_num": "0"}}, {"name": "\u5174\u6b63\u5143\u56fd\u9645\u9152\u5e97-\u4f1a\u8bae\u5ba4", "location": {"lat": 34.262435, "lng": 108.957064}, "address": "\u9aa1\u9a6c\u5e02\u5546\u4e1a\u6b65\u884c\u8857\u897f\u5b89\u5174\u6b63\u5143\u5e7f\u573a\u5357\u533a\u5174\u6b63\u5143\u56fd\u9645\u9152\u5e975\u5c42", "street_id": "e277e7b6b592bb29d4851f5a", "telephone": "(029)88121111", "detail": 1, "uid": "e277e7b6b592bb29d4851f5a", "detail_info": {"tag": "\u6587\u5316\u4f20\u5a92;\u5c55\u89c8\u9986", "type": "scope", "detail_url": "http://api.map.baidu.com/place/detail?uid=e277e7b6b592bb29d4851f5a&output=html&source=placeapi_v2"}}, {"name": "\u5bcc\u51ef\u79a7\u73a5\u9152\u5e97-\u4edf\u79a7\u9601\u591a\u529f\u80fd\u5385", "location": {"lat": 34.269005, "lng": 108.960959}, "address": "\u5357\u65b0\u885727\u53f7\u5bcc\u51ef\u79a7\u73a5\u9152\u5e974\u5c42", "street_id": "5daa3253748d370879dbd28c", "telephone": "(029)87218666", "detail": 1, "uid": "5daa3253748d370879dbd28c", "detail_info": {"tag": "\u6587\u5316\u4f20\u5a92;\u5c55\u89c8\u9986", "type": "scope", "detail_url": "http://api.map.baidu.com/place/detail?uid=5daa3253748d370879dbd28c&output=html&source=placeapi_v2", "overall_rating": "0"}}, {"name": "\u897f\u5b89\u6587\u5316\u827a\u672f\u670d\u52a1\u4e2d\u5fc3", "location": {"lat": 34.264054, "lng": 108.956472}, "address": "\u9aa1\u9a6c\u5e0226\u53f7", "street_id": "a25fd6baa29c7f3b02294fe8", "detail": 1, "uid": "a25fd6baa29c7f3b02294fe8", "detail_info": {"tag": "\u6587\u5316\u4f20\u5a92;\u6587\u5316\u5bab", "type": "enterprise", "detail_url": "http://api.map.baidu.com/place/detail?uid=a25fd6baa29c7f3b02294fe8&output=html&source=placeapi_v2"}}, {"name": "\u897f\u5b89\u5e02\u7891\u6797\u533a\u5c1a\u53cb\u6f14\u827a\u6587\u5316\u4f20\u64ad\u6709\u9650\u516c\u53f8", "location": {"lat": 34.262159, "lng": 108.959648}, "address": "\u4e1c\u6728\u5934\u5e0211\u53f7\u5bf9\u9762", "street_id": "96e158090517116d0a5cb3e6", "detail": 1, "uid": "96e158090517116d0a5cb3e6", "detail_info": {"tag": "\u6587\u5316\u4f20\u5a92;\u5176\u4ed6", "type": "enterprise", "detail_url": "http://api.map.baidu.com/place/detail?uid=96e158090517116d0a5cb3e6&output=html&source=placeapi_v2"}}, {"name": "\u79e6\u6587\u55b7\u7ed8\u5199\u771f\u6c34\u6676\u5b57", "location": {"lat": 34.257527, "lng": 108.980182}, "address": "\u54b8\u5b81\u897f\u8def45\u53f7\u9644\u8fd1", "street_id": "dea50abffc60cb8721022007", "detail": 1, "uid": "dea50abffc60cb8721022007", "detail_info": {"tag": "\u6587\u5316\u4f20\u5a92", "type": "life", "detail_url": "http://api.map.baidu.com/place/detail?uid=dea50abffc60cb8721022007&output=html&source=placeapi_v2", "image_num": "4", "comment_num": "0"}}, {"name": "\u9655\u897f\u745e\u9e9f\u5f71\u89c6\u6587\u5316\u4f20\u5a92\u6709\u9650\u516c\u53f8", "location": {"lat": 34.256927, "lng": 108.961727}, "address": "\u73af\u57ce\u5357\u8def\u4e2d\u6bb5118\u53f7\u745e\u6797\u5927\u53a6905-909\u5ba4", "street_id": "a6e52782dcda64020f0e6b9c", "detail": 1, "uid": "a6e52782dcda64020f0e6b9c", "detail_info": {"tag": "\u6587\u5316\u4f20\u5a92;\u5e7f\u64ad\u7535\u89c6", "type": "enterprise", "detail_url": "http://api.map.baidu.com/place/detail?uid=a6e52782dcda64020f0e6b9c&output=html&source=placeapi_v2"}}, {"name": "\u9655\u897f\u5927\u6c47\u667a\u6587\u5316\u4f20\u64ad\u6709\u9650\u516c\u53f8", "location": {"lat": 34.269836, "lng": 108.959088}, "address": "\u9655\u897f\u7701\u897f\u5b89\u5e02\u65b0\u57ce\u533a\u897f\u65b0\u88572-1", "detail": 1, "uid": "1210d09f1a99d642047ce80c", "detail_info": {"tag": "\u6587\u5316\u4f20\u5a92;\u5176\u4ed6", "type": "enterprise", "detail_url": "http://api.map.baidu.com/place/detail?uid=1210d09f1a99d642047ce80c&output=html&source=placeapi_v2"}}, {"name": "\u9655\u897f\u9526\u5510\u6587\u5316\u4f20\u64ad\u6709\u9650\u516c\u53f8", "location": {"lat": 34.256453, "lng": 108.960658}, "address": "\u6587\u827a\u5317\u8def\u7532\u5b571\u53f7", "street_id": "c8ee540a4f85404ac7f50d4c", "detail": 1, "uid": "c8ee540a4f85404ac7f50d4c", "detail_info": {"tag": "\u6587\u5316\u4f20\u5a92;\u5176\u4ed6", "type": "enterprise", "detail_url": "http://api.map.baidu.com/place/detail?uid=c8ee540a4f85404ac7f50d4c&output=html&source=placeapi_v2"}}, {"name": "SIGN\u62d3\u5a01\u6807\u8bc6\u5c55\u793a\u5de5\u7a0b", "location": {"lat": 34.260743, "lng": 108.960547}, "address": "\u9655\u897f\u7701\u897f\u5b89\u5e02\u7891\u6797\u533a\u67cf\u6811\u679739", "street_id": "ab556431486ab07907026f53", "telephone": "(029)87272390", "detail": 1, "uid": "ab556431486ab07907026f53", "detail_info": {"tag": "\u6587\u5316\u4f20\u5a92", "type": "enterprise", "detail_url": "http://api.map.baidu.com/place/detail?uid=ab556431486ab07907026f53&output=html&source=placeapi_v2"}}, {"name": "\u897f\u5b89\u5353\u4f0a\u5f71\u89c6\u6587\u5316\u4f20\u64ad\u6709\u9650\u516c\u53f8", "location": {"lat": 34.255163, "lng": 108.956757}, "address": "\u4f53\u80b2\u9986\u4e1c\u8def\u5b8f\u4fe1\u56fd\u9645\u82b1\u56ed\u56db\u53f7\u697c\u4e00\u5355\u51431707\u5ba4(\u4e16\u7eaa\u91d1\u82b1\u4e1c\u95e8\u5bf9\u9762)", "street_id": "6162f99ecd92fa9badb22af5", "detail": 1, "uid": "6162f99ecd92fa9badb22af5", "detail_info": {"tag": "\u6587\u5316\u4f20\u5a92;\u5e7f\u64ad\u7535\u89c6", "type": "enterprise", "detail_url": "http://api.map.baidu.com/place/detail?uid=6162f99ecd92fa9badb22af5&output=html&source=placeapi_v2", "price": "0"}}, {"name": "\u9999\u58a8\u8f69\u6587\u5316\u4f20\u5a92", "location": {"lat": 34.255727, "lng": 108.960772}, "address": "\u897f\u5b89\u5e02\u7891\u6797\u533a\u6587\u827a\u5317\u8def\u656c\u4e1a\u00b7\u4e50\u5e9c6\u5c42", "street_id": "e8fbebc5b9b93298c9e33c9a", "detail": 1, "uid": "e8fbebc5b9b93298c9e33c9a", "detail_info": {"tag": "\u6587\u5316\u4f20\u5a92;\u5176\u4ed6", "type": "enterprise", "detail_url": "http://api.map.baidu.com/place/detail?uid=e8fbebc5b9b93298c9e33c9a&output=html&source=placeapi_v2"}}, {"name": "\u897f\u5b89\u9ed8\u827a\u7a7a\u95f4\u6587\u5316\u4f20\u64ad\u6709\u9650\u516c\u53f8", "location": {"lat": 34.25904, "lng": 108.959692}, "address": "\u54b8\u5b81\u5b66\u5df76\u53f7\u7891\u6797\u535a\u7269\u9986\u4e1c\u95e8\u5411\u531710\u7c73", "street_id": "853d4bf6df727da3c5effbc0", "detail": 1, "uid": "853d4bf6df727da3c5effbc0", "detail_info": {"tag": "\u516c\u53f8\u4f01\u4e1a;\u516c\u53f8", "type": "enterprise", "detail_url": "http://api.map.baidu.com/place/detail?uid=853d4bf6df727da3c5effbc0&output=html&source=placeapi_v2"}}, {"name": "\u5965\u7f57\u56fd\u9645\u5927\u9152\u5e97-\u79e6\u9882\u5385", "location": {"lat": 34.269228, "lng": 108.96009}, "address": "\u5357\u65b0\u885730\u53f7\u5965\u7f57\u56fd\u9645\u5927\u9152\u5e973\u5c42", "street_id": "a08a60ddaf894eb328b97c89", "telephone": "(029)87672888", "detail": 1, "uid": "a08a60ddaf894eb328b97c89", "detail_info": {"tag": "\u6587\u5316\u4f20\u5a92;\u5c55\u89c8\u9986", "type": "scope", "detail_url": "http://api.map.baidu.com/place/detail?uid=a08a60ddaf894eb328b97c89&output=html&source=placeapi_v2"}}, {"name": "\u9655\u897f\u98de\u9e70\u6587\u5316\u4f20\u64ad\u6709\u9650\u516c\u53f8", "location": {"lat": 34.25553, "lng": 108.966237}, "address": "\u542b\u5149\u8def\u4e2d\u6bb546\u65b0\u897f\u90e8\u533b\u836f\u4ea4\u6613\u5927\u53a6606", "street_id": "9f7f270a784a28da94f08c85", "detail": 1, "uid": "9f7f270a784a28da94f08c85", "detail_info": {"tag": "\u6587\u5316\u4f20\u5a92;\u5176\u4ed6", "type": "enterprise", "detail_url": "http://api.map.baidu.com/place/detail?uid=9f7f270a784a28da94f08c85&output=html&source=placeapi_v2", "price": "0"}}, {"name": "\u9655\u897f\u946b\u76db\u6587\u5316\u4f20\u5a92\u516c\u53f8", "location": {"lat": 34.258864, "lng": 108.959866}, "address": "\u54b8\u5b81\u5b66\u5df75\u53f7", "street_id": "22b4f3821c0fd276d8d891ad", "detail": 1, "uid": "22b4f3821c0fd276d8d891ad", "detail_info": {"tag": "\u6587\u5316\u4f20\u5a92;\u5176\u4ed6", "type": "enterprise", "detail_url": "http://api.map.baidu.com/place/detail?uid=22b4f3821c0fd276d8d891ad&output=html&source=placeapi_v2"}}, {"name": "\u9655\u897f\u79e6\u4e4b\u7f8e\u6587\u5316\u4f20\u5a92\u6709\u9650\u516c\u53f8", "location": {"lat": 34.255521, "lng": 108.960762}, "address": "\u6587\u827a\u5317\u8def\u656c\u4e1a\u5927\u53a6\u4e00\u53f7\u697c19\u5c421915\u5ba4", "street_id": "39eba7de0f4ee26e6b49f3b3", "detail": 1, "uid": "39eba7de0f4ee26e6b49f3b3", "detail_info": {"tag": "\u6587\u5316\u4f20\u5a92;\u5176\u4ed6", "type": "enterprise", "detail_url": "http://api.map.baidu.com/place/detail?uid=39eba7de0f4ee26e6b49f3b3&output=html&source=placeapi_v2", "price": "0"}}, {"name": "\u9655\u897f\u4e2d\u6b27\u76db\u5e7f\u544a\u6587\u5316\u4f20\u5a92\u6709\u9650\u516c\u53f8", "location": {"lat": 34.266614, "lng": 108.971712}, "address": "\u897f\u5b89\u5e02\u4e1c\u5927\u8857239\u53f7\u897f\u5b89\u56fd\u8d38\u5927\u53a6\u5199\u5b57\u697c7\u5c42", "street_id": "4213574f33e81554d0ff2318", "detail": 1, "uid": "4213574f33e81554d0ff2318", "detail_info": {"tag": "\u6587\u5316\u4f20\u5a92;\u5176\u4ed6", "type": "enterprise", "detail_url": "http://api.map.baidu.com/place/detail?uid=4213574f33e81554d0ff2318&output=html&source=placeapi_v2"}}, {"name": "\u8bda\u946b\u88c5\u9970", "location": {"lat": 34.257506, "lng": 108.981205}, "address": "\u54b8\u5b81\u897f\u8def41\u53f7", "street_id": "eb01e7d1d7e3f15932f71d51", "telephone": "13152406132", "detail": 1, "uid": "eb01e7d1d7e3f15932f71d51", "detail_info": {"tag": "\u6587\u5316\u4f20\u5a92", "type": "enterprise", "detail_url": "http://api.map.baidu.com/place/detail?uid=eb01e7d1d7e3f15932f71d51&output=html&source=placeapi_v2"}}, {"name": "\u5434\u4e09\u5927\u827a\u672f\u9986", "location": {"lat": 34.258921, "lng": 108.958413}, "address": "\u5e9c\u5b66\u5df73\u53f7", "street_id": "2d993b088316d1923c9a5ef5", "detail": 1, "uid": "2d993b088316d1923c9a5ef5", "detail_info": {"tag": "\u6587\u5316\u4f20\u5a92;\u7f8e\u672f\u9986", "type": "scope", "detail_url": "http://api.map.baidu.com/place/detail?uid=2d993b088316d1923c9a5ef5&output=html&source=placeapi_v2", "comment_num": "0"}}, {"name": "\u8def\u8def\u901a\u88c5\u9970", "location": {"lat": 34.25751, "lng": 108.980854}, "address": "\u9655\u897f\u7701\u897f\u5b89\u5e02\u7891\u6797\u533a\u54b8\u5b81\u897f\u8def41\u53f7", "street_id": "83d1be82c93dc6c2b64f5486", "detail": 1, "uid": "83d1be82c93dc6c2b64f5486", "detail_info": {"tag": "\u6587\u5316\u4f20\u5a92", "type": "enterprise", "detail_url": "http://api.map.baidu.com/place/detail?uid=83d1be82c93dc6c2b64f5486&output=html&source=placeapi_v2", "overall_rating": "5", "comment_num": "2"}}, {"name": "\u671d\u9633\u6cb9\u753b\u5ba4", "location": {"lat": 34.259318, "lng": 108.955376}, "address": "\u4e66\u9662\u95e8103-105\u53f72\u5c42", "street_id": "507e7e495446ecbc157643fc", "telephone": "13359236193", "detail": 1, "uid": "507e7e495446ecbc157643fc", "detail_info": {"tag": "\u6587\u5316\u4f20\u5a92;\u6587\u5316\u5bab", "navi_location": {"lng": 108.95418950929, "lat": 34.259204236662}, "type": "life", "detail_url": "http://api.map.baidu.com/place/detail?uid=507e7e495446ecbc157643fc&output=html&source=placeapi_v2", "image_num": "1", "comment_num": "0"}}, {"name": "\u897f\u5b89\u5361\u666e\u7279\u5e7f\u544a\u6587\u5316\u4f20\u64ad\u6709\u9650\u8d23\u4efb\u516c\u53f8", "location": {"lat": 34.264899, "lng": 108.981894}, "address": "\u4e1c\u5173\u5357\u885766\u53f7\u4e16\u8d38\u5927\u53a6A\u5ea7\u5199\u5b57\u697c14\u5c421402", "street_id": "de2a82e5ef3c1505d6b74ed2", "detail": 1, "uid": "de2a82e5ef3c1505d6b74ed2", "detail_info": {"tag": "\u6587\u5316\u4f20\u5a92;\u5176\u4ed6", "type": "enterprise", "detail_url": "http://api.map.baidu.com/place/detail?uid=de2a82e5ef3c1505d6b74ed2&output=html&source=placeapi_v2"}}, {"name": "\u9655\u897f\u7d20\u82b3\u56ed\u8336\u6587\u5316\u6709\u9650\u516c\u53f8", "location": {"lat": 34.265243, "lng": 108.980761}, "address": "\u4e1c\u5173\u6b63\u885770\u53f7\u62db\u5546\u5c40\u5e7f\u573aF\u5ea711\u5c42", "street_id": "3ad121d1b382ec66c2f1cf5f", "detail": 1, "uid": "3ad121d1b382ec66c2f1cf5f", "detail_info": {"tag": "\u6587\u5316\u4f20\u5a92;\u5176\u4ed6", "type": "enterprise", "detail_url": "http://api.map.baidu.com/place/detail?uid=3ad121d1b382ec66c2f1cf5f&output=html&source=placeapi_v2"}}, {"name": "\u7687\u57ce\u8c6a\u95e8\u9152\u5e97-\u591a\u529f\u80fd\u5385", "location": {"lat": 34.265141, "lng": 108.962301}, "address": "\u4e1c\u5927\u8857334\u53f7\u7687\u57ce\u8c6a\u95e8\u9152\u5e972\u5c42", "street_id": "39df51541275e88c3a13fdf6", "telephone": "(029)87690000", "detail": 1, "uid": "39df51541275e88c3a13fdf6", "detail_info": {"tag": "\u6587\u5316\u4f20\u5a92;\u5c55\u89c8\u9986", "type": "scope", "detail_url": "http://api.map.baidu.com/place/detail?uid=39df51541275e88c3a13fdf6&output=html&source=placeapi_v2"}}, {"name": "\u5c1a\u6734\u793e\u533a\u4e2d\u8001\u5e74\u6d3b\u52a8\u7ad9", "location": {"lat": 34.267199, "lng": 108.959049}, "address": "\u96c6\u8d24\u5df73\u9644\u8fd1", "street_id": "b3441a76afa41eb2cac3dbe6", "detail": 1, "uid": "b3441a76afa41eb2cac3dbe6", "detail_info": {"tag": "\u6587\u5316\u4f20\u5a92;\u6587\u5316\u5bab", "type": "life", "detail_url": "http://api.map.baidu.com/place/detail?uid=b3441a76afa41eb2cac3dbe6&output=html&source=placeapi_v2", "overall_rating": "0", "image_num": "2"}}, {"name": "\u79e6\u76db\u88c5\u9970", "location": {"lat": 34.257513, "lng": 108.980533}, "address": "\u54b8\u5b81\u897f\u8def41\u53f7", "street_id": "8babc952f1fcba11cafa5f34", "detail": 1, "uid": "8babc952f1fcba11cafa5f34", "detail_info": {"tag": "\u6587\u5316\u4f20\u5a92", "type": "life", "detail_url": "http://api.map.baidu.com/place/detail?uid=8babc952f1fcba11cafa5f34&output=html&source=placeapi_v2", "image_num": "4"}}, {"name": "\u897f\u5b89\u5e02\u7fa4\u4f17\u827a\u672f\u9986-\u79e6\u97f5\u827a\u672f\u56e2", "location": {"lat": 34.256946, "lng": 108.960761}, "address": "\u6587\u827a\u5317\u8def\u7532\u5b571\u53f7", "street_id": "6deee308f6e9d51429fc4839", "detail": 1, "uid": "6deee308f6e9d51429fc4839", "detail_info": {"tag": "\u6587\u5316\u4f20\u5a92;\u827a\u672f\u56e2\u4f53", "navi_location": {"lng": 108.96054704196, "lat": 34.256945433401}, "type": "enterprise", "detail_url": "http://api.map.baidu.com/place/detail?uid=6deee308f6e9d51429fc4839&output=html&source=placeapi_v2"}}, {"name": "\u897f\u5b89\u5e02\u7fa4\u4f17\u827a\u672f\u9986\u77f3\u69b4\u82b1\u827a\u672f\u56e2", "location": {"lat": 34.256947, "lng": 108.960761}, "address": "\u6587\u827a\u5317\u8def\u7532\u5b571\u53f7", "street_id": "4ce10ce618b2e8df441a323c", "detail": 1, "uid": "4ce10ce618b2e8df441a323c", "detail_info": {"tag": "\u6587\u5316\u4f20\u5a92;\u827a\u672f\u56e2\u4f53", "navi_location": {"lng": 108.96054704196, "lat": 34.256945433401}, "type": "enterprise", "detail_url": "http://api.map.baidu.com/place/detail?uid=4ce10ce618b2e8df441a323c&output=html&source=placeapi_v2"}}, {"name": "\u57fa\u6c47\u6587\u5316\u4f20\u64ad\u6709\u9650\u516c\u53f8", "location": {"lat": 34.260558, "lng": 108.962749}, "address": "\u5f00\u901a\u5df721\u53f7\u9644\u8fd1", "street_id": "db1cd204ec29448a02294fb7", "telephone": "(029)87520121", "detail": 1, "uid": "db1cd204ec29448a02294fb7", "detail_info": {"tag": "\u6587\u5316\u4f20\u5a92;\u5176\u4ed6", "type": "enterprise", "detail_url": "http://api.map.baidu.com/place/detail?uid=db1cd204ec29448a02294fb7&output=html&source=placeapi_v2"}}, {"name": "\u9655\u897f\u6167\u4ec1\u6587\u5316\u4f20\u64ad\u6709\u9650\u516c\u53f8", "location": {"lat": 34.255727, "lng": 108.960772}, "address": "\u897f\u5b89\u5e02\u7891\u6797\u533a\u6587\u827a\u5317\u8def\u656c\u4e1a\u00b7\u4e50\u5e9c5\u5c42", "street_id": "6c56160d4f56a2926fc02c37", "detail": 1, "uid": "6c56160d4f56a2926fc02c37", "detail_info": {"tag": "\u6587\u5316\u4f20\u5a92;\u5176\u4ed6", "type": "enterprise", "detail_url": "http://api.map.baidu.com/place/detail?uid=6c56160d4f56a2926fc02c37&output=html&source=placeapi_v2"}}, {"name": "\u6e90\u535a\u4e66\u753b\u827a\u672f\u6587\u5316\u4f20\u64ad\u516c\u53f8", "location": {"lat": 34.259037, "lng": 108.956588}, "address": "\u9655\u897f\u7701\u897f\u5b89\u5e02\u7891\u6797\u533a\u4e09\u5b66\u885738\u9644\u8fd1", "street_id": "41a39e083383f646f7eafca1", "detail": 1, "uid": "41a39e083383f646f7eafca1", "detail_info": {"tag": "\u516c\u53f8\u4f01\u4e1a", "type": "enterprise", "detail_url": "http://api.map.baidu.com/place/detail?uid=41a39e083383f646f7eafca1&output=html&source=placeapi_v2"}}, {"name": "\u897f\u5b89\u5723\u8d24\u6587\u5316\u4f20\u64ad\u6709\u9650\u516c\u53f8", "location": {"lat": 34.259134, "lng": 108.958404}, "address": "\u5e9c\u5b66\u5df75\u53f7\u9644\u8fd1", "street_id": "814ff0a9288e81244e5547cd", "detail": 1, "uid": "814ff0a9288e81244e5547cd", "detail_info": {"tag": "\u6587\u5316\u4f20\u5a92;\u5176\u4ed6", "type": "enterprise", "detail_url": "http://api.map.baidu.com/place/detail?uid=814ff0a9288e81244e5547cd&output=html&source=placeapi_v2"}}, {"name": "\u897f\u5b89\u6708\u8272\u5e7f\u544a\u6587\u5316\u4f20\u64ad\u6709\u9650\u516c\u53f8", "location": {"lat": 34.25464, "lng": 108.958193}, "address": "\u4ec1\u4e49\u8def8\u53f7\u9644\u8fd1", "detail": 1, "uid": "b0298d06c73194bbb54f5401", "detail_info": {"tag": "\u6587\u5316\u4f20\u5a92;\u5176\u4ed6", "type": "enterprise", "detail_url": "http://api.map.baidu.com/place/detail?uid=b0298d06c73194bbb54f5401&output=html&source=placeapi_v2", "price": "0"}}, {"name": "\u897f\u5b89\u6b27\u827a\u7a7a\u95f4\u6587\u5316\u4f20\u64ad\u6709\u9650\u516c\u53f8", "location": {"lat": 34.258903, "lng": 108.959686}, "address": "\u9655\u897f\u7701\u897f\u5b89\u5e02\u7891\u6797\u533a\u897f\u5b89\u7891\u6797\u535a\u7269\u9986\u4e1c\u95e8", "street_id": "a32e9205b8caaff78af15d66", "detail": 1, "uid": "a32e9205b8caaff78af15d66", "detail_info": {"tag": "\u516c\u53f8\u4f01\u4e1a;\u516c\u53f8", "type": "enterprise", "detail_url": "http://api.map.baidu.com/place/detail?uid=a32e9205b8caaff78af15d66&output=html&source=placeapi_v2"}}, {"name": "\u9655\u897f\u9f0e\u6052\u5e7f\u544a\u6587\u5316\u4f20\u64ad\u6709\u9650\u516c\u53f8", "location": {"lat": 34.254655, "lng": 108.957149}, "address": "\u4ec1\u4e49\u8def\u4e0e\u4f53\u80b2\u9986\u4e1c\u8def\u4ea4\u53c9\u53e3\u4e1c50\u7c73", "street_id": "eb8b1b71b67610c800ec01be", "detail": 1, "uid": "eb8b1b71b67610c800ec01be", "detail_info": {"tag": "\u6587\u5316\u4f20\u5a92;\u5176\u4ed6", "type": "enterprise", "detail_url": "http://api.map.baidu.com/place/detail?uid=eb8b1b71b67610c800ec01be&output=html&source=placeapi_v2"}}, {"name": "\u897f\u5b89\u83f2\u6b27\u5e7f\u544a\u6587\u5316\u4f20\u64ad\u6709\u9650\u516c\u53f8", "location": {"lat": 34.257038, "lng": 108.97946}, "address": "\u9655\u897f\u7701\u897f\u5b89\u5e02\u7891\u6797\u533a\u54b8\u5b81\u897f\u8def76\u53f7", "street_id": "8f1217b6a187686f400245c6", "detail": 1, "uid": "8f1217b6a187686f400245c6", "detail_info": {"tag": "\u6587\u5316\u4f20\u5a92;\u5176\u4ed6", "type": "enterprise", "detail_url": "http://api.map.baidu.com/place/detail?uid=8f1217b6a187686f400245c6&output=html&source=placeapi_v2"}}, {"name": "\u897f\u5b89\u8d24\u6765\u805a\u827a\u672f\u6587\u5316\u4f20\u64ad\u6709\u9650\u8d23\u4efb\u516c\u53f8", "location": {"lat": 34.258786, "lng": 108.956521}, "address": "\u9655\u897f\u7701\u897f\u5b89\u5e02\u7891\u6797\u533a\u4e66\u9662\u95e8\u6b65\u884c\u885712\u53f7", "street_id": "5159b88db76dadf90189729d", "detail": 0, "uid": "5159b88db76dadf90189729d", "detail_info": {"tag": "\u6587\u5316\u4f20\u5a92;\u5176\u4ed6"}}, {"name": "\u4e2d\u56fd\u4e66\u753b\u6587\u5316\u4f20\u64ad\u95e8\u6237", "location": {"lat": 34.268314, "lng": 108.976088}, "address": "\u897f\u5b89\u5e02\u65b0\u57ce\u533a", "street_id": "11c17c54ee99867e9df779b0", "detail": 1, "uid": "11c17c54ee99867e9df779b0", "detail_info": {"tag": "\u6587\u5316\u4f20\u5a92;\u5176\u4ed6", "type": "enterprise", "detail_url": "http://api.map.baidu.com/place/detail?uid=11c17c54ee99867e9df779b0&output=html&source=placeapi_v2"}}, {"name": "\u9655\u897f\u8299\u4e3d\u534e\u6587\u5316\u793c\u4eea\u4f20\u64ad\u6709\u9650\u516c\u53f8", "location": {"lat": 34.266614, "lng": 108.971712}, "address": "\u897f\u5b89\u5e02\u4e1c\u5927\u8857239\u53f7\u897f\u5b89\u56fd\u8d38\u5927\u53a6\u5199\u5b57\u697c7\u5c42", "street_id": "cda2e822c9b60d81d4851fdc", "detail": 1, "uid": "cda2e822c9b60d81d4851fdc", "detail_info": {"tag": "\u516c\u53f8\u4f01\u4e1a;\u516c\u53f8", "type": "enterprise", "detail_url": "http://api.map.baidu.com/place/detail?uid=cda2e822c9b60d81d4851fdc&output=html&source=placeapi_v2", "overall_rating": "4.6", "comment_num": "10"}}, {"name": "\u9655\u897f\u7701\u4f1a\u5c55\u4e2d\u5fc3", "location": {"lat": 34.276535, "lng": 108.962068}, "address": "\u897f\u4e94\u8def85\u53f7", "street_id": "2527be1ed55f33b24afc8d30", "detail": 1, "uid": "2527be1ed55f33b24afc8d30", "detail_info": {"tag": "\u6587\u5316\u4f20\u5a92;\u5c55\u89c8\u9986", "navi_location": {"lng": 108.9617824447, "lat": 34.276411000476}, "type": "scope", "detail_url": "http://api.map.baidu.com/place/detail?uid=2527be1ed55f33b24afc8d30&output=html&source=placeapi_v2", "comment_num": "0"}}, {"name": "\u897f\u5b89\u4f9b\u7535\u5c40\u5de5\u4eba\u6587\u5316\u5bab", "location": {"lat": 34.281464, "lng": 108.979546}, "address": "\u73af\u57ce\u4e1c\u8def159-6", "street_id": "e116be5484006806c91b95f7", "detail": 1, "uid": "e116be5484006806c91b95f7", "detail_info": {"tag": "\u6587\u5316\u4f20\u5a92;\u6587\u5316\u5bab", "navi_location": {"lng": 108.97893997124, "lat": 34.281362757704}, "type": "life", "detail_url": "http://api.map.baidu.com/place/detail?uid=e116be5484006806c91b95f7&output=html&source=placeapi_v2", "overall_rating": "4.0", "image_num": "9", "comment_num": "1"}}, {"name": "\u9655\u897f\u7701\u8001\u5e72\u90e8\u6d3b\u52a8\u4e2d\u5fc3", "location": {"lat": 34.276594, "lng": 108.962917}, "address": "\u65b0\u57ce\u533a\u897f\u4e94\u8def81\u53f7(\u9769\u547d\u516c\u56ed\u897f\u9694\u58c1)", "street_id": "5211d219659e6c257dc87618", "detail": 1, "uid": "5211d219659e6c257dc87618", "detail_info": {"tag": "\u6587\u5316\u4f20\u5a92;\u6587\u5316\u5bab", "navi_location": {"lng": 108.96287529623, "lat": 34.276421353142}, "type": "life", "detail_url": "http://api.map.baidu.com/place/detail?uid=5211d219659e6c257dc87618&output=html&source=placeapi_v2", "overall_rating": "1.0", "image_num": "5", "comment_num": "1"}}, {"name": "\u9655\u897f\u7701\u827a\u672f\u9986", "location": {"lat": 34.280125, "lng": 108.956987}, "address": "\u897f\u4e03\u8def279\u53f7", "street_id": "af1ae56b757d43124207c106", "telephone": "(029)87276409", "detail": 1, "uid": "af1ae56b757d43124207c106", "detail_info": {"tag": "\u6587\u5316\u4f20\u5a92;\u7f8e\u672f\u9986", "navi_location": {"lng": 108.95698690361, "lat": 34.279936069583}, "type": "scope", "detail_url": "http://api.map.baidu.com/place/detail?uid=af1ae56b757d43124207c106&output=html&source=placeapi_v2"}}, {"name": "\u7d22\u83f2\u7279\u56fd\u9645\u4f1a\u5c55\u4e2d\u5fc3", "location": {"lat": 34.271826, "lng": 108.965155}, "address": "\u9655\u897f\u7701\u897f\u5b89\u5e02\u65b0\u57ce\u533a\u4e1c\u65b0\u8857319\u53f7", "street_id": "491fab44b7e5ba402bd7abc5", "detail": 1, "uid": "491fab44b7e5ba402bd7abc5", "detail_info": {"tag": "\u6587\u5316\u4f20\u5a92;\u5c55\u89c8\u9986", "navi_location": {"lng": 108.96597647682, "lat": 34.271809984037}, "type": "scope", "detail_url": "http://api.map.baidu.com/place/detail?uid=491fab44b7e5ba402bd7abc5&output=html&source=placeapi_v2"}}, {"name": "\u5de5\u4eba\u6587\u5316\u5bab", "location": {"lat": 34.279849, "lng": 108.963126}, "address": "\u897f\u5b89\u5e02\u65b0\u57ce\u533a\u897f\u4e03\u8def316\u53f7", "street_id": "bcaebff887e35c54c9e33c06", "detail": 1, "uid": "bcaebff887e35c54c9e33c06", "detail_info": {"tag": "\u6587\u5316\u4f20\u5a92;\u6587\u5316\u5bab", "navi_location": {"lng": 108.96312615254, "lat": 34.279990210222}, "type": "life", "detail_url": "http://api.map.baidu.com/place/detail?uid=bcaebff887e35c54c9e33c06&output=html&source=placeapi_v2", "image_num": "5", "comment_num": "0"}}, {"name": "\u7687\u57ce\u7f8e\u672f\u9986", "location": {"lat": 34.275706, "lng": 108.971285}, "address": "\u897f\u5b89\u5e02\u65b0\u57ce\u533a\u5c1a\u4fed\u8def360\u53f7", "street_id": "be2416e648da5f7471455b12", "detail": 1, "uid": "be2416e648da5f7471455b12", "detail_info": {"tag": "\u6587\u5316\u4f20\u5a92;\u7f8e\u672f\u9986", "navi_location": {"lng": 108.97097105545, "lat": 34.276262245072}, "type": "scope", "detail_url": "http://api.map.baidu.com/place/detail?uid=be2416e648da5f7471455b12&output=html&source=placeapi_v2", "overall_rating": "3.3", "comment_num": "5"}}, {"name": "\u88d5\u6717\u56fd\u9645\u7f8e\u672f\u9986", "location": {"lat": 34.272106, "lng": 108.970995}, "address": "\u89e3\u653e\u8def77\u53f7", "street_id": "318bb7ae45824e395e17c375", "detail": 1, "uid": "318bb7ae45824e395e17c375", "detail_info": {"tag": "\u6587\u5316\u4f20\u5a92;\u7f8e\u672f\u9986", "navi_location": {"lng": 108.97097027572, "lat": 34.272280741721}, "type": "scope", "detail_url": "http://api.map.baidu.com/place/detail?uid=318bb7ae45824e395e17c375&output=html&source=placeapi_v2", "comment_num": "0"}}, {"name": "\u897f\u5b89\u94c1\u8def\u6587\u5316\u5bab", "location": {"lat": 34.286392, "lng": 108.967278}, "address": "\u9655\u897f\u7701\u897f\u5b89\u5e02\u65b0\u57ce\u533a\u81ea\u5f3a\u4e1c\u8def464\u53f7(\u5927\u660e\u5bab\u4e39\u51e4\u95e8\u5bf9\u9762)", "street_id": "3c0ea7c5e87eef9cfbf0cb06", "detail": 1, "uid": "3c0ea7c5e87eef9cfbf0cb06", "detail_info": {"tag": "\u6587\u5316\u4f20\u5a92;\u6587\u5316\u5bab", "navi_location": {"lng": 108.96708155249, "lat": 34.286633443589}, "type": "life", "detail_url": "http://api.map.baidu.com/place/detail?uid=3c0ea7c5e87eef9cfbf0cb06&output=html&source=placeapi_v2", "overall_rating": "3.0", "image_num": "18", "comment_num": "1"}}, {"name": "\u9655\u897f\u5b89\u4eba\u6587\u5316\u4f20\u64ad\u6709\u9650\u516c\u53f8", "location": {"lat": 34.27909, "lng": 108.969026}, "address": "\u89e3\u653e\u8def318\u53f7\u897f\u5b89\u4e66\u520a\u6279\u53d1\u5e02\u573a1-4\u53f7", "street_id": "2137be2689cb958301897200", "detail": 1, "uid": "2137be2689cb958301897200", "detail_info": {"tag": "\u6587\u5316\u4f20\u5a92;\u5176\u4ed6", "type": "enterprise", "detail_url": "http://api.map.baidu.com/place/detail?uid=2137be2689cb958301897200&output=html&source=placeapi_v2"}}, {"name": "\u9655\u897f\u8001\u5e74\u62a5\u793e", "location": {"lat": 34.279847, "lng": 108.96016}, "address": "\u897f\u4e03\u8def380\u53f7", "street_id": "f633606a284ea94e0b69d906", "telephone": "(029)87214923", "detail": 1, "uid": "f633606a284ea94e0b69d906", "detail_info": {"tag": "\u6587\u5316\u4f20\u5a92;\u65b0\u95fb\u51fa\u7248", "type": "enterprise", "detail_url": "http://api.map.baidu.com/place/detail?uid=f633606a284ea94e0b69d906&output=html&source=placeapi_v2"}}, {"name": "\u9655\u897f\u5c0f\u660e\u661f\u827a\u672f\u56e2", "location": {"lat": 34.280045, "lng": 108.955003}, "address": "\u897f\u4e03\u8def293\u53f72\u5c42", "street_id": "e2115b6d4d2b77dc5c17c376", "telephone": "029-87211942", "detail": 1, "uid": "e2115b6d4d2b77dc5c17c376", "detail_info": {"tag": "\u6587\u5316\u4f20\u5a92;\u827a\u672f\u56e2\u4f53", "navi_location": {"lng": 108.95500578693, "lat": 34.27991080751}, "type": "enterprise", "detail_url": "http://api.map.baidu.com/place/detail?uid=e2115b6d4d2b77dc5c17c376&output=html&source=placeapi_v2", "overall_rating": "5", "comment_num": "5"}}, {"name": "\u897f\u5b89\u5e02\u4f53\u80b2\u5c40-\u8001\u5e72\u90e8\u6d3b\u52a8\u4e2d\u5fc3", "location": {"lat": 34.272862, "lng": 108.965648}, "address": "\u5c1a\u5fb7\u8def66\u53f7\u897f\u5b89\u8c6a\u534e\u7f8e\u5c45\u4eba\u6c11\u5927\u53a6\u9644\u8fd1", "street_id": "69899379a1548c21f7c59c50", "detail": 1, "uid": "69899379a1548c21f7c59c50", "detail_info": {"tag": "\u6587\u5316\u4f20\u5a92;\u6587\u5316\u5bab", "navi_location": {"lng": 108.96561707466, "lat": 34.27297399219}, "type": "life", "detail_url": "http://api.map.baidu.com/place/detail?uid=69899379a1548c21f7c59c50&output=html&source=placeapi_v2", "image_num": "1"}}, {"name": "\u6307\u5357\u9488\u5546\u52a1\u9152\u5e97-\u5546\u52a1\u4e2d\u5fc3", "location": {"lat": 34.272059, "lng": 108.955937}, "address": "\u897f\u534e\u95e8\u65b0\u6c11\u885738\u53f7\u897f\u534e\u6570\u7801\u5927\u53a6", "street_id": "60df68c211fa6ce6c3364499", "telephone": "15353539632", "detail": 1, "uid": "60df68c211fa6ce6c3364499", "detail_info": {"tag": "\u6587\u5316\u4f20\u5a92", "type": "enterprise", "detail_url": "http://api.map.baidu.com/place/detail?uid=60df68c211fa6ce6c3364499&output=html&source=placeapi_v2"}}, {"name": "\u4e2d\u56fd\u5efa\u7b51\u897f\u5317\u8bbe\u8ba1\u7814\u7a76\u9662\u804c\u5de5\u6d3b\u52a8\u4e2d\u5fc3", "location": {"lat": 34.281341, "lng": 108.955987}, "address": "\u897f\u4e03\u8def291\u53f7", "street_id": "cee713fea2f16d08740269d3", "detail": 1, "uid": "cee713fea2f16d08740269d3", "detail_info": {"tag": "\u6587\u5316\u4f20\u5a92;\u6587\u5316\u5bab", "navi_location": {"lng": 108.95519955053, "lat": 34.280331216558}, "type": "life", "detail_url": "http://api.map.baidu.com/place/detail?uid=cee713fea2f16d08740269d3&output=html&source=placeapi_v2", "image_num": "1"}}, {"name": "\u300a\u5de5\u5546\u4e0e\u5e02\u573a\u300b\u6742\u5fd7\u793e", "location": {"lat": 34.271066, "lng": 108.956947}, "address": "\u897f\u65b0\u88579\u53f7\u6d77\u661f\u667a\u80fd\u5e7f\u573a8\u5c42", "street_id": "ffd59deb6085f00812882490", "detail": 1, "uid": "ffd59deb6085f00812882490", "detail_info": {"tag": "\u6587\u5316\u4f20\u5a92;\u65b0\u95fb\u51fa\u7248", "navi_location": {"lng": 108.95758446901, "lat": 34.270841235826}, "type": "enterprise", "detail_url": "http://api.map.baidu.com/place/detail?uid=ffd59deb6085f00812882490&output=html&source=placeapi_v2"}}, {"name": "\u897f\u5b89\u5c0f\u5929\u9e45\u827a\u672f\u56e2", "location": {"lat": 34.273684, "lng": 108.968053}, "address": "\u897f\u4e09\u8def9\u53f7\u4e1c\u5149\u56fd\u9645\u5e7f\u573a2\u53f7\u697c6\u5c42", "street_id": "4c2b27485d0b32707702696a", "telephone": "(029)87456027", "detail": 1, "uid": "4c2b27485d0b32707702696a", "detail_info": {"tag": "\u6587\u5316\u4f20\u5a92;\u827a\u672f\u56e2\u4f53", "type": "enterprise", "detail_url": "http://api.map.baidu.com/place/detail?uid=4c2b27485d0b32707702696a&output=html&source=placeapi_v2"}}, {"name": "\u9655\u897f\u4e94\u73af\u6587\u5316\u4f20\u64ad\u6709\u9650\u516c\u53f8", "location": {"lat": 34.278862, "lng": 108.969002}, "address": "\u89e3\u653e\u8def318\u53f7\u897f\u5b89\u4e66\u6797\u4e00\u5c4218\u53f7", "street_id": "1cad933b103249fab11e36fd", "detail": 1, "uid": "1cad933b103249fab11e36fd", "detail_info": {"tag": "\u6587\u5316\u4f20\u5a92;\u5176\u4ed6", "type": "enterprise", "detail_url": "http://api.map.baidu.com/place/detail?uid=1cad933b103249fab11e36fd&output=html&source=placeapi_v2"}}, {"name": "\u4eac\u5510\u827a\u672f\u9986", "location": {"lat": 34.27126, "lng": 108.972248}, "address": "\u897f\u5b89\u5e02\u5efa\u56fd\u8def65\u53f7\u96cd\u6751\u996d\u5e97(\u7701\u59d4\u62db\u5f85\u6240)2\u697c", "street_id": "2554e70c1f019948740269e2", "detail": 1, "uid": "2554e70c1f019948740269e2", "detail_info": {"tag": "\u6587\u5316\u4f20\u5a92;\u7f8e\u672f\u9986", "type": "scope", "detail_url": "http://api.map.baidu.com/place/detail?uid=2554e70c1f019948740269e2&output=html&source=placeapi_v2", "comment_num": "0"}}, {"name": "\u963f\u82b3\u8001\u5e74\u6d3b\u52a8\u4e2d\u5fc3", "location": {"lat": 34.278038, "lng": 108.962371}, "address": "\u540e\u5bb0\u95e83-13", "street_id": "1cfd94ac54b0cf1f46e274ac", "detail": 1, "uid": "1cfd94ac54b0cf1f46e274ac", "detail_info": {"tag": "\u6587\u5316\u4f20\u5a92;\u6587\u5316\u5bab", "navi_location": {"lng": 108.96237157501, "lat": 34.277901272589},