西安市儿童医院,108.92224377301825,34.26329288638734,a86009b1e0f6ea0707026fde,"{'name': '西安市儿童医院', 'location': {'lat': 34.26763, 'lng': 108.933378}, 'address': '西安市莲湖区西举院巷69号', 'street_id': 'a86009b1e0f6ea0707026fde', 'detail': 1, 'uid': 'a86009b1e0f6ea0707026fde', 'detail_info': {'tag': '医疗;专科医院', 'type': 'hospital', 'detail_url': 'http://api.map.baidu.com/place/detail?uid=a86009b1e0f6ea0707026fde&output=html&source=placeapi_v2', 'price': '0.0', 'overall_rating': '5.0', 'image_num': '42', 'comment_num': '10'}}"
"{'name': '西安市儿童医院', 'location': {'lat': 34.26763, 'lng': 108.933378}, 'address': '西安市莲湖区西举院巷69号', 'street_id': 'a86009b1e0f6ea0707026fde', 'detail': 1, 'uid': 'a86009b1e0f6ea0707026fde', 'detail_info': {'tag': '医疗;专科医院', 'type': 'hospital', 'detail_url': 'http://api.map.baidu.com/place/detail?uid=a86009b1e0f6ea0707026fde&output=html&source=placeapi_v2', 'price': '0.0', 'overall_rating': '5.0', 'image_num': '42', 'comment_num': '10'}}"
西安市儿童医院-门诊,108.92218559146457,34.263305929499694,d991e1169acf7d281f389401,"{'name': '西安市儿童医院-门诊', 'location': {'lat': 34.267642, 'lng': 108.93332}, 'address': '西安市西门内西举院巷69号', 'street_id': 'd991e1169acf7d281f389401', 'detail': 1, 'uid': 'd991e1169acf7d281f389401', 'detail_info': {'tag': '医疗;其他', 'navi_location': {'lng': 108.93333411799, 'lat': 34.266874545695}, 'type': 'hospital', 'detail_url': 'http://api.map.baidu.com/place/detail?uid=d991e1169acf7d281f389401&output=html&source=placeapi_v2', 'overall_rating': '3.3', 'image_num': '4', 'comment_num': '4'}}"
"{'name': '西安市儿童医院-门诊', 'location': {'lat': 34.267642, 'lng': 108.93332}, 'address': '西安市西门内西举院巷69号', 'street_id': 'd991e1169acf7d281f389401', 'detail': 1, 'uid': 'd991e1169acf7d281f389401', 'detail_info': {'tag': '医疗;其他', 'navi_location': {'lng': 108.93333411799, 'lat': 34.266874545695}, 'type': 'hospital', 'detail_url': 'http://api.map.baidu.com/place/detail?uid=d991e1169acf7d281f389401&output=html&source=placeapi_v2', 'overall_rating': '3.3', 'image_num': '4', 'comment_num': '4'}}"
陕西省中医医院,108.94030164756387,34.265432459754045,881a28e7a5708e5ef942b27b,"{'name': '陕西省中医医院', 'location': {'lat': 34.27008, 'lng': 108.951389}, 'address': '西安市莲湖区西华门2号', 'street_id': '881a28e7a5708e5ef942b27b', 'detail': 1, 'uid': '881a28e7a5708e5ef942b27b', 'detail_info': {'tag': '医疗;综合医院', 'navi_location': {'lng': 108.95163421099, 'lat': 34.270575336101}, 'type': 'hospital', 'detail_url': 'http://api.map.baidu.com/place/detail?uid=881a28e7a5708e5ef942b27b&output=html&source=placeapi_v2', 'price': '0', 'overall_rating': '2.4', 'image_num': '33', 'comment_num': '8'}}"
"{'name': '陕西省中医医院', 'location': {'lat': 34.27008, 'lng': 108.951389}, 'address': '西安市莲湖区西华门2号', 'street_id': '881a28e7a5708e5ef942b27b', 'detail': 1, 'uid': '881a28e7a5708e5ef942b27b', 'detail_info': {'tag': '医疗;综合医院', 'navi_location': {'lng': 108.95163421099, 'lat': 34.270575336101}, 'type': 'hospital', 'detail_url': 'http://api.map.baidu.com/place/detail?uid=881a28e7a5708e5ef942b27b&output=html&source=placeapi_v2', 'price': '0', 'overall_rating': '2.4', 'image_num': '33', 'comment_num': '8'}}"
西安市第一医院,108.94046566252868,34.256462835775764,060f5e53ed73dace081cc753,"{'name': '西安市第一医院', 'location': {'lat': 34.261112, 'lng': 108.951561}, 'address': '西安市碑林区粉巷30号', 'street_id': '060f5e53ed73dace081cc753', 'detail': 1, 'uid': '060f5e53ed73dace081cc753', 'detail_info': {'tag': '医疗;综合医院', 'navi_location': {'lng': 108.95142292415, 'lat': 34.261626462276}, 'type': 'hospital', 'detail_url': 'http://api.map.baidu.com/place/detail?uid=060f5e53ed73dace081cc753&output=html&source=placeapi_v2', 'price': '0', 'overall_rating': '3.9', 'image_num': '58', 'comment_num': '0'}}"
"{'name': '西安市第一医院', 'location': {'lat': 34.261112, 'lng': 108.951561}, 'address': '西安市碑林区粉巷30号', 'street_id': '060f5e53ed73dace081cc753', 'detail': 1, 'uid': '060f5e53ed73dace081cc753', 'detail_info': {'tag': '医疗;综合医院', 'navi_location': {'lng': 108.95142292415, 'lat': 34.261626462276}, 'type': 'hospital', 'detail_url': 'http://api.map.baidu.com/place/detail?uid=060f5e53ed73dace081cc753&output=html&source=placeapi_v2', 'price': '0', 'overall_rating': '3.9', 'image_num': '58', 'comment_num': '0'}}"
美年大健康体检(康成南门分院),108.93690644577212,34.25224330904512,35debf299e90555da6da396a,"{'name': '美年大健康体检(康成南门分院)', 'location': {'lat': 34.256839, 'lng': 108.94801}, 'address': '碑林区环城南路西段48号城市郦景大厦', 'street_id': 'd22e5d1864b2f43a4d776e53', 'detail': 1, 'uid': '35debf299e90555da6da396a', 'detail_info': {'tag': '医疗;体检机构', 'navi_location': {'lng': 108.94759296986, 'lat': 34.257064404753}, 'type': 'hospital', 'detail_url': 'http://api.map.baidu.com/place/detail?uid=35debf299e90555da6da396a&output=html&source=placeapi_v2', 'overall_rating': '2.8', 'image_num': '60', 'comment_num': '2'}}"
"{'name': '美年大健康体检(康成南门分院)', 'location': {'lat': 34.256839, 'lng': 108.94801}, 'address': '碑林区环城南路西段48号城市郦景大厦', 'street_id': 'd22e5d1864b2f43a4d776e53', 'detail': 1, 'uid': '35debf299e90555da6da396a', 'detail_info': {'tag': '医疗;体检机构', 'navi_location': {'lng': 108.94759296986, 'lat': 34.257064404753}, 'type': 'hospital', 'detail_url': 'http://api.map.baidu.com/place/detail?uid=35debf299e90555da6da396a&output=html&source=placeapi_v2', 'overall_rating': '2.8', 'image_num': '60', 'comment_num': '2'}}"
莲湖区红十字会医院,108.92797678059405,34.25838264841574,9e05dbdd6d0fe8d14f6d469d,"{'name': '莲湖区红十字会医院', 'location': {'lat': 34.262824, 'lng': 108.939097}, 'address': '陕西省西安市莲湖区红光街29号(光大银行旁)', 'street_id': '9e05dbdd6d0fe8d14f6d469d', 'detail': 1, 'uid': '9e05dbdd6d0fe8d14f6d469d', 'detail_info': {'tag': '医疗;综合医院', 'navi_location': {'lng': 108.93901077192, 'lat': 34.26272608011}, 'type': 'hospital', 'detail_url': 'http://api.map.baidu.com/place/detail?uid=9e05dbdd6d0fe8d14f6d469d&output=html&source=placeapi_v2', 'price': '0', 'overall_rating': '3.5', 'image_num': '27', 'comment_num': '34'}}"
"{'name': '莲湖区红十字会医院', 'location': {'lat': 34.262824, 'lng': 108.939097}, 'address': '陕西省西安市莲湖区红光街29号(光大银行旁)', 'street_id': '9e05dbdd6d0fe8d14f6d469d', 'detail': 1, 'uid': '9e05dbdd6d0fe8d14f6d469d', 'detail_info': {'tag': '医疗;综合医院', 'navi_location': {'lng': 108.93901077192, 'lat': 34.26272608011}, 'type': 'hospital', 'detail_url': 'http://api.map.baidu.com/place/detail?uid=9e05dbdd6d0fe8d14f6d469d&output=html&source=placeapi_v2', 'price': '0', 'overall_rating': '3.5', 'image_num': '27', 'comment_num': '34'}}"
西安市妇幼保健院,108.93645775472187,34.26146073761683,8ab0dfc4fac44d0fd8eced4a,"{'name': '西安市妇幼保健院', 'location': {'lat': 34.26605, 'lng': 108.947554}, 'address': '西安市莲湖区西大街73号', 'street_id': '8ab0dfc4fac44d0fd8eced4a', 'detail': 1, 'uid': '8ab0dfc4fac44d0fd8eced4a', 'detail_info': {'tag': '医疗;专科医院', 'navi_location': {'lng': 108.94740062289, 'lat': 34.265775525502}, 'type': 'hospital', 'detail_url': 'http://api.map.baidu.com/place/detail?uid=8ab0dfc4fac44d0fd8eced4a&output=html&source=placeapi_v2', 'price': '0', 'overall_rating': '4', 'image_num': '5', 'comment_num': '2'}}"
"{'name': '西安市妇幼保健院', 'location': {'lat': 34.26605, 'lng': 108.947554}, 'address': '西安市莲湖区西大街73号', 'street_id': '8ab0dfc4fac44d0fd8eced4a', 'detail': 1, 'uid': '8ab0dfc4fac44d0fd8eced4a', 'detail_info': {'tag': '医疗;专科医院', 'navi_location': {'lng': 108.94740062289, 'lat': 34.265775525502}, 'type': 'hospital', 'detail_url': 'http://api.map.baidu.com/place/detail?uid=8ab0dfc4fac44d0fd8eced4a&output=html&source=placeapi_v2', 'price': '0', 'overall_rating': '4', 'image_num': '5', 'comment_num': '2'}}"
北京同仁堂西大街店,108.9246429159649,34.261345516309184,bba87388944070a3bca82221,"{'name': '北京同仁堂西大街店', 'location': {'lat': 34.265726, 'lng': 108.935771}, 'address': '西大街301号临街商铺二层', 'street_id': 'd1fdf620e05c82f258f6be72', 'detail': 1, 'uid': 'bba87388944070a3bca82221', 'detail_info': {'tag': '医疗;药店', 'navi_location': {'lng': 108.93583832696, 'lat': 34.265567468653}, 'type': 'hospital', 'detail_url': 'http://api.map.baidu.com/place/detail?uid=bba87388944070a3bca82221&output=html&source=placeapi_v2', 'price': '0.0', 'image_num': '12'}}"
"{'name': '北京同仁堂西大街店', 'location': {'lat': 34.265726, 'lng': 108.935771}, 'address': '西大街301号临街商铺二层', 'street_id': 'd1fdf620e05c82f258f6be72', 'detail': 1, 'uid': 'bba87388944070a3bca82221', 'detail_info': {'tag': '医疗;药店', 'navi_location': {'lng': 108.93583832696, 'lat': 34.265567468653}, 'type': 'hospital', 'detail_url': 'http://api.map.baidu.com/place/detail?uid=bba87388944070a3bca82221&output=html&source=placeapi_v2', 'price': '0.0', 'image_num': '12'}}"
西安市眼科医院,108.93926380478801,34.25689797690828,02d154744ec8d65877026958,"{'name': '西安市眼科医院', 'location': {'lat': 34.26153, 'lng': 108.95036}, 'address': '陕西省西安市碑林区南院门街道南大街粉巷30号', 'street_id': '02d154744ec8d65877026958', 'telephone': '(029)87630857', 'detail': 1, 'uid': '02d154744ec8d65877026958', 'detail_info': {'tag': '医疗;专科医院', 'navi_location': {'lng': 108.95064490983, 'lat': 34.261665800085}, 'type': 'hospital', 'detail_url': 'http://api.map.baidu.com/place/detail?uid=02d154744ec8d65877026958&output=html&source=placeapi_v2', 'price': '0', 'image_num': '5', 'comment_num': '0'}}"
"{'name': '西安市眼科医院', 'location': {'lat': 34.26153, 'lng': 108.95036}, 'address': '陕西省西安市碑林区南院门街道南大街粉巷30号', 'street_id': '02d154744ec8d65877026958', 'telephone': '(029)87630857', 'detail': 1, 'uid': '02d154744ec8d65877026958', 'detail_info': {'tag': '医疗;专科医院', 'navi_location': {'lng': 108.95064490983, 'lat': 34.261665800085}, 'type': 'hospital', 'detail_url': 'http://api.map.baidu.com/place/detail?uid=02d154744ec8d65877026958&output=html&source=placeapi_v2', 'price': '0', 'image_num': '5', 'comment_num': '0'}}"
陕西省中医医院-门诊,108.93997767304174,34.26581400795746,71f405a91204eb804d2fdfc6,"{'name': '陕西省中医医院-门诊', 'location': {'lat': 34.270457, 'lng': 108.951065}, 'address': '西华门4号陕西省中医医院内', 'street_id': '71f405a91204eb804d2fdfc6', 'detail': 1, 'uid': '71f405a91204eb804d2fdfc6', 'detail_info': {'tag': '医疗;其他', 'navi_location': {'lng': 108.95106434395, 'lat': 34.270621370502}, 'type': 'hospital', 'detail_url': 'http://api.map.baidu.com/place/detail?uid=71f405a91204eb804d2fdfc6&output=html&source=placeapi_v2', 'price': '0', 'image_num': '2'}}"
"{'name': '陕西省中医医院-门诊', 'location': {'lat': 34.270457, 'lng': 108.951065}, 'address': '西华门4号陕西省中医医院内', 'street_id': '71f405a91204eb804d2fdfc6', 'detail': 1, 'uid': '71f405a91204eb804d2fdfc6', 'detail_info': {'tag': '医疗;其他', 'navi_location': {'lng': 108.95106434395, 'lat': 34.270621370502}, 'type': 'hospital', 'detail_url': 'http://api.map.baidu.com/place/detail?uid=71f405a91204eb804d2fdfc6&output=html&source=placeapi_v2', 'price': '0', 'image_num': '2'}}"
莲湖区防疫站,108.9354455642811,34.26445196721551,d0474694810c78df6240a9e4,"{'name': '莲湖区防疫站', 'location': {'lat': 34.269025, 'lng': 108.946541}, 'address': '西羊市102号', 'street_id': '2fbbb0321d163cdbede4a578', 'detail': 1, 'uid': 'd0474694810c78df6240a9e4', 'detail_info': {'tag': '医疗;疾控中心', 'type': 'hospital', 'detail_url': 'http://api.map.baidu.com/place/detail?uid=d0474694810c78df6240a9e4&output=html&source=placeapi_v2', 'price': '0', 'image_num': '5', 'comment_num': '0'}}"
"{'name': '莲湖区防疫站', 'location': {'lat': 34.269025, 'lng': 108.946541}, 'address': '西羊市102号', 'street_id': '2fbbb0321d163cdbede4a578', 'detail': 1, 'uid': 'd0474694810c78df6240a9e4', 'detail_info': {'tag': '医疗;疾控中心', 'type': 'hospital', 'detail_url': 'http://api.map.baidu.com/place/detail?uid=d0474694810c78df6240a9e4&output=html&source=placeapi_v2', 'price': '0', 'image_num': '5', 'comment_num': '0'}}"
西安碑林惠群五洲医院,108.93355145426975,34.25894921383846,c3a6c398cc8c15320869d9f9,"{'name': '西安碑林惠群五洲医院', 'location': {'lat': 34.26349, 'lng': 108.944656}, 'address': '西安市盐店街38号', 'street_id': 'c3a6c398cc8c15320869d9f9', 'detail': 1, 'uid': 'c3a6c398cc8c15320869d9f9', 'detail_info': {'tag': '医疗;其他', 'navi_location': {'lng': 108.94468749052, 'lat': 34.263718271004}, 'type': 'hospital', 'detail_url': 'http://api.map.baidu.com/place/detail?uid=c3a6c398cc8c15320869d9f9&output=html&source=placeapi_v2', 'image_num': '6'}}"
"{'name': '西安碑林惠群五洲医院', 'location': {'lat': 34.26349, 'lng': 108.944656}, 'address': '西安市盐店街38号', 'street_id': 'c3a6c398cc8c15320869d9f9', 'detail': 1, 'uid': 'c3a6c398cc8c15320869d9f9', 'detail_info': {'tag': '医疗;其他', 'navi_location': {'lng': 108.94468749052, 'lat': 34.263718271004}, 'type': 'hospital', 'detail_url': 'http://api.map.baidu.com/place/detail?uid=c3a6c398cc8c15320869d9f9&output=html&source=placeapi_v2', 'image_num': '6'}}"
陕西省老医协中西医结合门诊,108.92743314291805,34.2513381779002,d73b03614c698a23eaf853f7,"{'name': '陕西省老医协中西医结合门诊', 'location': {'lat': 34.255769, 'lng': 108.938561}, 'address': '张家村街道含光北路168号', 'street_id': 'd73b03614c698a23eaf853f7', 'detail': 0, 'uid': 'd73b03614c698a23eaf853f7', 'detail_info': {'tag': '医疗;其他'}}"
"{'name': '陕西省老医协中西医结合门诊', 'location': {'lat': 34.255769, 'lng': 108.938561}, 'address': '张家村街道含光北路168号', 'street_id': 'd73b03614c698a23eaf853f7', 'detail': 0, 'uid': 'd73b03614c698a23eaf853f7', 'detail_info': {'tag': '医疗;其他'}}"
怡康医药(西华门店),108.94156486050032,34.26569517619525,44207646b470806bdeee8b0f,"{'name': '怡康医药(西华门店)', 'location': {'lat': 34.27036, 'lng': 108.952651}, 'address': '宏府嘉会公寓北20米', 'street_id': '44207646b470806bdeee8b0f', 'telephone': '029-87231620', 'detail': 1, 'uid': '44207646b470806bdeee8b0f', 'detail_info': {'tag': '医疗;药店', 'navi_location': {'lng': 108.95250713129, 'lat': 34.270443614074}, 'type': 'hospital', 'detail_url': 'http://api.map.baidu.com/place/detail?uid=44207646b470806bdeee8b0f&output=html&source=placeapi_v2', 'price': '0.0', 'overall_rating': '5.0', 'image_num': '3', 'comment_num': '1'}}"
"{'name': '怡康医药(西华门店)', 'location': {'lat': 34.27036, 'lng': 108.952651}, 'address': '宏府嘉会公寓北20米', 'street_id': '44207646b470806bdeee8b0f', 'telephone': '029-87231620', 'detail': 1, 'uid': '44207646b470806bdeee8b0f', 'detail_info': {'tag': '医疗;药店', 'navi_location': {'lng': 108.95250713129, 'lat': 34.270443614074}, 'type': 'hospital', 'detail_url': 'http://api.map.baidu.com/place/detail?uid=44207646b470806bdeee8b0f&output=html&source=placeapi_v2', 'price': '0.0', 'overall_rating': '5.0', 'image_num': '3', 'comment_num': '1'}}"
陕西瑞泰尔仓口腔医院,108.93121102593103,34.25374254777553,662e6d9f2939ed65871541f3,"{'name': '陕西瑞泰尔仓口腔医院', 'location': {'lat': 34.258242, 'lng': 108.942326}, 'address': '西安市莲湖区小南门里报恩寺街2号', 'street_id': '662e6d9f2939ed65871541f3', 'detail': 1, 'uid': '662e6d9f2939ed65871541f3', 'detail_info': {'tag': '医疗;其他', 'navi_location': {'lng': 108.94251166702, 'lat': 34.258273997672}, 'type': 'hospital', 'detail_url': 'http://api.map.baidu.com/place/detail?uid=662e6d9f2939ed65871541f3&output=html&source=placeapi_v2', 'overall_rating': '5.0', 'image_num': '5', 'comment_num': '1'}}"
"{'name': '陕西瑞泰尔仓口腔医院', 'location': {'lat': 34.258242, 'lng': 108.942326}, 'address': '西安市莲湖区小南门里报恩寺街2号', 'street_id': '662e6d9f2939ed65871541f3', 'detail': 1, 'uid': '662e6d9f2939ed65871541f3', 'detail_info': {'tag': '医疗;其他', 'navi_location': {'lng': 108.94251166702, 'lat': 34.258273997672}, 'type': 'hospital', 'detail_url': 'http://api.map.baidu.com/place/detail?uid=662e6d9f2939ed65871541f3&output=html&source=placeapi_v2', 'overall_rating': '5.0', 'image_num': '5', 'comment_num': '1'}}"
陕西省工作者协会老医药卫生中医门诊部,108.9251450703314,34.26191629312708,cacb4d165bed6de296ca07f1,"{'name': '陕西省工作者协会老医药卫生中医门诊部', 'location': {'lat': 34.266306, 'lng': 108.936271}, 'address': '西安市莲湖区', 'street_id': 'cacb4d165bed6de296ca07f1', 'detail': 1, 'uid': 'cacb4d165bed6de296ca07f1', 'detail_info': {'tag': '医疗;其他', 'navi_location': {'lng': 108.93647681377, 'lat': 34.266309539683}, 'type': 'hospital', 'detail_url': 'http://api.map.baidu.com/place/detail?uid=cacb4d165bed6de296ca07f1&output=html&source=placeapi_v2', 'overall_rating': '5.0', 'image_num': '12', 'comment_num': '1'}}"
"{'name': '陕西省工作者协会老医药卫生中医门诊部', 'location': {'lat': 34.266306, 'lng': 108.936271}, 'address': '西安市莲湖区', 'street_id': 'cacb4d165bed6de296ca07f1', 'detail': 1, 'uid': 'cacb4d165bed6de296ca07f1', 'detail_info': {'tag': '医疗;其他', 'navi_location': {'lng': 108.93647681377, 'lat': 34.266309539683}, 'type': 'hospital', 'detail_url': 'http://api.map.baidu.com/place/detail?uid=cacb4d165bed6de296ca07f1&output=html&source=placeapi_v2', 'overall_rating': '5.0', 'image_num': '12', 'comment_num': '1'}}"
西安市第一医院-门诊部,108.9399184705753,34.25683652382259,c1653405f90f0104ab175a07,"{'name': '西安市第一医院-门诊部', 'location': {'lat': 34.261478, 'lng': 108.951014}, 'address': '粉巷30', 'street_id': 'c1653405f90f0104ab175a07', 'detail': 1, 'uid': 'c1653405f90f0104ab175a07', 'detail_info': {'tag': '医疗;其他', 'navi_location': {'lng': 108.95086697814, 'lat': 34.261674050223}, 'type': 'hospital', 'detail_url': 'http://api.map.baidu.com/place/detail?uid=c1653405f90f0104ab175a07&output=html&source=placeapi_v2', 'image_num': '3'}}"
"{'name': '西安市第一医院-门诊部', 'location': {'lat': 34.261478, 'lng': 108.951014}, 'address': '粉巷30', 'street_id': 'c1653405f90f0104ab175a07', 'detail': 1, 'uid': 'c1653405f90f0104ab175a07', 'detail_info': {'tag': '医疗;其他', 'navi_location': {'lng': 108.95086697814, 'lat': 34.261674050223}, 'type': 'hospital', 'detail_url': 'http://api.map.baidu.com/place/detail?uid=c1653405f90f0104ab175a07&output=html&source=placeapi_v2', 'image_num': '3'}}"
广济大药房(粉巷店),108.94020005968139,34.25718550435111,5bd092e8035ae4f6f8dc85f8,"{'name': '广济大药房(粉巷店)', 'location': {'lat': 34.261831, 'lng': 108.951295}, 'address': '陕西省西安市碑林区粉巷3号1栋10106号', 'detail': 0, 'uid': '5bd092e8035ae4f6f8dc85f8', 'detail_info': {'tag': '医疗;药店'}}"
"{'name': '广济大药房(粉巷店)', 'location': {'lat': 34.261831, 'lng': 108.951295}, 'address': '陕西省西安市碑林区粉巷3号1栋10106号', 'detail': 0, 'uid': '5bd092e8035ae4f6f8dc85f8', 'detail_info': {'tag': '医疗;药店'}}"
怡康医药超市(安居巷店),108.93892514743025,34.25994874138978,a41a72c989eed9d8d6b74ec6,"{'name': '怡康医药超市(安居巷店)', 'location': {'lat': 34.264576, 'lng': 108.950019}, 'address': '竹笆市路61号(开封老铺食府旁)', 'street_id': 'a41a72c989eed9d8d6b74ec6', 'detail': 1, 'uid': 'a41a72c989eed9d8d6b74ec6', 'detail_info': {'tag': '医疗;药店', 'navi_location': {'lng': 108.94990293643, 'lat': 34.264579063222}, 'type': 'hospital', 'detail_url': 'http://api.map.baidu.com/place/detail?uid=a41a72c989eed9d8d6b74ec6&output=html&source=placeapi_v2', 'price': '0.0', 'image_num': '4', 'comment_num': '0'}}"
"{'name': '怡康医药超市(安居巷店)', 'location': {'lat': 34.264576, 'lng': 108.950019}, 'address': '竹笆市路61号(开封老铺食府旁)', 'street_id': 'a41a72c989eed9d8d6b74ec6', 'detail': 1, 'uid': 'a41a72c989eed9d8d6b74ec6', 'detail_info': {'tag': '医疗;药店', 'navi_location': {'lng': 108.94990293643, 'lat': 34.264579063222}, 'type': 'hospital', 'detail_url': 'http://api.map.baidu.com/place/detail?uid=a41a72c989eed9d8d6b74ec6&output=html&source=placeapi_v2', 'price': '0.0', 'image_num': '4', 'comment_num': '0'}}"
达仁堂,108.92516674490751,34.26038699957231,3da907f321213253b320a80c,"{'name': '达仁堂', 'location': {'lat': 34.264777, 'lng': 108.936294}, 'address': '西大街246号宏府安定门广场4号楼1层', 'street_id': '3da907f321213253b320a80c', 'detail': 1, 'uid': '3da907f321213253b320a80c', 'detail_info': {'tag': '公司企业;公司', 'navi_location': {'lng': 108.93642012171, 'lat': 34.264779322534}, 'type': 'hospital', 'detail_url': 'http://api.map.baidu.com/place/detail?uid=3da907f321213253b320a80c&output=html&source=placeapi_v2', 'overall_rating': '3.0', 'image_num': '7', 'comment_num': '1'}}"
"{'name': '达仁堂', 'location': {'lat': 34.264777, 'lng': 108.936294}, 'address': '西大街246号宏府安定门广场4号楼1层', 'street_id': '3da907f321213253b320a80c', 'detail': 1, 'uid': '3da907f321213253b320a80c', 'detail_info': {'tag': '公司企业;公司', 'navi_location': {'lng': 108.93642012171, 'lat': 34.264779322534}, 'type': 'hospital', 'detail_url': 'http://api.map.baidu.com/place/detail?uid=3da907f321213253b320a80c&output=html&source=placeapi_v2', 'overall_rating': '3.0', 'image_num': '7', 'comment_num': '1'}}"
西安大秦中医医院,108.92123446846246,34.26005912094736,314ba53dac3f9b80734b873b,"{'name': '西安大秦中医医院', 'location': {'lat': 34.264378, 'lng': 108.932375}, 'address': '西大街330号安定广场1楼2楼', 'street_id': '314ba53dac3f9b80734b873b', 'detail': 1, 'uid': '314ba53dac3f9b80734b873b', 'detail_info': {'tag': '医疗;其他', 'navi_location': {'lng': 108.93206544382, 'lat': 34.264508357513}, 'type': 'hospital', 'detail_url': 'http://api.map.baidu.com/place/detail?uid=314ba53dac3f9b80734b873b&output=html&source=placeapi_v2', 'price': '0.0', 'image_num': '9', 'comment_num': '1'}}"
"{'name': '西安大秦中医医院', 'location': {'lat': 34.264378, 'lng': 108.932375}, 'address': '西大街330号安定广场1楼2楼', 'street_id': '314ba53dac3f9b80734b873b', 'detail': 1, 'uid': '314ba53dac3f9b80734b873b', 'detail_info': {'tag': '医疗;其他', 'navi_location': {'lng': 108.93206544382, 'lat': 34.264508357513}, 'type': 'hospital', 'detail_url': 'http://api.map.baidu.com/place/detail?uid=314ba53dac3f9b80734b873b&output=html&source=placeapi_v2', 'price': '0.0', 'image_num': '9', 'comment_num': '1'}}"
广济大药房,108.9313301054192,34.26136887018478,421d0809e8e9c792c51b75f0,"{'name': '广济大药房', 'location': {'lat': 34.265871, 'lng': 108.942438}, 'address': '西大街259号朱雀大厦1层', 'street_id': 'ee873120ad2c3b10ab059d42', 'telephone': '(029)87287233', 'detail': 1, 'uid': '421d0809e8e9c792c51b75f0', 'detail_info': {'tag': '医疗;药店', 'type': 'hospital', 'detail_url': 'http://api.map.baidu.com/place/detail?uid=421d0809e8e9c792c51b75f0&output=html&source=placeapi_v2', 'price': '0', 'overall_rating': '3', 'image_num': '10', 'comment_num': '1'}}"
"{'name': '广济大药房', 'location': {'lat': 34.265871, 'lng': 108.942438}, 'address': '西大街259号朱雀大厦1层', 'street_id': 'ee873120ad2c3b10ab059d42', 'telephone': '(029)87287233', 'detail': 1, 'uid': '421d0809e8e9c792c51b75f0', 'detail_info': {'tag': '医疗;药店', 'type': 'hospital', 'detail_url': 'http://api.map.baidu.com/place/detail?uid=421d0809e8e9c792c51b75f0&output=html&source=placeapi_v2', 'price': '0', 'overall_rating': '3', 'image_num': '10', 'comment_num': '1'}}"
康百众医药,108.93475167338754,34.259554833385195,cdf481349b9e2de40aa8d480,"{'name': '康百众医药', 'location': {'lat': 34.264116, 'lng': 108.945853}, 'address': '西安市碑林区南广济街103号', 'street_id': 'cdf481349b9e2de40aa8d480', 'telephone': '(029)68530619', 'detail': 1, 'uid': 'cdf481349b9e2de40aa8d480', 'detail_info': {'tag': '医疗;药店', 'type': 'hospital', 'detail_url': 'http://api.map.baidu.com/place/detail?uid=cdf481349b9e2de40aa8d480&output=html&source=placeapi_v2', 'price': '0', 'overall_rating': '2.5', 'image_num': '6', 'comment_num': '2'}}"
"{'name': '康百众医药', 'location': {'lat': 34.264116, 'lng': 108.945853}, 'address': '西安市碑林区南广济街103号', 'street_id': 'cdf481349b9e2de40aa8d480', 'telephone': '(029)68530619', 'detail': 1, 'uid': 'cdf481349b9e2de40aa8d480', 'detail_info': {'tag': '医疗;药店', 'type': 'hospital', 'detail_url': 'http://api.map.baidu.com/place/detail?uid=cdf481349b9e2de40aa8d480&output=html&source=placeapi_v2', 'price': '0', 'overall_rating': '2.5', 'image_num': '6', 'comment_num': '2'}}"
老百姓大药房(西安朱雀店),108.933719350911,34.25382772982247,d305db1ff3692c3d932ca321,"{'name': '老百姓大药房(西安朱雀店)', 'location': {'lat': 34.258371, 'lng': 108.944828}, 'address': '陕西省西安市碑林区太阳庙门1号', 'street_id': 'd305db1ff3692c3d932ca321', 'telephone': '(029)87626719', 'detail': 1, 'uid': 'd305db1ff3692c3d932ca321', 'detail_info': {'tag': '医疗;药店', 'type': 'hospital', 'detail_url': 'http://api.map.baidu.com/place/detail?uid=d305db1ff3692c3d932ca321&output=html&source=placeapi_v2', 'price': '0', 'overall_rating': '4', 'image_num': '4', 'comment_num': '1'}}"
"{'name': '老百姓大药房(西安朱雀店)', 'location': {'lat': 34.258371, 'lng': 108.944828}, 'address': '陕西省西安市碑林区太阳庙门1号', 'street_id': 'd305db1ff3692c3d932ca321', 'telephone': '(029)87626719', 'detail': 1, 'uid': 'd305db1ff3692c3d932ca321', 'detail_info': {'tag': '医疗;药店', 'type': 'hospital', 'detail_url': 'http://api.map.baidu.com/place/detail?uid=d305db1ff3692c3d932ca321&output=html&source=placeapi_v2', 'price': '0', 'overall_rating': '4', 'image_num': '4', 'comment_num': '1'}}"
陕西省老卫协中医,108.92549442352322,34.262161878025125,6094817c395a51e233169b1f,"{'name': '陕西省老卫协中医', 'location': {'lat': 34.266558, 'lng': 108.936619}, 'address': '西安市莲湖区西大街299号', 'street_id': '6094817c395a51e233169b1f', 'detail': 1, 'uid': '6094817c395a51e233169b1f', 'detail_info': {'tag': '医疗;诊所', 'type': 'hospital', 'detail_url': 'http://api.map.baidu.com/place/detail?uid=6094817c395a51e233169b1f&output=html&source=placeapi_v2', 'image_num': '1'}}"
"{'name': '陕西省老卫协中医', 'location': {'lat': 34.266558, 'lng': 108.936619}, 'address': '西安市莲湖区西大街299号', 'street_id': '6094817c395a51e233169b1f', 'detail': 1, 'uid': '6094817c395a51e233169b1f', 'detail_info': {'tag': '医疗;诊所', 'type': 'hospital', 'detail_url': 'http://api.map.baidu.com/place/detail?uid=6094817c395a51e233169b1f&output=html&source=placeapi_v2', 'image_num': '1'}}"
西安市儿童医院-住院部,108.9225803698429,34.26492771400042,7fd723117b86b5e25cbe860b,"{'name': '西安市儿童医院-住院部', 'location': {'lat': 34.269271, 'lng': 108.933712}, 'address': '西安市莲湖区大庆路215号', 'detail': 1, 'uid': '7fd723117b86b5e25cbe860b', 'detail_info': {'tag': '医疗;其他', 'type': 'hospital', 'detail_url': 'http://api.map.baidu.com/place/detail?uid=7fd723117b86b5e25cbe860b&output=html&source=placeapi_v2', 'price': '0', 'image_num': '1', 'comment_num': '0'}}"
"{'name': '西安市儿童医院-住院部', 'location': {'lat': 34.269271, 'lng': 108.933712}, 'address': '西安市莲湖区大庆路215号', 'detail': 1, 'uid': '7fd723117b86b5e25cbe860b', 'detail_info': {'tag': '医疗;其他', 'type': 'hospital', 'detail_url': 'http://api.map.baidu.com/place/detail?uid=7fd723117b86b5e25cbe860b&output=html&source=placeapi_v2', 'price': '0', 'image_num': '1', 'comment_num': '0'}}"
西安莲湖广济医院,108.92602136523074,34.261342274505886,8f53bfcd99cb0690ebe58215,"{'name': '西安莲湖广济医院', 'location': {'lat': 34.265748, 'lng': 108.937145}, 'address': '西安市莲湖区西大街283号', 'street_id': '8f53bfcd99cb0690ebe58215', 'detail': 1, 'uid': '8f53bfcd99cb0690ebe58215', 'detail_info': {'tag': '医疗;综合医院', 'navi_location': {'lng': 108.93710612349, 'lat': 34.265609575427}, 'type': 'hospital', 'detail_url': 'http://api.map.baidu.com/place/detail?uid=8f53bfcd99cb0690ebe58215&output=html&source=placeapi_v2', 'price': '0', 'overall_rating': '1', 'image_num': '7', 'comment_num': '1'}}"
"{'name': '西安莲湖广济医院', 'location': {'lat': 34.265748, 'lng': 108.937145}, 'address': '西安市莲湖区西大街283号', 'street_id': '8f53bfcd99cb0690ebe58215', 'detail': 1, 'uid': '8f53bfcd99cb0690ebe58215', 'detail_info': {'tag': '医疗;综合医院', 'navi_location': {'lng': 108.93710612349, 'lat': 34.265609575427}, 'type': 'hospital', 'detail_url': 'http://api.map.baidu.com/place/detail?uid=8f53bfcd99cb0690ebe58215&output=html&source=placeapi_v2', 'price': '0', 'overall_rating': '1', 'image_num': '7', 'comment_num': '1'}}"
儿童医院-住院三部,108.92198712893874,34.26462838935828,7522a27bce42d54878dbd241,"{'name': '儿童医院-住院三部', 'location': {'lat': 34.268961, 'lng': 108.933121}, 'address': '西关街道西安市儿童医院(西门内西举院巷69号)', 'street_id': '7522a27bce42d54878dbd241', 'detail': 1, 'uid': '7522a27bce42d54878dbd241', 'detail_info': {'tag': '医疗;其他', 'type': 'hospital', 'detail_url': 'http://api.map.baidu.com/place/detail?uid=7522a27bce42d54878dbd241&output=html&source=placeapi_v2', 'price': '0', 'image_num': '1'}}"
"{'name': '儿童医院-住院三部', 'location': {'lat': 34.268961, 'lng': 108.933121}, 'address': '西关街道西安市儿童医院(西门内西举院巷69号)', 'street_id': '7522a27bce42d54878dbd241', 'detail': 1, 'uid': '7522a27bce42d54878dbd241', 'detail_info': {'tag': '医疗;其他', 'type': 'hospital', 'detail_url': 'http://api.map.baidu.com/place/detail?uid=7522a27bce42d54878dbd241&output=html&source=placeapi_v2', 'price': '0', 'image_num': '1'}}"
广济大药房,108.91529200623138,34.25280938707487,5522872d8c8e70d0c7f0258d,"{'name': '广济大药房', 'location': {'lat': 34.257028, 'lng': 108.926458}, 'address': '西安市莲湖区御溪望城4号楼南3号', 'street_id': '5522872d8c8e70d0c7f0258d', 'detail': 0, 'uid': '5522872d8c8e70d0c7f0258d', 'detail_info': {'tag': '医疗;药店'}}"
"{'name': '广济大药房', 'location': {'lat': 34.257028, 'lng': 108.926458}, 'address': '西安市莲湖区御溪望城4号楼南3号', 'street_id': '5522872d8c8e70d0c7f0258d', 'detail': 0, 'uid': '5522872d8c8e70d0c7f0258d', 'detail_info': {'tag': '医疗;药店'}}"
陕西省中医医院-住院,108.94032658906072,34.265341117300764,21ffc7713ba3f57df603b8c9,"{'name': '陕西省中医医院-住院', 'location': {'lat': 34.269989, 'lng': 108.951414}, 'address': '西华门4号陕西省中医医院内', 'street_id': '21ffc7713ba3f57df603b8c9', 'detail': 1, 'uid': '21ffc7713ba3f57df603b8c9', 'detail_info': {'tag': '医疗;其他', 'type': 'hospital', 'detail_url': 'http://api.map.baidu.com/place/detail?uid=21ffc7713ba3f57df603b8c9&output=html&source=placeapi_v2', 'price': '0', 'image_num': '1'}}"
"{'name': '陕西省中医医院-住院', 'location': {'lat': 34.269989, 'lng': 108.951414}, 'address': '西华门4号陕西省中医医院内', 'street_id': '21ffc7713ba3f57df603b8c9', 'detail': 1, 'uid': '21ffc7713ba3f57df603b8c9', 'detail_info': {'tag': '医疗;其他', 'type': 'hospital', 'detail_url': 'http://api.map.baidu.com/place/detail?uid=21ffc7713ba3f57df603b8c9&output=html&source=placeapi_v2', 'price': '0', 'image_num': '1'}}"
西安皓齿牙科,108.93155103566097,34.25505140194205,15a938107be205bd14c8f605,"{'name': '西安皓齿牙科', 'location': {'lat': 34.259557, 'lng': 108.942664}, 'address': '南四府街33号', 'street_id': '15a938107be205bd14c8f605', 'detail': 1, 'uid': '15a938107be205bd14c8f605', 'detail_info': {'tag': '医疗;诊所', 'type': 'hospital', 'detail_url': 'http://api.map.baidu.com/place/detail?uid=15a938107be205bd14c8f605&output=html&source=placeapi_v2', 'overall_rating': '4.0', 'image_num': '31', 'comment_num': '0'}}"
"{'name': '西安皓齿牙科', 'location': {'lat': 34.259557, 'lng': 108.942664}, 'address': '南四府街33号', 'street_id': '15a938107be205bd14c8f605', 'detail': 1, 'uid': '15a938107be205bd14c8f605', 'detail_info': {'tag': '医疗;诊所', 'type': 'hospital', 'detail_url': 'http://api.map.baidu.com/place/detail?uid=15a938107be205bd14c8f605&output=html&source=placeapi_v2', 'overall_rating': '4.0', 'image_num': '31', 'comment_num': '0'}}"
庙后街骨科医院,108.93368593481235,34.264624508855626,db1f39d4a2cd5176f4c59ca9,"{'name': '庙后街骨科医院', 'location': {'lat': 34.269168, 'lng': 108.944785}, 'address': '庙后街18号', 'street_id': 'db1f39d4a2cd5176f4c59ca9', 'telephone': '(029)87211704', 'detail': 1, 'uid': 'db1f39d4a2cd5176f4c59ca9', 'detail_info': {'tag': '医疗;专科医院', 'navi_location': {'lng': 108.94466397468, 'lat': 34.26934023021}, 'type': 'hospital', 'detail_url': 'http://api.map.baidu.com/place/detail?uid=db1f39d4a2cd5176f4c59ca9&output=html&source=placeapi_v2', 'price': '0', 'image_num': '7', 'comment_num': '0'}}"
"{'name': '庙后街骨科医院', 'location': {'lat': 34.269168, 'lng': 108.944785}, 'address': '庙后街18号', 'street_id': 'db1f39d4a2cd5176f4c59ca9', 'telephone': '(029)87211704', 'detail': 1, 'uid': 'db1f39d4a2cd5176f4c59ca9', 'detail_info': {'tag': '医疗;专科医院', 'navi_location': {'lng': 108.94466397468, 'lat': 34.26934023021}, 'type': 'hospital', 'detail_url': 'http://api.map.baidu.com/place/detail?uid=db1f39d4a2cd5176f4c59ca9&output=html&source=placeapi_v2', 'price': '0', 'image_num': '7', 'comment_num': '0'}}"
西安市莲湖区妇幼保健站,108.93548677631166,34.2645962779642,cea431b45e75f0b2a11de9a9,"{'name': '西安市莲湖区妇幼保健站', 'location': {'lat': 34.26917, 'lng': 108.946582}, 'address': '西羊市102号', 'street_id': 'cea431b45e75f0b2a11de9a9', 'detail': 1, 'uid': 'cea431b45e75f0b2a11de9a9', 'detail_info': {'tag': '医疗;诊所', 'type': 'hospital', 'detail_url': 'http://api.map.baidu.com/place/detail?uid=cea431b45e75f0b2a11de9a9&output=html&source=placeapi_v2', 'price': '0', 'image_num': '2'}}"
"{'name': '西安市莲湖区妇幼保健站', 'location': {'lat': 34.26917, 'lng': 108.946582}, 'address': '西羊市102号', 'street_id': 'cea431b45e75f0b2a11de9a9', 'detail': 1, 'uid': 'cea431b45e75f0b2a11de9a9', 'detail_info': {'tag': '医疗;诊所', 'type': 'hospital', 'detail_url': 'http://api.map.baidu.com/place/detail?uid=cea431b45e75f0b2a11de9a9&output=html&source=placeapi_v2', 'price': '0', 'image_num': '2'}}"
西安市第一医院-西安市眼科医院视光学部,108.93951911406661,34.25691625851859,dadcdb6c976fa4fc97ec8497,"{'name': '西安市第一医院-西安市眼科医院视光学部', 'location': {'lat': 34.261552, 'lng': 108.950615}, 'address': '粉巷30号', 'street_id': 'dadcdb6c976fa4fc97ec8497', 'detail': 1, 'uid': 'dadcdb6c976fa4fc97ec8497', 'detail_info': {'tag': '医疗;其他', 'navi_location': {'lng': 108.95061602392, 'lat': 34.261665434677}, 'type': 'hospital', 'detail_url': 'http://api.map.baidu.com/place/detail?uid=dadcdb6c976fa4fc97ec8497&output=html&source=placeapi_v2', 'overall_rating': '3.5', 'image_num': '5', 'comment_num': '0'}}"
"{'name': '西安市第一医院-西安市眼科医院视光学部', 'location': {'lat': 34.261552, 'lng': 108.950615}, 'address': '粉巷30号', 'street_id': 'dadcdb6c976fa4fc97ec8497', 'detail': 1, 'uid': 'dadcdb6c976fa4fc97ec8497', 'detail_info': {'tag': '医疗;其他', 'navi_location': {'lng': 108.95061602392, 'lat': 34.261665434677}, 'type': 'hospital', 'detail_url': 'http://api.map.baidu.com/place/detail?uid=dadcdb6c976fa4fc97ec8497&output=html&source=placeapi_v2', 'overall_rating': '3.5', 'image_num': '5', 'comment_num': '0'}}"
泰瑞医药超市,108.93762519382712,34.25533078354639,0ed20a15587dbbe957bfff0e,"{'name': '泰瑞医药超市', 'location': {'lat': 34.259938, 'lng': 108.948725}, 'address': '大车家巷17号附近', 'street_id': '0ed20a15587dbbe957bfff0e', 'detail': 1, 'uid': '0ed20a15587dbbe957bfff0e', 'detail_info': {'tag': '医疗;药店', 'type': 'hospital', 'detail_url': 'http://api.map.baidu.com/place/detail?uid=0ed20a15587dbbe957bfff0e&output=html&source=placeapi_v2', 'image_num': '6', 'comment_num': '0'}}"
"{'name': '泰瑞医药超市', 'location': {'lat': 34.259938, 'lng': 108.948725}, 'address': '大车家巷17号附近', 'street_id': '0ed20a15587dbbe957bfff0e', 'detail': 1, 'uid': '0ed20a15587dbbe957bfff0e', 'detail_info': {'tag': '医疗;药店', 'type': 'hospital', 'detail_url': 'http://api.map.baidu.com/place/detail?uid=0ed20a15587dbbe957bfff0e&output=html&source=placeapi_v2', 'image_num': '6', 'comment_num': '0'}}"
藻露堂(南院门店),108.9368973662135,34.25687405979676,0523a1410ee2b004b33c81a6,"{'name': '藻露堂(南院门店)', 'location': {'lat': 34.26147, 'lng': 108.947997}, 'address': '南院门60', 'street_id': '0523a1410ee2b004b33c81a6', 'detail': 1, 'uid': '0523a1410ee2b004b33c81a6', 'detail_info': {'tag': '医疗;药店', 'type': 'hospital', 'detail_url': 'http://api.map.baidu.com/place/detail?uid=0523a1410ee2b004b33c81a6&output=html&source=placeapi_v2', 'price': '0.0', 'image_num': '7', 'comment_num': '1'}}"
"{'name': '藻露堂(南院门店)', 'location': {'lat': 34.26147, 'lng': 108.947997}, 'address': '南院门60', 'street_id': '0523a1410ee2b004b33c81a6', 'detail': 1, 'uid': '0523a1410ee2b004b33c81a6', 'detail_info': {'tag': '医疗;药店', 'type': 'hospital', 'detail_url': 'http://api.map.baidu.com/place/detail?uid=0523a1410ee2b004b33c81a6&output=html&source=placeapi_v2', 'price': '0.0', 'image_num': '7', 'comment_num': '1'}}"
北院门西大街社区卫生服务中心,108.92812813863158,34.25826989076059,92c71fccae7f4fd0f8f0cb3e,"{'name': '北院门西大街社区卫生服务中心', 'location': {'lat': 34.262714, 'lng': 108.939248}, 'address': '陕西省西安市莲湖区红光街29号', 'street_id': '92c71fccae7f4fd0f8f0cb3e', 'detail': 1, 'uid': '92c71fccae7f4fd0f8f0cb3e', 'detail_info': {'tag': '医疗;诊所', 'navi_location': {'lng': 108.93900678434, 'lat': 34.26273500941}, 'type': 'enterprise', 'detail_url': 'http://api.map.baidu.com/place/detail?uid=92c71fccae7f4fd0f8f0cb3e&output=html&source=placeapi_v2'}}"
"{'name': '北院门西大街社区卫生服务中心', 'location': {'lat': 34.262714, 'lng': 108.939248}, 'address': '陕西省西安市莲湖区红光街29号', 'street_id': '92c71fccae7f4fd0f8f0cb3e', 'detail': 1, 'uid': '92c71fccae7f4fd0f8f0cb3e', 'detail_info': {'tag': '医疗;诊所', 'navi_location': {'lng': 108.93900678434, 'lat': 34.26273500941}, 'type': 'enterprise', 'detail_url': 'http://api.map.baidu.com/place/detail?uid=92c71fccae7f4fd0f8f0cb3e&output=html&source=placeapi_v2'}}"
东信医药超市(南门店),108.9371298310202,34.252257784441085,55c281ff3e3961b9e115f9f3,"{'name': '东信医药超市(南门店)', 'location': {'lat': 34.256857, 'lng': 108.948233}, 'address': '陕西省西安市碑林区环城南路西段22号海联大厦1层', 'street_id': '55c281ff3e3961b9e115f9f3', 'detail': 1, 'uid': '55c281ff3e3961b9e115f9f3', 'detail_info': {'tag': '医疗;药店', 'type': 'hospital', 'detail_url': 'http://api.map.baidu.com/place/detail?uid=55c281ff3e3961b9e115f9f3&output=html&source=placeapi_v2', 'price': '0', 'image_num': '2'}}"
"{'name': '东信医药超市(南门店)', 'location': {'lat': 34.256857, 'lng': 108.948233}, 'address': '陕西省西安市碑林区环城南路西段22号海联大厦1层', 'street_id': '55c281ff3e3961b9e115f9f3', 'detail': 1, 'uid': '55c281ff3e3961b9e115f9f3', 'detail_info': {'tag': '医疗;药店', 'type': 'hospital', 'detail_url': 'http://api.map.baidu.com/place/detail?uid=55c281ff3e3961b9e115f9f3&output=html&source=placeapi_v2', 'price': '0', 'image_num': '2'}}"
西安碑林张凤丝诊所,108.9384315623525,34.26001811404371,e5a3c8881b53a1e5f32d838d,"{'name': '西安碑林张凤丝诊所', 'location': {'lat': 34.264638, 'lng': 108.949526}, 'address': '竹笆市中环广场b座中环商务大厦1层', 'street_id': 'e5a3c8881b53a1e5f32d838d', 'telephone': '(029)87268299', 'detail': 1, 'uid': 'e5a3c8881b53a1e5f32d838d', 'detail_info': {'tag': '医疗;诊所', 'type': 'hospital', 'detail_url': 'http://api.map.baidu.com/place/detail?uid=e5a3c8881b53a1e5f32d838d&output=html&source=placeapi_v2', 'price': '0', 'image_num': '4'}}"
"{'name': '西安碑林张凤丝诊所', 'location': {'lat': 34.264638, 'lng': 108.949526}, 'address': '竹笆市中环广场b座中环商务大厦1层', 'street_id': 'e5a3c8881b53a1e5f32d838d', 'telephone': '(029)87268299', 'detail': 1, 'uid': 'e5a3c8881b53a1e5f32d838d', 'detail_info': {'tag': '医疗;诊所', 'type': 'hospital', 'detail_url': 'http://api.map.baidu.com/place/detail?uid=e5a3c8881b53a1e5f32d838d&output=html&source=placeapi_v2', 'price': '0', 'image_num': '4'}}"
同心堂中药店庙后街,108.93329723203628,34.264853165958606,4edf9fbf72ec9d8dcd06a49e,"{'name': '同心堂中药店庙后街', 'location': {'lat': 34.26939, 'lng': 108.944397}, 'address': '西安市莲湖区', 'street_id': '4edf9fbf72ec9d8dcd06a49e', 'detail': 1, 'uid': '4edf9fbf72ec9d8dcd06a49e', 'detail_info': {'tag': '医疗;药店', 'type': 'hospital', 'detail_url': 'http://api.map.baidu.com/place/detail?uid=4edf9fbf72ec9d8dcd06a49e&output=html&source=placeapi_v2', 'price': '0', 'image_num': '1', 'comment_num': '0'}}"
"{'name': '同心堂中药店庙后街', 'location': {'lat': 34.26939, 'lng': 108.944397}, 'address': '西安市莲湖区', 'street_id': '4edf9fbf72ec9d8dcd06a49e', 'detail': 1, 'uid': '4edf9fbf72ec9d8dcd06a49e', 'detail_info': {'tag': '医疗;药店', 'type': 'hospital', 'detail_url': 'http://api.map.baidu.com/place/detail?uid=4edf9fbf72ec9d8dcd06a49e&output=html&source=placeapi_v2', 'price': '0', 'image_num': '1', 'comment_num': '0'}}"
老百姓大药房(西安含光门店),108.9273326479924,34.251099043358984,d7fd2ad357dfe82a0accdd83,"{'name': '老百姓大药房(西安含光门店)', 'location': {'lat': 34.255528, 'lng': 108.938461}, 'address': '含光北路164号', 'street_id': 'd7fd2ad357dfe82a0accdd83', 'telephone': '(029)88422713', 'detail': 1, 'uid': 'd7fd2ad357dfe82a0accdd83', 'detail_info': {'tag': '医疗;药店', 'navi_location': {'lng': 108.93858437055, 'lat': 34.255538982066}, 'type': 'hospital', 'detail_url': 'http://api.map.baidu.com/place/detail?uid=d7fd2ad357dfe82a0accdd83&output=html&source=placeapi_v2', 'overall_rating': '2.0', 'image_num': '7', 'comment_num': '1'}}"
"{'name': '老百姓大药房(西安含光门店)', 'location': {'lat': 34.255528, 'lng': 108.938461}, 'address': '含光北路164号', 'street_id': 'd7fd2ad357dfe82a0accdd83', 'telephone': '(029)88422713', 'detail': 1, 'uid': 'd7fd2ad357dfe82a0accdd83', 'detail_info': {'tag': '医疗;药店', 'navi_location': {'lng': 108.93858437055, 'lat': 34.255538982066}, 'type': 'hospital', 'detail_url': 'http://api.map.baidu.com/place/detail?uid=d7fd2ad357dfe82a0accdd83&output=html&source=placeapi_v2', 'overall_rating': '2.0', 'image_num': '7', 'comment_num': '1'}}"
陕西京兆药房南大街店,108.9411765733217,34.25684804606346,d403bc2cedf2c714b55f1e91,"{'name': '陕西京兆药房南大街店', 'location': {'lat': 34.261507, 'lng': 108.952271}, 'address': '陕西省西安市南大街粉巷18号', 'street_id': 'd403bc2cedf2c714b55f1e91', 'detail': 1, 'uid': 'd403bc2cedf2c714b55f1e91', 'detail_info': {'tag': '医疗;药店', 'type': 'hospital', 'detail_url': 'http://api.map.baidu.com/place/detail?uid=d403bc2cedf2c714b55f1e91&output=html&source=placeapi_v2', 'image_num': '1'}}"
"{'name': '陕西京兆药房南大街店', 'location': {'lat': 34.261507, 'lng': 108.952271}, 'address': '陕西省西安市南大街粉巷18号', 'street_id': 'd403bc2cedf2c714b55f1e91', 'detail': 1, 'uid': 'd403bc2cedf2c714b55f1e91', 'detail_info': {'tag': '医疗;药店', 'type': 'hospital', 'detail_url': 'http://api.map.baidu.com/place/detail?uid=d403bc2cedf2c714b55f1e91&output=html&source=placeapi_v2', 'image_num': '1'}}"
西安碑林杨希玲诊所,108.93492489121208,34.251226624650805,6f895e89129dc837a8f0cdd1,"{'name': '西安碑林杨希玲诊所', 'location': {'lat': 34.25579, 'lng': 108.946033}, 'address': '陕西省西安市碑林区大学东路80号', 'street_id': '6f895e89129dc837a8f0cdd1', 'detail': 1, 'uid': '6f895e89129dc837a8f0cdd1', 'detail_info': {'tag': '医疗;诊所', 'type': 'hospital', 'detail_url': 'http://api.map.baidu.com/place/detail?uid=6f895e89129dc837a8f0cdd1&output=html&source=placeapi_v2', 'price': '0', 'image_num': '7'}}"
"{'name': '西安碑林杨希玲诊所', 'location': {'lat': 34.25579, 'lng': 108.946033}, 'address': '陕西省西安市碑林区大学东路80号', 'street_id': '6f895e89129dc837a8f0cdd1', 'detail': 1, 'uid': '6f895e89129dc837a8f0cdd1', 'detail_info': {'tag': '医疗;诊所', 'type': 'hospital', 'detail_url': 'http://api.map.baidu.com/place/detail?uid=6f895e89129dc837a8f0cdd1&output=html&source=placeapi_v2', 'price': '0', 'image_num': '7'}}"
怡康医药超市(环城西路店),108.91778974638623,34.25851062330126,e700ff68abb90c261fe999cf,"{'name': '怡康医药超市(环城西路店)', 'location': {'lat': 34.26277, 'lng': 108.928943}, 'address': '莲湖区西门外环城西路人民东村华兰佳园第5幢1单元1层1002号', 'street_id': 'e700ff68abb90c261fe999cf', 'detail': 1, 'uid': 'e700ff68abb90c261fe999cf', 'detail_info': {'tag': '医疗;药店', 'type': 'hospital', 'detail_url': 'http://api.map.baidu.com/place/detail?uid=e700ff68abb90c261fe999cf&output=html&source=placeapi_v2', 'image_num': '4'}}"
"{'name': '怡康医药超市(环城西路店)', 'location': {'lat': 34.26277, 'lng': 108.928943}, 'address': '莲湖区西门外环城西路人民东村华兰佳园第5幢1单元1层1002号', 'street_id': 'e700ff68abb90c261fe999cf', 'detail': 1, 'uid': 'e700ff68abb90c261fe999cf', 'detail_info': {'tag': '医疗;药店', 'type': 'hospital', 'detail_url': 'http://api.map.baidu.com/place/detail?uid=e700ff68abb90c261fe999cf&output=html&source=placeapi_v2', 'image_num': '4'}}"
大圣堂药房,108.93291762239593,34.257477251621616,f4a33da9ed6737093010af0c,"{'name': '大圣堂药房', 'location': {'lat': 34.262007, 'lng': 108.944025}, 'address': '五味什字27号', 'street_id': 'f4a33da9ed6737093010af0c', 'telephone': '(029)87610069', 'detail': 1, 'uid': 'f4a33da9ed6737093010af0c', 'detail_info': {'tag': '医疗;药店', 'type': 'hospital', 'detail_url': 'http://api.map.baidu.com/place/detail?uid=f4a33da9ed6737093010af0c&output=html&source=placeapi_v2', 'overall_rating': '4.0', 'image_num': '7', 'comment_num': '1'}}"
"{'name': '大圣堂药房', 'location': {'lat': 34.262007, 'lng': 108.944025}, 'address': '五味什字27号', 'street_id': 'f4a33da9ed6737093010af0c', 'telephone': '(029)87610069', 'detail': 1, 'uid': 'f4a33da9ed6737093010af0c', 'detail_info': {'tag': '医疗;药店', 'type': 'hospital', 'detail_url': 'http://api.map.baidu.com/place/detail?uid=f4a33da9ed6737093010af0c&output=html&source=placeapi_v2', 'overall_rating': '4.0', 'image_num': '7', 'comment_num': '1'}}"
泰生医药(西门店),108.918448178897,34.25884454742906,87248d9619c9aab32806ce0f,"{'name': '泰生医药(西门店)', 'location': {'lat': 34.263115, 'lng': 108.929599}, 'address': '陕西省西安市莲湖区环城西路62号', 'street_id': '87248d9619c9aab32806ce0f', 'detail': 1, 'uid': '87248d9619c9aab32806ce0f', 'detail_info': {'tag': '医疗;药店', 'navi_location': {'lng': 108.92976431657, 'lat': 34.263117759275}, 'type': 'hospital', 'detail_url': 'http://api.map.baidu.com/place/detail?uid=87248d9619c9aab32806ce0f&output=html&source=placeapi_v2', 'image_num': '3', 'comment_num': '1'}}"
"{'name': '泰生医药(西门店)', 'location': {'lat': 34.263115, 'lng': 108.929599}, 'address': '陕西省西安市莲湖区环城西路62号', 'street_id': '87248d9619c9aab32806ce0f', 'detail': 1, 'uid': '87248d9619c9aab32806ce0f', 'detail_info': {'tag': '医疗;药店', 'navi_location': {'lng': 108.92976431657, 'lat': 34.263117759275}, 'type': 'hospital', 'detail_url': 'http://api.map.baidu.com/place/detail?uid=87248d9619c9aab32806ce0f&output=html&source=placeapi_v2', 'image_num': '3', 'comment_num': '1'}}"
泰生医药(西大街店),108.92836313663,34.260792429606994,e6ee2fd22e3e24482b11d10f,"{'name': '泰生医药(西大街店)', 'location': {'lat': 34.265241, 'lng': 108.93948}, 'address': '陕西省西安市莲湖区西大街198', 'street_id': 'e6ee2fd22e3e24482b11d10f', 'detail': 1, 'uid': 'e6ee2fd22e3e24482b11d10f', 'detail_info': {'tag': '医疗;药店', 'type': 'hospital', 'detail_url': 'http://api.map.baidu.com/place/detail?uid=e6ee2fd22e3e24482b11d10f&output=html&source=placeapi_v2', 'overall_rating': '3.0', 'image_num': '4', 'comment_num': '1'}}"
"{'name': '泰生医药(西大街店)', 'location': {'lat': 34.265241, 'lng': 108.93948}, 'address': '陕西省西安市莲湖区西大街198', 'street_id': 'e6ee2fd22e3e24482b11d10f', 'detail': 1, 'uid': 'e6ee2fd22e3e24482b11d10f', 'detail_info': {'tag': '医疗;药店', 'type': 'hospital', 'detail_url': 'http://api.map.baidu.com/place/detail?uid=e6ee2fd22e3e24482b11d10f&output=html&source=placeapi_v2', 'overall_rating': '3.0', 'image_num': '4', 'comment_num': '1'}}"
广济大药房(环城南路店),108.93309759945797,34.25225056565244,c567d1997625b344081cc7ff,"{'name': '广济大药房(环城南路店)', 'location': {'lat': 34.256783, 'lng': 108.944209}, 'address': '环城南路朱雀门旺园大厦1层', 'street_id': 'c567d1997625b344081cc7ff', 'detail': 1, 'uid': 'c567d1997625b344081cc7ff', 'detail_info': {'tag': '医疗;药店', 'type': 'hospital', 'detail_url': 'http://api.map.baidu.com/place/detail?uid=c567d1997625b344081cc7ff&output=html&source=placeapi_v2', 'price': '0', 'image_num': '2'}}"
"{'name': '广济大药房(环城南路店)', 'location': {'lat': 34.256783, 'lng': 108.944209}, 'address': '环城南路朱雀门旺园大厦1层', 'street_id': 'c567d1997625b344081cc7ff', 'detail': 1, 'uid': 'c567d1997625b344081cc7ff', 'detail_info': {'tag': '医疗;药店', 'type': 'hospital', 'detail_url': 'http://api.map.baidu.com/place/detail?uid=c567d1997625b344081cc7ff&output=html&source=placeapi_v2', 'price': '0', 'image_num': '2'}}"
长安国医馆,108.94114178407517,34.25483167871394,7ab4f8f590c892f7ede4a55c,"{'name': '长安国医馆', 'location': {'lat': 34.25949, 'lng': 108.952238}, 'address': '大湘子庙街1号西安商会大厦1层', 'street_id': '7ab4f8f590c892f7ede4a55c', 'detail': 1, 'uid': '7ab4f8f590c892f7ede4a55c', 'detail_info': {'tag': '医疗', 'type': 'hospital', 'detail_url': 'http://api.map.baidu.com/place/detail?uid=7ab4f8f590c892f7ede4a55c&output=html&source=placeapi_v2', 'price': '0', 'overall_rating': '5', 'image_num': '8', 'comment_num': '1'}}"
"{'name': '长安国医馆', 'location': {'lat': 34.25949, 'lng': 108.952238}, 'address': '大湘子庙街1号西安商会大厦1层', 'street_id': '7ab4f8f590c892f7ede4a55c', 'detail': 1, 'uid': '7ab4f8f590c892f7ede4a55c', 'detail_info': {'tag': '医疗', 'type': 'hospital', 'detail_url': 'http://api.map.baidu.com/place/detail?uid=7ab4f8f590c892f7ede4a55c&output=html&source=placeapi_v2', 'price': '0', 'overall_rating': '5', 'image_num': '8', 'comment_num': '1'}}"
韩勇9+9全国连锁NO.002,108.92509487692647,34.26078728822781,c879fa0158ac9e4ac909f005,"{'name': '韩勇9+9全国连锁NO.002', 'location': {'lat': 34.265176, 'lng': 108.936222}, 'address': '西大街246号宏府安定门广场4号楼1层', 'street_id': 'c879fa0158ac9e4ac909f005', 'telephone': '(029)87612335', 'detail': 1, 'uid': 'c879fa0158ac9e4ac909f005', 'detail_info': {'tag': '医疗;诊所', 'type': 'hospital', 'detail_url': 'http://api.map.baidu.com/place/detail?uid=c879fa0158ac9e4ac909f005&output=html&source=placeapi_v2', 'price': '0', 'image_num': '5'}}"
"{'name': '韩勇9+9全国连锁NO.002', 'location': {'lat': 34.265176, 'lng': 108.936222}, 'address': '西大街246号宏府安定门广场4号楼1层', 'street_id': 'c879fa0158ac9e4ac909f005', 'telephone': '(029)87612335', 'detail': 1, 'uid': 'c879fa0158ac9e4ac909f005', 'detail_info': {'tag': '医疗;诊所', 'type': 'hospital', 'detail_url': 'http://api.map.baidu.com/place/detail?uid=c879fa0158ac9e4ac909f005&output=html&source=placeapi_v2', 'price': '0', 'image_num': '5'}}"
王文声中医妇科诊所,108.93594875088219,34.256974270908316,d146b388d1619fde74026904,"{'name': '王文声中医妇科诊所', 'location': {'lat': 34.261555, 'lng': 108.94705}, 'address': '南院门100号', 'street_id': 'd146b388d1619fde74026904', 'detail': 1, 'uid': 'd146b388d1619fde74026904', 'detail_info': {'tag': '医疗;诊所', 'navi_location': {'lng': 108.94705028464, 'lat': 34.261689647456}, 'type': 'hospital', 'detail_url': 'http://api.map.baidu.com/place/detail?uid=d146b388d1619fde74026904&output=html&source=placeapi_v2', 'overall_rating': '5.0', 'image_num': '5', 'comment_num': '1'}}"
"{'name': '王文声中医妇科诊所', 'location': {'lat': 34.261555, 'lng': 108.94705}, 'address': '南院门100号', 'street_id': 'd146b388d1619fde74026904', 'detail': 1, 'uid': 'd146b388d1619fde74026904', 'detail_info': {'tag': '医疗;诊所', 'navi_location': {'lng': 108.94705028464, 'lat': 34.261689647456}, 'type': 'hospital', 'detail_url': 'http://api.map.baidu.com/place/detail?uid=d146b388d1619fde74026904&output=html&source=placeapi_v2', 'overall_rating': '5.0', 'image_num': '5', 'comment_num': '1'}}"
新道路医药城,108.94171308700892,34.2547540552188,1bf85b25da5f4fbda0a934e3,"{'name': '新道路医药城', 'location': {'lat': 34.25942, 'lng': 108.952809}, 'address': '大湘子庙街1号西安商会大厦1层', 'street_id': '1bf85b25da5f4fbda0a934e3', 'telephone': '(029)87626262', 'detail': 1, 'uid': '1bf85b25da5f4fbda0a934e3', 'detail_info': {'tag': '医疗;药店', 'navi_location': {'lng': 108.95236714834, 'lat': 34.259578092573}, 'type': 'hospital', 'detail_url': 'http://api.map.baidu.com/place/detail?uid=1bf85b25da5f4fbda0a934e3&output=html&source=placeapi_v2', 'price': '0', 'image_num': '5', 'comment_num': '0'}}"
"{'name': '新道路医药城', 'location': {'lat': 34.25942, 'lng': 108.952809}, 'address': '大湘子庙街1号西安商会大厦1层', 'street_id': '1bf85b25da5f4fbda0a934e3', 'telephone': '(029)87626262', 'detail': 1, 'uid': '1bf85b25da5f4fbda0a934e3', 'detail_info': {'tag': '医疗;药店', 'navi_location': {'lng': 108.95236714834, 'lat': 34.259578092573}, 'type': 'hospital', 'detail_url': 'http://api.map.baidu.com/place/detail?uid=1bf85b25da5f4fbda0a934e3&output=html&source=placeapi_v2', 'price': '0', 'image_num': '5', 'comment_num': '0'}}"
儿童医院南院-家属楼,108.92320852587112,34.26280052233336,70e291adc611977a2fe67bd9,"{'name': '儿童医院南院-家属楼', 'location': {'lat': 34.267155, 'lng': 108.93434}, 'address': '西举院巷63号', 'street_id': '70e291adc611977a2fe67bd9', 'detail': 1, 'uid': '70e291adc611977a2fe67bd9', 'detail_info': {'tag': '房地产;住宅区', 'type': 'hospital', 'detail_url': 'http://api.map.baidu.com/place/detail?uid=70e291adc611977a2fe67bd9&output=html&source=placeapi_v2', 'price': '0', 'image_num': '2', 'comment_num': '0'}}"
"{'name': '儿童医院南院-家属楼', 'location': {'lat': 34.267155, 'lng': 108.93434}, 'address': '西举院巷63号', 'street_id': '70e291adc611977a2fe67bd9', 'detail': 1, 'uid': '70e291adc611977a2fe67bd9', 'detail_info': {'tag': '房地产;住宅区', 'type': 'hospital', 'detail_url': 'http://api.map.baidu.com/place/detail?uid=70e291adc611977a2fe67bd9&output=html&source=placeapi_v2', 'price': '0', 'image_num': '2', 'comment_num': '0'}}"
西安儿童医院家属院东院-3号楼,108.92398813853603,34.265054197676854,371d250450c07102c51e5164,"{'name': '西安儿童医院家属院东院-3号楼', 'location': {'lat': 34.269423, 'lng': 108.935115}, 'address': '陕西省西安市莲湖区西举院巷35', 'street_id': '371d250450c07102c51e5164', 'detail': 1, 'uid': '371d250450c07102c51e5164', 'detail_info': {'tag': '房地产;住宅区', 'type': 'hospital', 'detail_url': 'http://api.map.baidu.com/place/detail?uid=371d250450c07102c51e5164&output=html&source=placeapi_v2', 'price': '0', 'image_num': '1'}}"
"{'name': '西安儿童医院家属院东院-3号楼', 'location': {'lat': 34.269423, 'lng': 108.935115}, 'address': '陕西省西安市莲湖区西举院巷35', 'street_id': '371d250450c07102c51e5164', 'detail': 1, 'uid': '371d250450c07102c51e5164', 'detail_info': {'tag': '房地产;住宅区', 'type': 'hospital', 'detail_url': 'http://api.map.baidu.com/place/detail?uid=371d250450c07102c51e5164&output=html&source=placeapi_v2', 'price': '0', 'image_num': '1'}}"
北院门迎春社区卫生站,108.92522600799134,34.25599822272945,1ef4a2f34b3020d44d776e30,"{'name': '北院门迎春社区卫生站', 'location': {'lat': 34.260389, 'lng': 108.936357}, 'address': '双仁府30号附近', 'street_id': '1ef4a2f34b3020d44d776e30', 'telephone': '(029)87618955', 'detail': 1, 'uid': '1ef4a2f34b3020d44d776e30', 'detail_info': {'tag': '医疗;诊所', 'navi_location': {'lng': 108.93653721763, 'lat': 34.260393591653}, 'type': 'hospital', 'detail_url': 'http://api.map.baidu.com/place/detail?uid=1ef4a2f34b3020d44d776e30&output=html&source=placeapi_v2', 'price': '0', 'image_num': '5', 'comment_num': '0'}}"
"{'name': '北院门迎春社区卫生站', 'location': {'lat': 34.260389, 'lng': 108.936357}, 'address': '双仁府30号附近', 'street_id': '1ef4a2f34b3020d44d776e30', 'telephone': '(029)87618955', 'detail': 1, 'uid': '1ef4a2f34b3020d44d776e30', 'detail_info': {'tag': '医疗;诊所', 'navi_location': {'lng': 108.93653721763, 'lat': 34.260393591653}, 'type': 'hospital', 'detail_url': 'http://api.map.baidu.com/place/detail?uid=1ef4a2f34b3020d44d776e30&output=html&source=placeapi_v2', 'price': '0', 'image_num': '5', 'comment_num': '0'}}"
西安市碑林区社区卫生服务指导中心,108.93736483157703,34.25876057397238,a7a4ea26db1cabcf45e27452,"{'name': '西安市碑林区社区卫生服务指导中心', 'location': {'lat': 34.263364, 'lng': 108.948462}, 'address': '西安市碑林区', 'street_id': 'a7a4ea26db1cabcf45e27452', 'detail': 1, 'uid': 'a7a4ea26db1cabcf45e27452', 'detail_info': {'tag': '医疗;诊所', 'navi_location': {'lng': 108.94834673622, 'lat': 34.263353689663}, 'type': 'hospital', 'detail_url': 'http://api.map.baidu.com/place/detail?uid=a7a4ea26db1cabcf45e27452&output=html&source=placeapi_v2', 'price': '0', 'image_num': '4'}}"
"{'name': '西安市碑林区社区卫生服务指导中心', 'location': {'lat': 34.263364, 'lng': 108.948462}, 'address': '西安市碑林区', 'street_id': 'a7a4ea26db1cabcf45e27452', 'detail': 1, 'uid': 'a7a4ea26db1cabcf45e27452', 'detail_info': {'tag': '医疗;诊所', 'navi_location': {'lng': 108.94834673622, 'lat': 34.263353689663}, 'type': 'hospital', 'detail_url': 'http://api.map.baidu.com/place/detail?uid=a7a4ea26db1cabcf45e27452&output=html&source=placeapi_v2', 'price': '0', 'image_num': '4'}}"
怡康医药(铁塔寺店),108.91585280361235,34.265322629843645,550fd5f948b0b47a931fc920,"{'name': '怡康医药(铁塔寺店)', 'location': {'lat': 34.269551, 'lng': 108.927006}, 'address': '铁塔寺路25号', 'street_id': '550fd5f948b0b47a931fc920', 'telephone': '(029)88640732', 'detail': 1, 'uid': '550fd5f948b0b47a931fc920', 'detail_info': {'tag': '医疗;药店', 'type': 'hospital', 'detail_url': 'http://api.map.baidu.com/place/detail?uid=550fd5f948b0b47a931fc920&output=html&source=placeapi_v2', 'image_num': '5', 'comment_num': '0'}}"
"{'name': '怡康医药(铁塔寺店)', 'location': {'lat': 34.269551, 'lng': 108.927006}, 'address': '铁塔寺路25号', 'street_id': '550fd5f948b0b47a931fc920', 'telephone': '(029)88640732', 'detail': 1, 'uid': '550fd5f948b0b47a931fc920', 'detail_info': {'tag': '医疗;药店', 'type': 'hospital', 'detail_url': 'http://api.map.baidu.com/place/detail?uid=550fd5f948b0b47a931fc920&output=html&source=placeapi_v2', 'image_num': '5', 'comment_num': '0'}}"
众益堂大药房,108.91773568566904,34.26413712991135,0bf26cb44ef698fa3110af9e,"{'name': '众益堂大药房', 'location': {'lat': 34.268396, 'lng': 108.928884}, 'address': '西安市莲湖区环城西路210号', 'detail': 0, 'uid': '0bf26cb44ef698fa3110af9e', 'detail_info': {'tag': '医疗;药店'}}"
"{'name': '众益堂大药房', 'location': {'lat': 34.268396, 'lng': 108.928884}, 'address': '西安市莲湖区环城西路210号', 'detail': 0, 'uid': '0bf26cb44ef698fa3110af9e', 'detail_info': {'tag': '医疗;药店'}}"
华远大药房(环城西路北段),108.91817892635478,34.26063296357189,07f3c8b55168057a6240a971,"{'name': '华远大药房(环城西路北段)', 'location': {'lat': 34.264899, 'lng': 108.929329}, 'address': '环城西路南段78号东光大厦1层', 'street_id': '07f3c8b55168057a6240a971', 'telephone': '(029)88620202', 'detail': 1, 'uid': '07f3c8b55168057a6240a971', 'detail_info': {'tag': '医疗;药店', 'navi_location': {'lng': 108.92932866625, 'lat': 34.265112798365}, 'type': 'hospital', 'detail_url': 'http://api.map.baidu.com/place/detail?uid=07f3c8b55168057a6240a971&output=html&source=placeapi_v2', 'price': '0', 'image_num': '4'}}"
"{'name': '华远大药房(环城西路北段)', 'location': {'lat': 34.264899, 'lng': 108.929329}, 'address': '环城西路南段78号东光大厦1层', 'street_id': '07f3c8b55168057a6240a971', 'telephone': '(029)88620202', 'detail': 1, 'uid': '07f3c8b55168057a6240a971', 'detail_info': {'tag': '医疗;药店', 'navi_location': {'lng': 108.92932866625, 'lat': 34.265112798365}, 'type': 'hospital', 'detail_url': 'http://api.map.baidu.com/place/detail?uid=07f3c8b55168057a6240a971&output=html&source=placeapi_v2', 'price': '0', 'image_num': '4'}}"
西安莲湖北火巷卫生所,108.91576258241199,34.25877552600833,bff8fa7ddf74cba0c8213d04,"{'name': '西安莲湖北火巷卫生所', 'location': {'lat': 34.263002, 'lng': 108.926922}, 'address': '陕西省西安市莲湖区八佳路8号', 'street_id': 'bff8fa7ddf74cba0c8213d04', 'telephone': '(029)88773549', 'detail': 1, 'uid': 'bff8fa7ddf74cba0c8213d04', 'detail_info': {'tag': '医疗;诊所', 'type': 'hospital', 'detail_url': 'http://api.map.baidu.com/place/detail?uid=bff8fa7ddf74cba0c8213d04&output=html&source=placeapi_v2', 'image_num': '4', 'comment_num': '0'}}"
"{'name': '西安莲湖北火巷卫生所', 'location': {'lat': 34.263002, 'lng': 108.926922}, 'address': '陕西省西安市莲湖区八佳路8号', 'street_id': 'bff8fa7ddf74cba0c8213d04', 'telephone': '(029)88773549', 'detail': 1, 'uid': 'bff8fa7ddf74cba0c8213d04', 'detail_info': {'tag': '医疗;诊所', 'type': 'hospital', 'detail_url': 'http://api.map.baidu.com/place/detail?uid=bff8fa7ddf74cba0c8213d04&output=html&source=placeapi_v2', 'image_num': '4', 'comment_num': '0'}}"
西安市眼科医院-门诊部,108.93965926925304,34.25691723342425,4ea3f2f192be4dd7aecb665a,"{'name': '西安市眼科医院-门诊部', 'location': {'lat': 34.261555, 'lng': 108.950755}, 'address': '粉巷30', 'street_id': '4ea3f2f192be4dd7aecb665a', 'detail': 1, 'uid': '4ea3f2f192be4dd7aecb665a', 'detail_info': {'tag': '医疗;其他', 'type': 'hospital', 'detail_url': 'http://api.map.baidu.com/place/detail?uid=4ea3f2f192be4dd7aecb665a&output=html&source=placeapi_v2', 'overall_rating': '0.0', 'image_num': '1'}}"
"{'name': '西安市眼科医院-门诊部', 'location': {'lat': 34.261555, 'lng': 108.950755}, 'address': '粉巷30', 'street_id': '4ea3f2f192be4dd7aecb665a', 'detail': 1, 'uid': '4ea3f2f192be4dd7aecb665a', 'detail_info': {'tag': '医疗;其他', 'type': 'hospital', 'detail_url': 'http://api.map.baidu.com/place/detail?uid=4ea3f2f192be4dd7aecb665a&output=html&source=placeapi_v2', 'overall_rating': '0.0', 'image_num': '1'}}"
藻露堂(同济堂药店),108.9224411276507,34.26076951362535,3ea1fb7759bb3ac0095cb3d7,"{'name': '藻露堂(同济堂药店)', 'location': {'lat': 34.26511, 'lng': 108.933577}, 'address': '西大街276号安定广场3号楼1层', 'street_id': '3ea1fb7759bb3ac0095cb3d7', 'telephone': '(029)81802198', 'detail': 1, 'uid': '3ea1fb7759bb3ac0095cb3d7', 'detail_info': {'tag': '医疗;药店', 'navi_location': {'lng': 108.93357647094, 'lat': 34.265237149145}, 'type': 'hospital', 'detail_url': 'http://api.map.baidu.com/place/detail?uid=3ea1fb7759bb3ac0095cb3d7&output=html&source=placeapi_v2', 'price': '0', 'image_num': '6'}}"
"{'name': '藻露堂(同济堂药店)', 'location': {'lat': 34.26511, 'lng': 108.933577}, 'address': '西大街276号安定广场3号楼1层', 'street_id': '3ea1fb7759bb3ac0095cb3d7', 'telephone': '(029)81802198', 'detail': 1, 'uid': '3ea1fb7759bb3ac0095cb3d7', 'detail_info': {'tag': '医疗;药店', 'navi_location': {'lng': 108.93357647094, 'lat': 34.265237149145}, 'type': 'hospital', 'detail_url': 'http://api.map.baidu.com/place/detail?uid=3ea1fb7759bb3ac0095cb3d7&output=html&source=placeapi_v2', 'price': '0', 'image_num': '6'}}"
陕西七彩路儿童康复中心,108.9248862848671,34.26307294849333,641fce0f7cc94164c27da2c8,"{'name': '陕西七彩路儿童康复中心', 'location': {'lat': 34.267458, 'lng': 108.936012}, 'address': '陕西省西安市莲湖区西举院巷1号儿童公园内儿童科技园艺馆3楼', 'detail': 1, 'uid': '641fce0f7cc94164c27da2c8', 'detail_info': {'tag': '医疗;疗养院', 'type': 'hospital', 'detail_url': 'http://api.map.baidu.com/place/detail?uid=641fce0f7cc94164c27da2c8&output=html&source=placeapi_v2', 'price': '0', 'image_num': '13', 'comment_num': '1'}}"
"{'name': '陕西七彩路儿童康复中心', 'location': {'lat': 34.267458, 'lng': 108.936012}, 'address': '陕西省西安市莲湖区西举院巷1号儿童公园内儿童科技园艺馆3楼', 'detail': 1, 'uid': '641fce0f7cc94164c27da2c8', 'detail_info': {'tag': '医疗;疗养院', 'type': 'hospital', 'detail_url': 'http://api.map.baidu.com/place/detail?uid=641fce0f7cc94164c27da2c8&output=html&source=placeapi_v2', 'price': '0', 'image_num': '13', 'comment_num': '1'}}"
西安莲湖星月门诊部,108.92983392384052,34.264609452018675,64ff3be17e69a4c690114c17,"{'name': '西安莲湖星月门诊部', 'location': {'lat': 34.269085, 'lng': 108.940943}, 'address': '庙后街176号', 'street_id': '64ff3be17e69a4c690114c17', 'telephone': '(029)87266225', 'detail': 1, 'uid': '64ff3be17e69a4c690114c17', 'detail_info': {'tag': '医疗;其他', 'type': 'hospital', 'detail_url': 'http://api.map.baidu.com/place/detail?uid=64ff3be17e69a4c690114c17&output=html&source=placeapi_v2', 'image_num': '3', 'comment_num': '0'}}"
"{'name': '西安莲湖星月门诊部', 'location': {'lat': 34.269085, 'lng': 108.940943}, 'address': '庙后街176号', 'street_id': '64ff3be17e69a4c690114c17', 'telephone': '(029)87266225', 'detail': 1, 'uid': '64ff3be17e69a4c690114c17', 'detail_info': {'tag': '医疗;其他', 'type': 'hospital', 'detail_url': 'http://api.map.baidu.com/place/detail?uid=64ff3be17e69a4c690114c17&output=html&source=placeapi_v2', 'image_num': '3', 'comment_num': '0'}}"
高原红老药铺,108.93929972552151,34.26558080694665,e886231188c70da732f71d7e,"{'name': '高原红老药铺', 'location': {'lat': 34.270214, 'lng': 108.950388}, 'address': '北院门163号', 'street_id': 'e886231188c70da732f71d7e', 'detail': 1, 'uid': 'e886231188c70da732f71d7e', 'detail_info': {'tag': '医疗;药店', 'navi_location': {'lng': 108.95031482208, 'lat': 34.270504151378}, 'type': 'hospital', 'detail_url': 'http://api.map.baidu.com/place/detail?uid=e886231188c70da732f71d7e&output=html&source=placeapi_v2', 'price': '0', 'image_num': '2'}}"
"{'name': '高原红老药铺', 'location': {'lat': 34.270214, 'lng': 108.950388}, 'address': '北院门163号', 'street_id': 'e886231188c70da732f71d7e', 'detail': 1, 'uid': 'e886231188c70da732f71d7e', 'detail_info': {'tag': '医疗;药店', 'navi_location': {'lng': 108.95031482208, 'lat': 34.270504151378}, 'type': 'hospital', 'detail_url': 'http://api.map.baidu.com/place/detail?uid=e886231188c70da732f71d7e&output=html&source=placeapi_v2', 'price': '0', 'image_num': '2'}}"
怡康医药超市新日店,108.9158072717374,34.26048770048551,3f826ed3d3afaa46d1f49e0f,"{'name': '怡康医药超市新日店', 'location': {'lat': 34.264715, 'lng': 108.926965}, 'address': '西关正街英达大厦1楼', 'street_id': '3f826ed3d3afaa46d1f49e0f', 'detail': 1, 'uid': '3f826ed3d3afaa46d1f49e0f', 'detail_info': {'tag': '医疗;药店', 'type': 'hospital', 'detail_url': 'http://api.map.baidu.com/place/detail?uid=3f826ed3d3afaa46d1f49e0f&output=html&source=placeapi_v2', 'price': '0.0', 'overall_rating': '2.5', 'image_num': '12'}}"
"{'name': '怡康医药超市新日店', 'location': {'lat': 34.264715, 'lng': 108.926965}, 'address': '西关正街英达大厦1楼', 'street_id': '3f826ed3d3afaa46d1f49e0f', 'detail': 1, 'uid': '3f826ed3d3afaa46d1f49e0f', 'detail_info': {'tag': '医疗;药店', 'type': 'hospital', 'detail_url': 'http://api.map.baidu.com/place/detail?uid=3f826ed3d3afaa46d1f49e0f&output=html&source=placeapi_v2', 'price': '0.0', 'overall_rating': '2.5', 'image_num': '12'}}"
京兆药房,108.92674183778881,34.25935519623697,eb5ae168a63a9399c42ba127,"{'name': '京兆药房', 'location': {'lat': 34.263774, 'lng': 108.937865}, 'address': '丰禾路八水洋房1楼', 'street_id': 'eb5ae168a63a9399c42ba127', 'detail': 1, 'uid': 'eb5ae168a63a9399c42ba127', 'detail_info': {'tag': '医疗;药店', 'navi_location': {'lng': 108.93786396366, 'lat': 34.263692166555}, 'type': 'hospital', 'detail_url': 'http://api.map.baidu.com/place/detail?uid=eb5ae168a63a9399c42ba127&output=html&source=placeapi_v2', 'price': '0', 'image_num': '4', 'comment_num': '0'}}"
"{'name': '京兆药房', 'location': {'lat': 34.263774, 'lng': 108.937865}, 'address': '丰禾路八水洋房1楼', 'street_id': 'eb5ae168a63a9399c42ba127', 'detail': 1, 'uid': 'eb5ae168a63a9399c42ba127', 'detail_info': {'tag': '医疗;药店', 'navi_location': {'lng': 108.93786396366, 'lat': 34.263692166555}, 'type': 'hospital', 'detail_url': 'http://api.map.baidu.com/place/detail?uid=eb5ae168a63a9399c42ba127&output=html&source=placeapi_v2', 'price': '0', 'image_num': '4', 'comment_num': '0'}}"
莲湖区红十字会医院-急诊,108.92815733897783,34.25839434883563,8fc17b5940af6e7d88db730e,"{'name': '莲湖区红十字会医院-急诊', 'location': {'lat': 34.262839, 'lng': 108.939277}, 'address': '红光街29', 'street_id': '8fc17b5940af6e7d88db730e', 'detail': 1, 'uid': '8fc17b5940af6e7d88db730e', 'detail_info': {'tag': '医疗;其他', 'navi_location': {'lng': 108.93888830323, 'lat': 34.262850953505}, 'type': 'hospital', 'detail_url': 'http://api.map.baidu.com/place/detail?uid=8fc17b5940af6e7d88db730e&output=html&source=placeapi_v2', 'price': '0', 'overall_rating': '0', 'image_num': '1'}}"
"{'name': '莲湖区红十字会医院-急诊', 'location': {'lat': 34.262839, 'lng': 108.939277}, 'address': '红光街29', 'street_id': '8fc17b5940af6e7d88db730e', 'detail': 1, 'uid': '8fc17b5940af6e7d88db730e', 'detail_info': {'tag': '医疗;其他', 'navi_location': {'lng': 108.93888830323, 'lat': 34.262850953505}, 'type': 'hospital', 'detail_url': 'http://api.map.baidu.com/place/detail?uid=8fc17b5940af6e7d88db730e&output=html&source=placeapi_v2', 'price': '0', 'overall_rating': '0', 'image_num': '1'}}"
西安市第一医院眼科研究所制剂室,108.94028317854782,34.256102418018635,9043f4ae19f51fa2df1e5242,"{'name': '西安市第一医院眼科研究所制剂室', 'location': {'lat': 34.260749, 'lng': 108.951379}, 'address': '南大街粉巷30号', 'street_id': '9043f4ae19f51fa2df1e5242', 'detail': 1, 'uid': '9043f4ae19f51fa2df1e5242', 'detail_info': {'tag': '医疗;其他', 'type': 'hospital', 'detail_url': 'http://api.map.baidu.com/place/detail?uid=9043f4ae19f51fa2df1e5242&output=html&source=placeapi_v2', 'price': '0', 'image_num': '1'}}"
"{'name': '西安市第一医院眼科研究所制剂室', 'location': {'lat': 34.260749, 'lng': 108.951379}, 'address': '南大街粉巷30号', 'street_id': '9043f4ae19f51fa2df1e5242', 'detail': 1, 'uid': '9043f4ae19f51fa2df1e5242', 'detail_info': {'tag': '医疗;其他', 'type': 'hospital', 'detail_url': 'http://api.map.baidu.com/place/detail?uid=9043f4ae19f51fa2df1e5242&output=html&source=placeapi_v2', 'price': '0', 'image_num': '1'}}"
西安蓝精灵言语康复中心,108.92482600320412,34.26078720723426,be617c41f6da5ede373a7109,"{'name': '西安蓝精灵言语康复中心', 'location': {'lat': 34.265171, 'lng': 108.935954}, 'address': '西大街246号宏府安定门广场4号楼5层', 'street_id': 'be617c41f6da5ede373a7109', 'detail': 1, 'uid': 'be617c41f6da5ede373a7109', 'detail_info': {'tag': '医疗;疗养院', 'type': 'hospital', 'detail_url': 'http://api.map.baidu.com/place/detail?uid=be617c41f6da5ede373a7109&output=html&source=placeapi_v2', 'price': '0', 'overall_rating': '0', 'image_num': '3'}}"
"{'name': '西安蓝精灵言语康复中心', 'location': {'lat': 34.265171, 'lng': 108.935954}, 'address': '西大街246号宏府安定门广场4号楼5层', 'street_id': 'be617c41f6da5ede373a7109', 'detail': 1, 'uid': 'be617c41f6da5ede373a7109', 'detail_info': {'tag': '医疗;疗养院', 'type': 'hospital', 'detail_url': 'http://api.map.baidu.com/place/detail?uid=be617c41f6da5ede373a7109&output=html&source=placeapi_v2', 'price': '0', 'overall_rating': '0', 'image_num': '3'}}"
西安莲湖乔君奇中医骨科诊所,108.9407318984112,34.26307965894497,30f6ad218df38fbd86420e90,"{'name': '西安莲湖乔君奇中医骨科诊所', 'location': {'lat': 34.267733, 'lng': 108.951821}, 'address': '西安市莲湖区社会路5号(原北大街20号洛阳骨科诊所电话二分局南隔壁)', 'street_id': '30f6ad218df38fbd86420e90', 'telephone': '18991852580', 'detail': 1, 'uid': '30f6ad218df38fbd86420e90', 'detail_info': {'tag': '医疗;诊所', 'type': 'hospital', 'detail_url': 'http://api.map.baidu.com/place/detail?uid=30f6ad218df38fbd86420e90&output=html&source=placeapi_v2', 'image_num': '1', 'comment_num': '2'}}"
"{'name': '西安莲湖乔君奇中医骨科诊所', 'location': {'lat': 34.267733, 'lng': 108.951821}, 'address': '西安市莲湖区社会路5号(原北大街20号洛阳骨科诊所电话二分局南隔壁)', 'street_id': '30f6ad218df38fbd86420e90', 'telephone': '18991852580', 'detail': 1, 'uid': '30f6ad218df38fbd86420e90', 'detail_info': {'tag': '医疗;诊所', 'type': 'hospital', 'detail_url': 'http://api.map.baidu.com/place/detail?uid=30f6ad218df38fbd86420e90&output=html&source=placeapi_v2', 'image_num': '1', 'comment_num': '2'}}"
徐渊眼科,108.92743306460869,34.25123718983473,07eca7f97339d9ee601809fc,"{'name': '徐渊眼科', 'location': {'lat': 34.255668, 'lng': 108.938561}, 'address': '含光路北段与大学东路交叉口西南100米', 'street_id': '07eca7f97339d9ee601809fc', 'detail': 0, 'uid': '07eca7f97339d9ee601809fc', 'detail_info': {'tag': '医疗;其他'}}"
"{'name': '徐渊眼科', 'location': {'lat': 34.255668, 'lng': 108.938561}, 'address': '含光路北段与大学东路交叉口西南100米', 'street_id': '07eca7f97339d9ee601809fc', 'detail': 0, 'uid': '07eca7f97339d9ee601809fc', 'detail_info': {'tag': '医疗;其他'}}"
百姓乐大药房(白鹭湾店),108.92264049911813,34.259350019927524,c61bd305048bc668c27da20c,"{'name': '百姓乐大药房(白鹭湾店)', 'location': {'lat': 34.263694, 'lng': 108.933777}, 'address': '菜坑岸72号', 'street_id': 'c61bd305048bc668c27da20c', 'telephone': '(029)87610239', 'detail': 1, 'uid': 'c61bd305048bc668c27da20c', 'detail_info': {'tag': '医疗;药店', 'type': 'hospital', 'detail_url': 'http://api.map.baidu.com/place/detail?uid=c61bd305048bc668c27da20c&output=html&source=placeapi_v2', 'price': '0.0', 'image_num': '4'}}"
"{'name': '百姓乐大药房(白鹭湾店)', 'location': {'lat': 34.263694, 'lng': 108.933777}, 'address': '菜坑岸72号', 'street_id': 'c61bd305048bc668c27da20c', 'telephone': '(029)87610239', 'detail': 1, 'uid': 'c61bd305048bc668c27da20c', 'detail_info': {'tag': '医疗;药店', 'type': 'hospital', 'detail_url': 'http://api.map.baidu.com/place/detail?uid=c61bd305048bc668c27da20c&output=html&source=placeapi_v2', 'price': '0.0', 'image_num': '4'}}"
新现代口腔诊所,108.92520508885347,34.25616859284795,8b8daac38b36ef158c55ecd9,"{'name': '新现代口腔诊所', 'location': {'lat': 34.260559, 'lng': 108.936336}, 'address': '西安市莲湖区', 'street_id': '8b8daac38b36ef158c55ecd9', 'detail': 1, 'uid': '8b8daac38b36ef158c55ecd9', 'detail_info': {'tag': '医疗;诊所', 'navi_location': {'lng': 108.93653123761, 'lat': 34.260563490952}, 'type': 'hospital', 'detail_url': 'http://api.map.baidu.com/place/detail?uid=8b8daac38b36ef158c55ecd9&output=html&source=placeapi_v2', 'price': '0', 'image_num': '4'}}"
"{'name': '新现代口腔诊所', 'location': {'lat': 34.260559, 'lng': 108.936336}, 'address': '西安市莲湖区', 'street_id': '8b8daac38b36ef158c55ecd9', 'detail': 1, 'uid': '8b8daac38b36ef158c55ecd9', 'detail_info': {'tag': '医疗;诊所', 'navi_location': {'lng': 108.93653123761, 'lat': 34.260563490952}, 'type': 'hospital', 'detail_url': 'http://api.map.baidu.com/place/detail?uid=8b8daac38b36ef158c55ecd9&output=html&source=placeapi_v2', 'price': '0', 'image_num': '4'}}"
西安交大医学院教学医院,108.940408520188,34.25635964146215,5233b75b309498e05e0d029b,"{'name': '西安交大医学院教学医院', 'location': {'lat': 34.261008, 'lng': 108.951504}, 'address': '粉巷30号', 'street_id': '5233b75b309498e05e0d029b', 'detail': 1, 'uid': '5233b75b309498e05e0d029b', 'detail_info': {'tag': '医疗;综合医院', 'navi_location': {'lng': 108.95138799534, 'lat': 34.261651673729}, 'type': 'hospital', 'detail_url': 'http://api.map.baidu.com/place/detail?uid=5233b75b309498e05e0d029b&output=html&source=placeapi_v2', 'price': '0', 'image_num': '1'}}"
"{'name': '西安交大医学院教学医院', 'location': {'lat': 34.261008, 'lng': 108.951504}, 'address': '粉巷30号', 'street_id': '5233b75b309498e05e0d029b', 'detail': 1, 'uid': '5233b75b309498e05e0d029b', 'detail_info': {'tag': '医疗;综合医院', 'navi_location': {'lng': 108.95138799534, 'lat': 34.261651673729}, 'type': 'hospital', 'detail_url': 'http://api.map.baidu.com/place/detail?uid=5233b75b309498e05e0d029b&output=html&source=placeapi_v2', 'price': '0', 'image_num': '1'}}"
杨新亚诊所,108.93957788811976,34.257709348634954,3a173f53c86de26032870a5c,"{'name': '杨新亚诊所', 'location': {'lat': 34.262346, 'lng': 108.950673}, 'address': '西木头市43号', 'street_id': '3a173f53c86de26032870a5c', 'detail': 1, 'uid': '3a173f53c86de26032870a5c', 'detail_info': {'tag': '医疗;诊所', 'type': 'hospital', 'detail_url': 'http://api.map.baidu.com/place/detail?uid=3a173f53c86de26032870a5c&output=html&source=placeapi_v2', 'price': '0', 'image_num': '4'}}"
"{'name': '杨新亚诊所', 'location': {'lat': 34.262346, 'lng': 108.950673}, 'address': '西木头市43号', 'street_id': '3a173f53c86de26032870a5c', 'detail': 1, 'uid': '3a173f53c86de26032870a5c', 'detail_info': {'tag': '医疗;诊所', 'type': 'hospital', 'detail_url': 'http://api.map.baidu.com/place/detail?uid=3a173f53c86de26032870a5c&output=html&source=placeapi_v2', 'price': '0', 'image_num': '4'}}"
怡康医药超市,108.92814273714781,34.2555008267247,8b73ae5ca7d9c76310293535,"{'name': '怡康医药超市', 'location': {'lat': 34.259945, 'lng': 108.939265}, 'address': '陕西省西安市莲湖区冰窖巷十区南北甜水井大街15号楼一层25号', 'street_id': 'cde9e2c7e6717ab4e81e970f', 'detail': 1, 'uid': '8b73ae5ca7d9c76310293535', 'detail_info': {'tag': '医疗;药店', 'type': 'hospital', 'detail_url': 'http://api.map.baidu.com/place/detail?uid=8b73ae5ca7d9c76310293535&output=html&source=placeapi_v2', 'price': '0', 'overall_rating': '5', 'image_num': '19', 'comment_num': '1'}}"
"{'name': '怡康医药超市', 'location': {'lat': 34.259945, 'lng': 108.939265}, 'address': '陕西省西安市莲湖区冰窖巷十区南北甜水井大街15号楼一层25号', 'street_id': 'cde9e2c7e6717ab4e81e970f', 'detail': 1, 'uid': '8b73ae5ca7d9c76310293535', 'detail_info': {'tag': '医疗;药店', 'type': 'hospital', 'detail_url': 'http://api.map.baidu.com/place/detail?uid=8b73ae5ca7d9c76310293535&output=html&source=placeapi_v2', 'price': '0', 'overall_rating': '5', 'image_num': '19', 'comment_num': '1'}}"
祥康诊所,108.93111125121759,34.25997985819531,d6ee8724010a6de0a8f0cd04,"{'name': '祥康诊所', 'location': {'lat': 34.264478, 'lng': 108.942221}, 'address': '琉璃街46号', 'street_id': 'd6ee8724010a6de0a8f0cd04', 'detail': 1, 'uid': 'd6ee8724010a6de0a8f0cd04', 'detail_info': {'tag': '医疗;诊所', 'type': 'hospital', 'detail_url': 'http://api.map.baidu.com/place/detail?uid=d6ee8724010a6de0a8f0cd04&output=html&source=placeapi_v2', 'image_num': '6', 'comment_num': '0'}}"
"{'name': '祥康诊所', 'location': {'lat': 34.264478, 'lng': 108.942221}, 'address': '琉璃街46号', 'street_id': 'd6ee8724010a6de0a8f0cd04', 'detail': 1, 'uid': 'd6ee8724010a6de0a8f0cd04', 'detail_info': {'tag': '医疗;诊所', 'type': 'hospital', 'detail_url': 'http://api.map.baidu.com/place/detail?uid=d6ee8724010a6de0a8f0cd04&output=html&source=placeapi_v2', 'image_num': '6', 'comment_num': '0'}}"
康美(中大国际),108.94184378487634,34.25547727802169,b17f65f265f8b96a5a3ac8db,"{'name': '康美(中大国际)', 'location': {'lat': 34.260145, 'lng': 108.952939}, 'address': '南大街30号F6层', 'street_id': 'b17f65f265f8b96a5a3ac8db', 'detail': 1, 'uid': 'b17f65f265f8b96a5a3ac8db', 'detail_info': {'tag': '医疗;药店', 'navi_location': {'lng': 108.95324539738, 'lat': 34.260519847401}, 'type': 'hospital', 'detail_url': 'http://api.map.baidu.com/place/detail?uid=b17f65f265f8b96a5a3ac8db&output=html&source=placeapi_v2', 'price': '0', 'image_num': '1'}}"
"{'name': '康美(中大国际)', 'location': {'lat': 34.260145, 'lng': 108.952939}, 'address': '南大街30号F6层', 'street_id': 'b17f65f265f8b96a5a3ac8db', 'detail': 1, 'uid': 'b17f65f265f8b96a5a3ac8db', 'detail_info': {'tag': '医疗;药店', 'navi_location': {'lng': 108.95324539738, 'lat': 34.260519847401}, 'type': 'hospital', 'detail_url': 'http://api.map.baidu.com/place/detail?uid=b17f65f265f8b96a5a3ac8db&output=html&source=placeapi_v2', 'price': '0', 'image_num': '1'}}"
西安市儿童医院住院二部,108.92257649706413,34.265083771796284,d9ff9b318dda2f69d2f49e89,"{'name': '西安市儿童医院住院二部', 'location': {'lat': 34.269427, 'lng': 108.933708}, 'address': '西举院巷69号西安市儿童医院内', 'detail': 1, 'uid': 'd9ff9b318dda2f69d2f49e89', 'detail_info': {'tag': '医疗;其他', 'navi_location': {'lng': 108.93415724791, 'lat': 34.269358825748}, 'type': 'hospital', 'detail_url': 'http://api.map.baidu.com/place/detail?uid=d9ff9b318dda2f69d2f49e89&output=html&source=placeapi_v2', 'price': '0', 'image_num': '1'}}"
"{'name': '西安市儿童医院住院二部', 'location': {'lat': 34.269427, 'lng': 108.933708}, 'address': '西举院巷69号西安市儿童医院内', 'detail': 1, 'uid': 'd9ff9b318dda2f69d2f49e89', 'detail_info': {'tag': '医疗;其他', 'navi_location': {'lng': 108.93415724791, 'lat': 34.269358825748}, 'type': 'hospital', 'detail_url': 'http://api.map.baidu.com/place/detail?uid=d9ff9b318dda2f69d2f49e89&output=html&source=placeapi_v2', 'price': '0', 'image_num': '1'}}"
同一医药(西安庙后街店),108.92931068704124,34.26491089863949,0d6b1ee3b32ee53b8c55ec35,"{'name': '同一医药(西安庙后街店)', 'location': {'lat': 34.269377, 'lng': 108.940421}, 'address': '庙后街169号', 'street_id': '0d6b1ee3b32ee53b8c55ec35', 'detail': 1, 'uid': '0d6b1ee3b32ee53b8c55ec35', 'detail_info': {'tag': '医疗;药店', 'navi_location': {'lng': 108.940572397, 'lat': 34.269266793488}, 'type': 'hospital', 'detail_url': 'http://api.map.baidu.com/place/detail?uid=0d6b1ee3b32ee53b8c55ec35&output=html&source=placeapi_v2', 'price': '0', 'image_num': '1'}}"
"{'name': '同一医药(西安庙后街店)', 'location': {'lat': 34.269377, 'lng': 108.940421}, 'address': '庙后街169号', 'street_id': '0d6b1ee3b32ee53b8c55ec35', 'detail': 1, 'uid': '0d6b1ee3b32ee53b8c55ec35', 'detail_info': {'tag': '医疗;药店', 'navi_location': {'lng': 108.940572397, 'lat': 34.269266793488}, 'type': 'hospital', 'detail_url': 'http://api.map.baidu.com/place/detail?uid=0d6b1ee3b32ee53b8c55ec35&output=html&source=placeapi_v2', 'price': '0', 'image_num': '1'}}"
西安市儿童医院家属院-1号楼,108.92369495779764,34.26370763178961,30f7123d1ac42559fa42b2c2,"{'name': '西安市儿童医院家属院-1号楼', 'location': {'lat': 34.268071, 'lng': 108.934824}, 'address': '儿童医院家属院1号楼', 'street_id': '30f7123d1ac42559fa42b2c2', 'detail': 1, 'uid': '30f7123d1ac42559fa42b2c2', 'detail_info': {'tag': '房地产;住宅区', 'navi_location': {'lng': 108.93510164188, 'lat': 34.267888428962}, 'type': 'hospital', 'detail_url': 'http://api.map.baidu.com/place/detail?uid=30f7123d1ac42559fa42b2c2&output=html&source=placeapi_v2', 'price': '0', 'overall_rating': '0', 'image_num': '2'}}"
"{'name': '西安市儿童医院家属院-1号楼', 'location': {'lat': 34.268071, 'lng': 108.934824}, 'address': '儿童医院家属院1号楼', 'street_id': '30f7123d1ac42559fa42b2c2', 'detail': 1, 'uid': '30f7123d1ac42559fa42b2c2', 'detail_info': {'tag': '房地产;住宅区', 'navi_location': {'lng': 108.93510164188, 'lat': 34.267888428962}, 'type': 'hospital', 'detail_url': 'http://api.map.baidu.com/place/detail?uid=30f7123d1ac42559fa42b2c2&output=html&source=placeapi_v2', 'price': '0', 'overall_rating': '0', 'image_num': '2'}}"
陕西省儿童医疗中心西安市儿童医院协作医院,108.9362121071875,34.26124070429712,a2fe9fda2293e0db1ce9992a,"{'name': '陕西省儿童医疗中心西安市儿童医院协作医院', 'location': {'lat': 34.265826, 'lng': 108.947309}, 'address': '西大街83号附近', 'street_id': 'a2fe9fda2293e0db1ce9992a', 'detail': 1, 'uid': 'a2fe9fda2293e0db1ce9992a', 'detail_info': {'tag': '医疗;专科医院', 'type': 'hospital', 'detail_url': 'http://api.map.baidu.com/place/detail?uid=a2fe9fda2293e0db1ce9992a&output=html&source=placeapi_v2', 'price': '0', 'image_num': '1'}}"
"{'name': '陕西省儿童医疗中心西安市儿童医院协作医院', 'location': {'lat': 34.265826, 'lng': 108.947309}, 'address': '西大街83号附近', 'street_id': 'a2fe9fda2293e0db1ce9992a', 'detail': 1, 'uid': 'a2fe9fda2293e0db1ce9992a', 'detail_info': {'tag': '医疗;专科医院', 'type': 'hospital', 'detail_url': 'http://api.map.baidu.com/place/detail?uid=a2fe9fda2293e0db1ce9992a&output=html&source=placeapi_v2', 'price': '0', 'image_num': '1'}}"
西安莲湖延春中医诊所,108.93947315792992,34.265842258519534,3b3a2d82335187c4f8f0cb4c,"{'name': '西安莲湖延春中医诊所', 'location': {'lat': 34.270478, 'lng': 108.950561}, 'address': '陕西省西安市莲湖区陕西省中医医院', 'detail': 0, 'uid': '3b3a2d82335187c4f8f0cb4c', 'detail_info': {'tag': '医疗;诊所'}}"
"{'name': '西安莲湖延春中医诊所', 'location': {'lat': 34.270478, 'lng': 108.950561}, 'address': '陕西省西安市莲湖区陕西省中医医院', 'detail': 0, 'uid': '3b3a2d82335187c4f8f0cb4c', 'detail_info': {'tag': '医疗;诊所'}}"
西安市第一医院-急诊,108.94025686510719,34.256906725564214,be54cde9c062842578f7963b,"{'name': '西安市第一医院-急诊', 'location': {'lat': 34.261553, 'lng': 108.951352}, 'address': '南大街粉巷30号', 'street_id': 'be54cde9c062842578f7963b', 'detail': 1, 'uid': 'be54cde9c062842578f7963b', 'detail_info': {'tag': '医疗;其他', 'navi_location': {'lng': 108.95131226818, 'lat': 34.261681061523}, 'type': 'hospital', 'detail_url': 'http://api.map.baidu.com/place/detail?uid=be54cde9c062842578f7963b&output=html&source=placeapi_v2', 'price': '0', 'image_num': '2'}}"
"{'name': '西安市第一医院-急诊', 'location': {'lat': 34.261553, 'lng': 108.951352}, 'address': '南大街粉巷30号', 'street_id': 'be54cde9c062842578f7963b', 'detail': 1, 'uid': 'be54cde9c062842578f7963b', 'detail_info': {'tag': '医疗;其他', 'navi_location': {'lng': 108.95131226818, 'lat': 34.261681061523}, 'type': 'hospital', 'detail_url': 'http://api.map.baidu.com/place/detail?uid=be54cde9c062842578f7963b&output=html&source=placeapi_v2', 'price': '0', 'image_num': '2'}}"
怡康医药(东举院店),108.92594309107038,34.264614478983276,fa7da3e853a2266142d63e20,"{'name': '怡康医药(东举院店)', 'location': {'lat': 34.269019, 'lng': 108.937064}, 'address': '北院门街道东举院巷110号', 'street_id': 'fa7da3e853a2266142d63e20', 'detail': 1, 'uid': 'fa7da3e853a2266142d63e20', 'detail_info': {'tag': '医疗;药店', 'navi_location': {'lng': 108.93706377917, 'lat': 34.269179790237}, 'type': 'hospital', 'detail_url': 'http://api.map.baidu.com/place/detail?uid=fa7da3e853a2266142d63e20&output=html&source=placeapi_v2', 'image_num': '6'}}"
"{'name': '怡康医药(东举院店)', 'location': {'lat': 34.269019, 'lng': 108.937064}, 'address': '北院门街道东举院巷110号', 'street_id': 'fa7da3e853a2266142d63e20', 'detail': 1, 'uid': 'fa7da3e853a2266142d63e20', 'detail_info': {'tag': '医疗;药店', 'navi_location': {'lng': 108.93706377917, 'lat': 34.269179790237}, 'type': 'hospital', 'detail_url': 'http://api.map.baidu.com/place/detail?uid=fa7da3e853a2266142d63e20&output=html&source=placeapi_v2', 'image_num': '6'}}"
迪咖乐大药房,108.93462276977479,34.25886204117211,408c178b02bfb8c922022084,"{'name': '迪咖乐大药房', 'location': {'lat': 34.263421, 'lng': 108.945725}, 'address': '陕西省西安市碑林区广济小区(南广济街)', 'detail': 1, 'uid': '408c178b02bfb8c922022084', 'detail_info': {'tag': '医疗;药店', 'type': 'hospital', 'detail_url': 'http://api.map.baidu.com/place/detail?uid=408c178b02bfb8c922022084&output=html&source=placeapi_v2', 'image_num': '1'}}"
"{'name': '迪咖乐大药房', 'location': {'lat': 34.263421, 'lng': 108.945725}, 'address': '陕西省西安市碑林区广济小区(南广济街)', 'detail': 1, 'uid': '408c178b02bfb8c922022084', 'detail_info': {'tag': '医疗;药店', 'type': 'hospital', 'detail_url': 'http://api.map.baidu.com/place/detail?uid=408c178b02bfb8c922022084&output=html&source=placeapi_v2', 'image_num': '1'}}"
峻修堂大药房,108.93075651274386,34.264618865312734,3f38e89c90d2067728b97cb5,"{'name': '峻修堂大药房', 'location': {'lat': 34.269111, 'lng': 108.941863}, 'address': '北院门街道庙后街82号(庙后街派出所东侧)', 'street_id': '3f38e89c90d2067728b97cb5', 'detail': 1, 'uid': '3f38e89c90d2067728b97cb5', 'detail_info': {'tag': '医疗;药店', 'type': 'hospital', 'detail_url': 'http://api.map.baidu.com/place/detail?uid=3f38e89c90d2067728b97cb5&output=html&source=placeapi_v2', 'price': '0', 'image_num': '1'}}"
"{'name': '峻修堂大药房', 'location': {'lat': 34.269111, 'lng': 108.941863}, 'address': '北院门街道庙后街82号(庙后街派出所东侧)', 'street_id': '3f38e89c90d2067728b97cb5', 'detail': 1, 'uid': '3f38e89c90d2067728b97cb5', 'detail_info': {'tag': '医疗;药店', 'type': 'hospital', 'detail_url': 'http://api.map.baidu.com/place/detail?uid=3f38e89c90d2067728b97cb5&output=html&source=placeapi_v2', 'price': '0', 'image_num': '1'}}"
盛益大药房,108.92615321937431,34.2574011257539,9942f65db27242ef8bfc060b,"{'name': '盛益大药房', 'location': {'lat': 34.261809, 'lng': 108.93728}, 'address': '陕西省西安市莲湖区东梆子市街白鹭湾小区(东区)东南', 'street_id': '9942f65db27242ef8bfc060b', 'detail': 0, 'uid': '9942f65db27242ef8bfc060b', 'detail_info': {'tag': '医疗;药店'}}"
"{'name': '盛益大药房', 'location': {'lat': 34.261809, 'lng': 108.93728}, 'address': '陕西省西安市莲湖区东梆子市街白鹭湾小区(东区)东南', 'street_id': '9942f65db27242ef8bfc060b', 'detail': 0, 'uid': '9942f65db27242ef8bfc060b', 'detail_info': {'tag': '医疗;药店'}}"
西安市急救中心西安市第一医院院前急救站,108.94015678970669,34.25692913437177,51cc34f411bc5e66d813181a,"{'name': '西安市急救中心西安市第一医院院前急救站', 'location': {'lat': 34.261574, 'lng': 108.951252}, 'address': '陕西省西安市碑林区南大街粉巷30号', 'street_id': '51cc34f411bc5e66d813181a', 'detail': 1, 'uid': '51cc34f411bc5e66d813181a', 'detail_info': {'tag': '医疗;其他', 'type': 'hospital', 'detail_url': 'http://api.map.baidu.com/place/detail?uid=51cc34f411bc5e66d813181a&output=html&source=placeapi_v2', 'price': '0', 'image_num': '1'}}"
"{'name': '西安市急救中心西安市第一医院院前急救站', 'location': {'lat': 34.261574, 'lng': 108.951252}, 'address': '陕西省西安市碑林区南大街粉巷30号', 'street_id': '51cc34f411bc5e66d813181a', 'detail': 1, 'uid': '51cc34f411bc5e66d813181a', 'detail_info': {'tag': '医疗;其他', 'type': 'hospital', 'detail_url': 'http://api.map.baidu.com/place/detail?uid=51cc34f411bc5e66d813181a&output=html&source=placeapi_v2', 'price': '0', 'image_num': '1'}}"
陕西省儿童医疗中心,108.9222296681669,34.26322914406962,d50f7ef5b7f937f3a3a9342f,"{'name': '陕西省儿童医疗中心', 'location': {'lat': 34.267566, 'lng': 108.933364}, 'address': '陕西省西安市莲湖区西举院巷69号', 'street_id': 'd50f7ef5b7f937f3a3a9342f', 'detail': 0, 'uid': 'd50f7ef5b7f937f3a3a9342f', 'detail_info': {'tag': '医疗;疗养院'}}"
"{'name': '陕西省儿童医疗中心', 'location': {'lat': 34.267566, 'lng': 108.933364}, 'address': '陕西省西安市莲湖区西举院巷69号', 'street_id': 'd50f7ef5b7f937f3a3a9342f', 'detail': 0, 'uid': 'd50f7ef5b7f937f3a3a9342f', 'detail_info': {'tag': '医疗;疗养院'}}"
东信中医馆,108.92838373589557,34.252226711793135,63ea9899c03e03b24c6d46a8,"{'name': '东信中医馆', 'location': {'lat': 34.256675, 'lng': 108.939508}, 'address': '西安市西安市环城南路140号', 'street_id': '63ea9899c03e03b24c6d46a8', 'detail': 0, 'uid': '63ea9899c03e03b24c6d46a8', 'detail_info': {'tag': '医疗;药店'}}"
"{'name': '东信中医馆', 'location': {'lat': 34.256675, 'lng': 108.939508}, 'address': '西安市西安市环城南路140号', 'street_id': '63ea9899c03e03b24c6d46a8', 'detail': 0, 'uid': '63ea9899c03e03b24c6d46a8', 'detail_info': {'tag': '医疗;药店'}}"
泰生医药(唐元店),108.92241051290587,34.26239895332451,4cf8d24e6c5513e79cf77920,"{'name': '泰生医药(唐元店)', 'location': {'lat': 34.266739, 'lng': 108.933545}, 'address': '西举院巷78号唐元宫1层', 'street_id': '4cf8d24e6c5513e79cf77920', 'telephone': '(029)87628235', 'detail': 1, 'uid': '4cf8d24e6c5513e79cf77920', 'detail_info': {'tag': '医疗;药店', 'type': 'hospital', 'detail_url': 'http://api.map.baidu.com/place/detail?uid=4cf8d24e6c5513e79cf77920&output=html&source=placeapi_v2', 'overall_rating': '3.8', 'image_num': '9'}}"
"{'name': '泰生医药(唐元店)', 'location': {'lat': 34.266739, 'lng': 108.933545}, 'address': '西举院巷78号唐元宫1层', 'street_id': '4cf8d24e6c5513e79cf77920', 'telephone': '(029)87628235', 'detail': 1, 'uid': '4cf8d24e6c5513e79cf77920', 'detail_info': {'tag': '医疗;药店', 'type': 'hospital', 'detail_url': 'http://api.map.baidu.com/place/detail?uid=4cf8d24e6c5513e79cf77920&output=html&source=placeapi_v2', 'overall_rating': '3.8', 'image_num': '9'}}"
西安碑林何景龙诊所,108.939058801576,34.256041053560075,513e8c2fe33bc36482288a39,"{'name': '西安碑林何景龙诊所', 'location': {'lat': 34.26067, 'lng': 108.950156}, 'address': '南院门街道德福巷小区', 'street_id': '513e8c2fe33bc36482288a39', 'detail': 1, 'uid': '513e8c2fe33bc36482288a39', 'detail_info': {'tag': '医疗;诊所', 'type': 'hospital', 'detail_url': 'http://api.map.baidu.com/place/detail?uid=513e8c2fe33bc36482288a39&output=html&source=placeapi_v2', 'price': '0', 'image_num': '1'}}"
"{'name': '西安碑林何景龙诊所', 'location': {'lat': 34.26067, 'lng': 108.950156}, 'address': '南院门街道德福巷小区', 'street_id': '513e8c2fe33bc36482288a39', 'detail': 1, 'uid': '513e8c2fe33bc36482288a39', 'detail_info': {'tag': '医疗;诊所', 'type': 'hospital', 'detail_url': 'http://api.map.baidu.com/place/detail?uid=513e8c2fe33bc36482288a39&output=html&source=placeapi_v2', 'price': '0', 'image_num': '1'}}"
成裕大药房,108.92835797117733,34.25383503459142,7db8805daae6b30ed4b74e9e,"{'name': '成裕大药房', 'location': {'lat': 34.258283, 'lng': 108.939481}, 'address': '报恩寺街88号', 'street_id': '7db8805daae6b30ed4b74e9e', 'telephone': '(029)85200553', 'detail': 1, 'uid': '7db8805daae6b30ed4b74e9e', 'detail_info': {'tag': '医疗;药店', 'navi_location': {'lng': 108.93973870031, 'lat': 34.258455978277}, 'type': 'hospital', 'detail_url': 'http://api.map.baidu.com/place/detail?uid=7db8805daae6b30ed4b74e9e&output=html&source=placeapi_v2', 'price': '0', 'overall_rating': '5', 'image_num': '7', 'comment_num': '1'}}"
"{'name': '成裕大药房', 'location': {'lat': 34.258283, 'lng': 108.939481}, 'address': '报恩寺街88号', 'street_id': '7db8805daae6b30ed4b74e9e', 'telephone': '(029)85200553', 'detail': 1, 'uid': '7db8805daae6b30ed4b74e9e', 'detail_info': {'tag': '医疗;药店', 'navi_location': {'lng': 108.93973870031, 'lat': 34.258455978277}, 'type': 'hospital', 'detail_url': 'http://api.map.baidu.com/place/detail?uid=7db8805daae6b30ed4b74e9e&output=html&source=placeapi_v2', 'price': '0', 'overall_rating': '5', 'image_num': '7', 'comment_num': '1'}}"
书院门社区爱乐老年日间照料中心,108.93740949672562,34.25719699038723,4d57d934f9bb0f39223bf2a7,"{'name': '书院门社区爱乐老年日间照料中心', 'location': {'lat': 34.261801, 'lng': 108.948508}, 'address': '西安市碑林区南院门社区卫生服务中心', 'street_id': '4d57d934f9bb0f39223bf2a7', 'detail': 1, 'uid': '4d57d934f9bb0f39223bf2a7', 'detail_info': {'tag': '政府机构;福利机构', 'type': 'hospital', 'detail_url': 'http://api.map.baidu.com/place/detail?uid=4d57d934f9bb0f39223bf2a7&output=html&source=placeapi_v2', 'price': '0', 'overall_rating': '0', 'image_num': '1'}}"
"{'name': '书院门社区爱乐老年日间照料中心', 'location': {'lat': 34.261801, 'lng': 108.948508}, 'address': '西安市碑林区南院门社区卫生服务中心', 'street_id': '4d57d934f9bb0f39223bf2a7', 'detail': 1, 'uid': '4d57d934f9bb0f39223bf2a7', 'detail_info': {'tag': '政府机构;福利机构', 'type': 'hospital', 'detail_url': 'http://api.map.baidu.com/place/detail?uid=4d57d934f9bb0f39223bf2a7&output=html&source=placeapi_v2', 'price': '0', 'overall_rating': '0', 'image_num': '1'}}"
泰生医药连锁公司宝善堂店,108.93038240154091,34.26564849186214,034cc7cfd02cc0f30e3ddad4,"{'name': '泰生医药连锁公司宝善堂店', 'location': {'lat': 34.270134, 'lng': 108.941489}, 'address': '西仓南巷120号', 'street_id': '034cc7cfd02cc0f30e3ddad4', 'telephone': '(029)81333054', 'detail': 1, 'uid': '034cc7cfd02cc0f30e3ddad4', 'detail_info': {'tag': '医疗;药店', 'type': 'hospital', 'detail_url': 'http://api.map.baidu.com/place/detail?uid=034cc7cfd02cc0f30e3ddad4&output=html&source=placeapi_v2', 'price': '0', 'overall_rating': '4', 'image_num': '2', 'comment_num': '0'}}"
"{'name': '泰生医药连锁公司宝善堂店', 'location': {'lat': 34.270134, 'lng': 108.941489}, 'address': '西仓南巷120号', 'street_id': '034cc7cfd02cc0f30e3ddad4', 'telephone': '(029)81333054', 'detail': 1, 'uid': '034cc7cfd02cc0f30e3ddad4', 'detail_info': {'tag': '医疗;药店', 'type': 'hospital', 'detail_url': 'http://api.map.baidu.com/place/detail?uid=034cc7cfd02cc0f30e3ddad4&output=html&source=placeapi_v2', 'price': '0', 'overall_rating': '4', 'image_num': '2', 'comment_num': '0'}}"
西安莲湖孙峰诊所,108.92650546726627,34.2619603547937,01bad992b489769e00ff2daf,"{'name': '西安莲湖孙峰诊所', 'location': {'lat': 34.266375, 'lng': 108.937627}, 'address': '北院门街道大麦市街30号金街坊花园', 'street_id': '01bad992b489769e00ff2daf', 'detail': 1, 'uid': '01bad992b489769e00ff2daf', 'detail_info': {'tag': '医疗;诊所', 'type': 'hospital', 'detail_url': 'http://api.map.baidu.com/place/detail?uid=01bad992b489769e00ff2daf&output=html&source=placeapi_v2', 'price': '0', 'image_num': '1'}}"
"{'name': '西安莲湖孙峰诊所', 'location': {'lat': 34.266375, 'lng': 108.937627}, 'address': '北院门街道大麦市街30号金街坊花园', 'street_id': '01bad992b489769e00ff2daf', 'detail': 1, 'uid': '01bad992b489769e00ff2daf', 'detail_info': {'tag': '医疗;诊所', 'type': 'hospital', 'detail_url': 'http://api.map.baidu.com/place/detail?uid=01bad992b489769e00ff2daf&output=html&source=placeapi_v2', 'price': '0', 'image_num': '1'}}"
西安莲湖西军诊所,108.92298995615184,34.25967868959228,5508504d058f10cbc7f02504,"{'name': '西安莲湖西军诊所', 'location': {'lat': 34.264029, 'lng': 108.934125}, 'address': '菜坑岸59', 'street_id': '5508504d058f10cbc7f02504', 'telephone': '(029)88533041', 'detail': 1, 'uid': '5508504d058f10cbc7f02504', 'detail_info': {'tag': '医疗;诊所', 'navi_location': {'lng': 108.9341160058, 'lat': 34.263823731958}, 'type': 'hospital', 'detail_url': 'http://api.map.baidu.com/place/detail?uid=5508504d058f10cbc7f02504&output=html&source=placeapi_v2', 'image_num': '5', 'comment_num': '0'}}"
"{'name': '西安莲湖西军诊所', 'location': {'lat': 34.264029, 'lng': 108.934125}, 'address': '菜坑岸59', 'street_id': '5508504d058f10cbc7f02504', 'telephone': '(029)88533041', 'detail': 1, 'uid': '5508504d058f10cbc7f02504', 'detail_info': {'tag': '医疗;诊所', 'navi_location': {'lng': 108.9341160058, 'lat': 34.263823731958}, 'type': 'hospital', 'detail_url': 'http://api.map.baidu.com/place/detail?uid=5508504d058f10cbc7f02504&output=html&source=placeapi_v2', 'image_num': '5', 'comment_num': '0'}}"
西安市儿童医院-家属院2号楼,108.92370775285006,34.26343541870378,5441c5739992ff2a102935fd,"{'name': '西安市儿童医院-家属院2号楼', 'location': {'lat': 34.267799, 'lng': 108.934837}, 'address': '儿童医院家属院2号楼', 'street_id': '5441c5739992ff2a102935fd', 'detail': 1, 'uid': '5441c5739992ff2a102935fd', 'detail_info': {'tag': '房地产;住宅区', 'navi_location': {'lng': 108.93482324173, 'lat': 34.267879565922}, 'type': 'hospital', 'detail_url': 'http://api.map.baidu.com/place/detail?uid=5441c5739992ff2a102935fd&output=html&source=placeapi_v2', 'price': '0', 'overall_rating': '0', 'image_num': '2'}}"
"{'name': '西安市儿童医院-家属院2号楼', 'location': {'lat': 34.267799, 'lng': 108.934837}, 'address': '儿童医院家属院2号楼', 'street_id': '5441c5739992ff2a102935fd', 'detail': 1, 'uid': '5441c5739992ff2a102935fd', 'detail_info': {'tag': '房地产;住宅区', 'navi_location': {'lng': 108.93482324173, 'lat': 34.267879565922}, 'type': 'hospital', 'detail_url': 'http://api.map.baidu.com/place/detail?uid=5441c5739992ff2a102935fd&output=html&source=placeapi_v2', 'price': '0', 'overall_rating': '0', 'image_num': '2'}}"
西安碑林王洁诊所,108.93481275833045,34.25135748179889,a7641f87897eb849ad31e5c7,"{'name': '西安碑林王洁诊所', 'location': {'lat': 34.255919, 'lng': 108.945921}, 'address': '朱雀大街北段183', 'street_id': 'a7641f87897eb849ad31e5c7', 'telephone': '(029)88429605', 'detail': 1, 'uid': 'a7641f87897eb849ad31e5c7', 'detail_info': {'tag': '医疗;诊所', 'type': 'hospital', 'detail_url': 'http://api.map.baidu.com/place/detail?uid=a7641f87897eb849ad31e5c7&output=html&source=placeapi_v2', 'price': '0', 'image_num': '7'}}"
"{'name': '西安碑林王洁诊所', 'location': {'lat': 34.255919, 'lng': 108.945921}, 'address': '朱雀大街北段183', 'street_id': 'a7641f87897eb849ad31e5c7', 'telephone': '(029)88429605', 'detail': 1, 'uid': 'a7641f87897eb849ad31e5c7', 'detail_info': {'tag': '医疗;诊所', 'type': 'hospital', 'detail_url': 'http://api.map.baidu.com/place/detail?uid=a7641f87897eb849ad31e5c7&output=html&source=placeapi_v2', 'price': '0', 'image_num': '7'}}"
同一医药洒金桥店,108.92795100060931,34.26644554238778,f8487fdf8aa4946f45e27449,"{'name': '同一医药洒金桥店', 'location': {'lat': 34.270887, 'lng': 108.939064}, 'address': '陕西省西安市莲湖区洒金桥44号', 'street_id': 'f8487fdf8aa4946f45e27449', 'detail': 0, 'uid': 'f8487fdf8aa4946f45e27449', 'detail_info': {'tag': '医疗;药店'}}"
"{'name': '同一医药洒金桥店', 'location': {'lat': 34.270887, 'lng': 108.939064}, 'address': '陕西省西安市莲湖区洒金桥44号', 'street_id': 'f8487fdf8aa4946f45e27449', 'detail': 0, 'uid': 'f8487fdf8aa4946f45e27449', 'detail_info': {'tag': '医疗;药店'}}"
新时代健康产业集团国珍专营,108.93996813702748,34.25752676420112,51272470ea3d767df5b91659,"{'name': '新时代健康产业集团国珍专营', 'location': {'lat': 34.262169, 'lng': 108.951063}, 'address': '西木头市王子大厦9层905', 'street_id': '51272470ea3d767df5b91659', 'detail': 1, 'uid': '51272470ea3d767df5b91659', 'detail_info': {'tag': '购物', 'type': 'shopping', 'detail_url': 'http://api.map.baidu.com/place/detail?uid=51272470ea3d767df5b91659&output=html&source=placeapi_v2', 'price': '0'}}"
"{'name': '新时代健康产业集团国珍专营', 'location': {'lat': 34.262169, 'lng': 108.951063}, 'address': '西木头市王子大厦9层905', 'street_id': '51272470ea3d767df5b91659', 'detail': 1, 'uid': '51272470ea3d767df5b91659', 'detail_info': {'tag': '购物', 'type': 'shopping', 'detail_url': 'http://api.map.baidu.com/place/detail?uid=51272470ea3d767df5b91659&output=html&source=placeapi_v2', 'price': '0'}}"
康健医药五星街店,108.93045322198827,34.25751079666179,0cf7af0cd0df92089603196a,"{'name': '康健医药五星街店', 'location': {'lat': 34.261997, 'lng': 108.941567}, 'address': '五星街19号', 'street_id': '0cf7af0cd0df92089603196a', 'detail': 1, 'uid': '0cf7af0cd0df92089603196a', 'detail_info': {'tag': '医疗;药店', 'type': 'hospital', 'detail_url': 'http://api.map.baidu.com/place/detail?uid=0cf7af0cd0df92089603196a&output=html&source=placeapi_v2', 'price': '0', 'image_num': '6'}}"
"{'name': '康健医药五星街店', 'location': {'lat': 34.261997, 'lng': 108.941567}, 'address': '五星街19号', 'street_id': '0cf7af0cd0df92089603196a', 'detail': 1, 'uid': '0cf7af0cd0df92089603196a', 'detail_info': {'tag': '医疗;药店', 'type': 'hospital', 'detail_url': 'http://api.map.baidu.com/place/detail?uid=0cf7af0cd0df92089603196a&output=html&source=placeapi_v2', 'price': '0', 'image_num': '6'}}"
西安市第一医院南院门卫生服务中心医疗联合体,108.93781208100006,34.25715275770669,5eb3cf972491739c4e554789,"{'name': '西安市第一医院南院门卫生服务中心医疗联合体', 'location': {'lat': 34.261763, 'lng': 108.94891}, 'address': '南院门13号', 'street_id': '5eb3cf972491739c4e554789', 'detail': 1, 'uid': '5eb3cf972491739c4e554789', 'detail_info': {'tag': '医疗;其他', 'navi_location': {'lng': 108.94868695146, 'lat': 34.261738885035}, 'type': 'hospital', 'detail_url': 'http://api.map.baidu.com/place/detail?uid=5eb3cf972491739c4e554789&output=html&source=placeapi_v2', 'price': '0', 'image_num': '3'}}"
"{'name': '西安市第一医院南院门卫生服务中心医疗联合体', 'location': {'lat': 34.261763, 'lng': 108.94891}, 'address': '南院门13号', 'street_id': '5eb3cf972491739c4e554789', 'detail': 1, 'uid': '5eb3cf972491739c4e554789', 'detail_info': {'tag': '医疗;其他', 'navi_location': {'lng': 108.94868695146, 'lat': 34.261738885035}, 'type': 'hospital', 'detail_url': 'http://api.map.baidu.com/place/detail?uid=5eb3cf972491739c4e554789&output=html&source=placeapi_v2', 'price': '0', 'image_num': '3'}}"
普东医药店,108.92452684297966,34.25725891644818,2527be1e299d57aa4afc8d4a,"{'name': '普东医药店', 'location': {'lat': 34.261637, 'lng': 108.935659}, 'address': '西门里西梆子市街3号迎春大厦1层', 'street_id': '2527be1e299d57aa4afc8d4a', 'telephone': '(029)87622409', 'detail': 1, 'uid': '2527be1e299d57aa4afc8d4a', 'detail_info': {'tag': '医疗;药店', 'type': 'hospital', 'detail_url': 'http://api.map.baidu.com/place/detail?uid=2527be1e299d57aa4afc8d4a&output=html&source=placeapi_v2', 'price': '0', 'image_num': '7', 'comment_num': '0'}}"
"{'name': '普东医药店', 'location': {'lat': 34.261637, 'lng': 108.935659}, 'address': '西门里西梆子市街3号迎春大厦1层', 'street_id': '2527be1e299d57aa4afc8d4a', 'telephone': '(029)87622409', 'detail': 1, 'uid': '2527be1e299d57aa4afc8d4a', 'detail_info': {'tag': '医疗;药店', 'type': 'hospital', 'detail_url': 'http://api.map.baidu.com/place/detail?uid=2527be1e299d57aa4afc8d4a&output=html&source=placeapi_v2', 'price': '0', 'image_num': '7', 'comment_num': '0'}}"
西安莲湖艳丽诊所,108.92233225322845,34.26239935992929,a8689e7bbf73d013c8213d1c,"{'name': '西安莲湖艳丽诊所', 'location': {'lat': 34.266738, 'lng': 108.933467}, 'address': '西举院巷78号唐元宫1层', 'street_id': 'a8689e7bbf73d013c8213d1c', 'detail': 1, 'uid': 'a8689e7bbf73d013c8213d1c', 'detail_info': {'tag': '医疗;诊所', 'navi_location': {'lng': 108.93319966681, 'lat': 34.266733852997}, 'type': 'hospital', 'detail_url': 'http://api.map.baidu.com/place/detail?uid=a8689e7bbf73d013c8213d1c&output=html&source=placeapi_v2', 'price': '0', 'image_num': '5'}}"
"{'name': '西安莲湖艳丽诊所', 'location': {'lat': 34.266738, 'lng': 108.933467}, 'address': '西举院巷78号唐元宫1层', 'street_id': 'a8689e7bbf73d013c8213d1c', 'detail': 1, 'uid': 'a8689e7bbf73d013c8213d1c', 'detail_info': {'tag': '医疗;诊所', 'navi_location': {'lng': 108.93319966681, 'lat': 34.266733852997}, 'type': 'hospital', 'detail_url': 'http://api.map.baidu.com/place/detail?uid=a8689e7bbf73d013c8213d1c&output=html&source=placeapi_v2', 'price': '0', 'image_num': '5'}}"
馨堂,108.92800560174877,34.25696422202298,9bac20ac5d9e40c097ec8413,"{'name': '馨堂', 'location': {'lat': 34.261406, 'lng': 108.939127}, 'address': '五星街与甜水井街交叉口南50米', 'street_id': '9bac20ac5d9e40c097ec8413', 'detail': 1, 'uid': '9bac20ac5d9e40c097ec8413', 'detail_info': {'tag': '医疗;药店', 'detail_url': 'http://api.map.baidu.com/place/detail?uid=9bac20ac5d9e40c097ec8413&output=html&source=placeapi_v2'}}"
"{'name': '馨堂', 'location': {'lat': 34.261406, 'lng': 108.939127}, 'address': '五星街与甜水井街交叉口南50米', 'street_id': '9bac20ac5d9e40c097ec8413', 'detail': 1, 'uid': '9bac20ac5d9e40c097ec8413', 'detail_info': {'tag': '医疗;药店', 'detail_url': 'http://api.map.baidu.com/place/detail?uid=9bac20ac5d9e40c097ec8413&output=html&source=placeapi_v2'}}"
西安市第一医院住院部-药房,108.94010802311497,34.25611588676101,7de14a5439dc8bfd49fc8d6a,"{'name': '西安市第一医院住院部-药房', 'location': {'lat': 34.26076, 'lng': 108.951204}, 'address': '陕西省西安市碑林区南大街粉巷30号', 'street_id': '7de14a5439dc8bfd49fc8d6a', 'detail': 1, 'uid': '7de14a5439dc8bfd49fc8d6a', 'detail_info': {'tag': '医疗;药店', 'type': 'hospital', 'detail_url': 'http://api.map.baidu.com/place/detail?uid=7de14a5439dc8bfd49fc8d6a&output=html&source=placeapi_v2', 'price': '0', 'overall_rating': '0', 'image_num': '1'}}"
"{'name': '西安市第一医院住院部-药房', 'location': {'lat': 34.26076, 'lng': 108.951204},