[{"name": "\u9b54\u65b9KTV(\u5357\u5e7f\u6d4e\u8857\u5e97)", "location": {"lat": 34.264396, "lng": 108.945227}, "address": "\u7891\u6797\u533a\u5357\u5e7f\u6d4e\u885794\u53f7\u8363\u6c11\u56fd\u9645\u5927\u53a63\u697c", "street_id": "c8e8f6333a968e75ab0dd8fc", "telephone": "029-87627979", "detail": 1, "uid": "c8e8f6333a968e75ab0dd8fc", "detail_info": {"tag": "\u4f11\u95f2\u5a31\u4e50;ktv", "navi_location": {"lng": 108.94533455615, "lat": 34.264509068613}, "type": "life", "detail_url": "http://api.map.baidu.com/place/detail?uid=c8e8f6333a968e75ab0dd8fc&output=html&source=placeapi_v2", "price": "71", "overall_rating": "4", "image_num": "180", "comment_num": "1220"}}, {"name": "\u4e07\u7d2b\u5343\u7ea2\u5927\u821e\u5385", "location": {"lat": 34.263474, "lng": 108.929559}, "address": "\u9655\u897f\u7701\u897f\u5b89\u5e02\u83b2\u6e56\u533a\u73af\u57ce\u897f\u8def\u5357\u6bb572\u53f7", "street_id": "2c0bd6c54862a4b343ab9ac5", "detail": 1, "uid": "2c0bd6c54862a4b343ab9ac5", "detail_info": {"tag": "\u4f11\u95f2\u5a31\u4e50;\u6b4c\u821e\u5385", "type": "life", "detail_url": "http://api.map.baidu.com/place/detail?uid=2c0bd6c54862a4b343ab9ac5&output=html&source=placeapi_v2", "price": "53", "overall_rating": "3.0", "image_num": "8", "comment_num": "22"}}, {"name": "\u5feb\u4e50\u8feaKTV", "location": {"lat": 34.265851, "lng": 108.93999}, "address": "\u897f\u5927\u8857\u540c\u65b9\u5546\u57ce3\u5c42", "street_id": "ecb46c5771e19c9bab059d54", "detail": 1, "uid": "ecb46c5771e19c9bab059d54", "detail_info": {"tag": "\u4f11\u95f2\u5a31\u4e50;ktv", "navi_location": {"lng": 108.93993687998, "lat": 34.265686944943}, "type": "life", "detail_url": "http://api.map.baidu.com/place/detail?uid=ecb46c5771e19c9bab059d54&output=html&source=placeapi_v2", "price": "78", "overall_rating": "4.5", "image_num": "141", "comment_num": "680"}}, {"name": "\u6eda\u77f3\u65b0\u5929\u5730KTV(\u5357\u5927\u8857\u5e97)", "location": {"lat": 34.262026, "lng": 108.953929}, "address": "\u9655\u897f\u7701\u897f\u5b89\u5e02\u7891\u6797\u533a\u5357\u5927\u8857113\u53f7\u897f\u5b89\u767e\u8d27\u5927\u53a6(\u8fd1\u4e1c\u6728\u5934\u5e02)", "street_id": "881a28e7a6f68f5ef842b2f1", "detail": 1, "uid": "881a28e7a6f68f5ef842b2f1", "detail_info": {"tag": "\u4f11\u95f2\u5a31\u4e50;ktv", "navi_location": {"lng": 108.95389248367, "lat": 34.262311251327}, "type": "life", "detail_url": "http://api.map.baidu.com/place/detail?uid=881a28e7a6f68f5ef842b2f1&output=html&source=placeapi_v2", "price": "52", "overall_rating": "4.3", "image_num": "441", "comment_num": "2535"}}, {"name": "\u96c5\u56fe(\u8fde\u9501)\u6570\u5b57\u5f71\u9662", "location": {"lat": 34.26518, "lng": 108.949776}, "address": "\u897f\u5b89\u5e02\u7891\u6797\u533a\u897f\u5927\u8857\u4e2d\u73af\u5e7f\u573a7F", "street_id": "abfaf23f7304861f03ff2dc3", "telephone": "(029)87216226", "detail": 1, "uid": "abfaf23f7304861f03ff2dc3", "detail_info": {"tag": "\u4f11\u95f2\u5a31\u4e50;\u7535\u5f71\u9662", "navi_location": {"lng": 108.94982135053, "lat": 34.264577315456}, "type": "life", "detail_url": "http://api.map.baidu.com/place/detail?uid=abfaf23f7304861f03ff2dc3&output=html&source=placeapi_v2", "price": "28", "overall_rating": "3.7", "service_rating": "0", "environment_rating": "0", "comment_num": "844"}}, {"name": "\u5e03\u8fbe\u62c9\u517b\u751f\u4f1a\u6240", "location": {"lat": 34.256385, "lng": 108.945298}, "address": "\u6731\u96c0\u95e8\u5916\u897f\u5357\u89d2\u6731\u96c0\u5927\u8857180\u53f7\u5e03\u8fbe\u62c9(\u8fd1\u6731\u96c0\u95e8)", "street_id": "28e700f16e374018095cb32c", "detail": 1, "uid": "28e700f16e374018095cb32c", "detail_info": {"tag": "\u4f11\u95f2\u5a31\u4e50;\u6d17\u6d74\u6309\u6469", "navi_location": {"lng": 108.94549169493, "lat": 34.256218826672}, "type": "life", "detail_url": "http://api.map.baidu.com/place/detail?uid=28e700f16e374018095cb32c&output=html&source=placeapi_v2", "price": "87", "overall_rating": "4.2", "image_num": "360", "comment_num": "283"}}, {"name": "\u57ce\u6c60\u7f51\u5496", "location": {"lat": 34.264899, "lng": 108.943818}, "address": "\u9655\u897f\u7701\u897f\u5b89\u5e02\u7891\u6797\u533a\u897f\u5927\u8857\u4e0e\u5e7f\u6d4e\u8857\u5341\u5b57\u8363\u6c11\u56fd\u9645\u996d\u5e97\u8d1f\u4e00\u5c42\uff08\u897f\u5927\u8857\u767e\u76db\u659c\u5bf9\u9762\uff09", "street_id": "454cdcb82057e2532bd7abc9", "detail": 1, "uid": "454cdcb82057e2532bd7abc9", "detail_info": {"tag": "\u4f11\u95f2\u5a31\u4e50;\u7f51\u5427", "navi_location": {"lng": 108.94411954944, "lat": 34.265456816708}, "type": "life", "detail_url": "http://api.map.baidu.com/place/detail?uid=454cdcb82057e2532bd7abc9&output=html&source=placeapi_v2", "price": "22", "overall_rating": "4.0", "image_num": "74", "comment_num": "44"}}, {"name": "Home+Nature", "location": {"lat": 34.2564, "lng": 108.952145}, "address": "\u5357\u95e8\u57ce\u5899\u5357\u4fa7\u677e\u56edB1\u5c4217\u53f7", "street_id": "a635888d5fd2df8b38e4a675", "detail": 1, "uid": "a635888d5fd2df8b38e4a675", "detail_info": {"tag": "\u7f8e\u98df;\u9152\u5427", "type": "life", "detail_url": "http://api.map.baidu.com/place/detail?uid=a635888d5fd2df8b38e4a675&output=html&source=placeapi_v2", "price": "50", "overall_rating": "4.5", "image_num": "10", "comment_num": "176"}}, {"name": "\u91c7\u5409\u8db3\u6d74", "location": {"lat": 34.262728, "lng": 108.946661}, "address": "\u7891\u6797\u533a\u5357\u9662\u95e8\u9662\u95e8\u5df71\u53f7", "street_id": "dfc496b619e81ab68836eeba", "detail": 1, "uid": "dfc496b619e81ab68836eeba", "detail_info": {"tag": "\u4f11\u95f2\u5a31\u4e50;\u6d17\u6d74\u6309\u6469", "type": "life", "detail_url": "http://api.map.baidu.com/place/detail?uid=dfc496b619e81ab68836eeba&output=html&source=placeapi_v2", "price": "68", "overall_rating": "4.8", "image_num": "34", "comment_num": "32"}}, {"name": "\u91d1\u77f3", "location": {"lat": 34.261552, "lng": 108.953106}, "address": "\u7891\u6797\u533a\u5357\u5927\u885746\u53f7\u798f\u5eb7\u5927\u53a64\u697c", "street_id": "befdb29200ca0ff88715415b", "detail": 1, "uid": "befdb29200ca0ff88715415b", "detail_info": {"tag": "\u4f11\u95f2\u5a31\u4e50;\u6d17\u6d74\u6309\u6469", "type": "life", "detail_url": "http://api.map.baidu.com/place/detail?uid=befdb29200ca0ff88715415b&output=html&source=placeapi_v2", "price": "55", "overall_rating": "4.8", "image_num": "31", "comment_num": "18"}}, {"name": "\u96c5\u6b63\u63a8\u62ff", "location": {"lat": 34.262406, "lng": 108.952049}, "address": "\u5357\u9662\u95e8\u8857\u9053\u5357\u5927\u8857\u897f\u6728\u5934\u5e02\u5357\u65b9\u9152\u5e97\u5bf9\u9762\u516c\u5b89\u5c40\u5bb6\u5c5e\u966235\u53f71\u5c42", "street_id": "7e9a4bd0c5cece4088b98833", "detail": 1, "uid": "7e9a4bd0c5cece4088b98833", "detail_info": {"tag": "\u4f11\u95f2\u5a31\u4e50;\u6d17\u6d74\u6309\u6469", "type": "life", "detail_url": "http://api.map.baidu.com/place/detail?uid=7e9a4bd0c5cece4088b98833&output=html&source=placeapi_v2", "price": "58", "overall_rating": "4.9", "image_num": "71", "comment_num": "56"}}, {"name": "\u51e4\u90b8\u8db3\u9053", "location": {"lat": 34.258634, "lng": 108.940375}, "address": "\u9655\u897f\u7701\u897f\u5b89\u5e02\u83b2\u6e56\u533a\u542b\u5149\u95e8\u91cc\u62a5\u6069\u5bfa\u885723\u53f7(\u8fd1M\u9910\u5385)", "street_id": "de8138e1ad026643912ca347", "detail": 1, "uid": "de8138e1ad026643912ca347", "detail_info": {"tag": "\u4f11\u95f2\u5a31\u4e50;\u6d17\u6d74\u6309\u6469", "type": "life", "detail_url": "http://api.map.baidu.com/place/detail?uid=de8138e1ad026643912ca347&output=html&source=placeapi_v2", "price": "104", "overall_rating": "4.1", "image_num": "89", "comment_num": "367"}}, {"name": "\u5149\u811a\u677f\u8db3\u6d74\u4f11\u95f2\u4f1a\u6240", "location": {"lat": 34.256386, "lng": 108.930242}, "address": "\u897f\u5b89\u5e02\u7891\u6797\u533a\u592a\u767d\u5317\u8def279\u53f7", "street_id": "6fddd7fda3193f7c3517dcd4", "detail": 1, "uid": "6fddd7fda3193f7c3517dcd4", "detail_info": {"tag": "\u4f11\u95f2\u5a31\u4e50;\u6d17\u6d74\u6309\u6469", "type": "life", "detail_url": "http://api.map.baidu.com/place/detail?uid=6fddd7fda3193f7c3517dcd4&output=html&source=placeapi_v2", "price": "114.5", "overall_rating": "3.1", "image_num": "59", "comment_num": "179"}}, {"name": "\u8377\u98ce\u9601\u8db3\u9053(\u897f\u5173\u6b63\u8857)", "location": {"lat": 34.265473, "lng": 108.927607}, "address": "\u83b2\u6e56\u533a\u897f\u5173\u6b63\u885749\u53f7\u4e07\u666f\u9152\u5e972\u697c", "street_id": "3acefb94497210f1b2077dc5", "detail": 1, "uid": "3acefb94497210f1b2077dc5", "detail_info": {"tag": "\u4f11\u95f2\u5a31\u4e50;\u6d17\u6d74\u6309\u6469", "navi_location": {"lng": 108.92760715357, "lat": 34.26534296805}, "type": "life", "detail_url": "http://api.map.baidu.com/place/detail?uid=3acefb94497210f1b2077dc5&output=html&source=placeapi_v2", "price": "99", "overall_rating": "4.5", "image_num": "16", "comment_num": "43"}}, {"name": "\u5eb7\u4e50\u76f2\u4eba\u6309\u6469", "location": {"lat": 34.267117, "lng": 108.942863}, "address": "\u9655\u897f\u7701\u897f\u5b89\u5e02\u83b2\u6e56\u533a\u5927\u5b66\u4e60\u5df727", "street_id": "b852736a6fd16dc180a00cdd", "detail": 1, "uid": "b852736a6fd16dc180a00cdd", "detail_info": {"tag": "\u4f11\u95f2\u5a31\u4e50;\u6d17\u6d74\u6309\u6469", "type": "life", "detail_url": "http://api.map.baidu.com/place/detail?uid=b852736a6fd16dc180a00cdd&output=html&source=placeapi_v2", "price": "113", "overall_rating": "4.3", "image_num": "31", "comment_num": "23"}}, {"name": "g\u65f6\u4ee3\u7f51\u76df", "location": {"lat": 34.26587, "lng": 108.94254}, "address": "\u897f\u5927\u8857\u6731\u96c0\u5927\u53a63,4\u697c", "street_id": "530da1f56739e375364aae40", "telephone": "13572264008", "detail": 1, "uid": "530da1f56739e375364aae40", "detail_info": {"tag": "\u4f11\u95f2\u5a31\u4e50;\u7f51\u5427", "type": "life", "detail_url": "http://api.map.baidu.com/place/detail?uid=530da1f56739e375364aae40&output=html&source=placeapi_v2", "price": "10", "overall_rating": "3.1", "image_num": "6", "comment_num": "9"}}, {"name": "\u7965\u4e91\u9601\u4f11\u95f2\u4f1a\u6240", "location": {"lat": 34.262735, "lng": 108.927769}, "address": "\u516b\u5bb6\u8def6\u53f7\u9644\u8fd1", "street_id": "22e11407374a53c9d5b74e3b", "detail": 1, "uid": "22e11407374a53c9d5b74e3b", "detail_info": {"tag": "\u4f11\u95f2\u5a31\u4e50;\u6d17\u6d74\u6309\u6469", "type": "life", "detail_url": "http://api.map.baidu.com/place/detail?uid=22e11407374a53c9d5b74e3b&output=html&source=placeapi_v2", "price": "98", "overall_rating": "4.0", "image_num": "6", "comment_num": "1"}}, {"name": "\u7f51\u9c7c\u7f51\u5496(\u65b0\u4e16\u754c\u5e97)", "location": {"lat": 34.269879, "lng": 108.952925}, "address": "\u5317\u5927\u885788\u53f7\u65b0\u4e16\u754c\u767e\u8d27\u4e09\u697c\uff08\u5b8f\u5e9c\u5609\u4f1a\u5e7f\u573a\u65c1\uff09", "street_id": "29a5c502eadbc23c58bbbc5f", "detail": 1, "uid": "29a5c502eadbc23c58bbbc5f", "detail_info": {"tag": "\u4f11\u95f2\u5a31\u4e50;\u7f51\u5427", "navi_location": {"lng": 108.9524850698, "lat": 34.269571620598}, "indoor_floor": "F2", "type": "life", "detail_url": "http://api.map.baidu.com/place/detail?uid=29a5c502eadbc23c58bbbc5f&output=html&source=placeapi_v2", "overall_rating": "2.5", "image_num": "8", "comment_num": "16"}}, {"name": "\u897f\u53c8\u8bf4\u7f51\u5496", "location": {"lat": 34.26997, "lng": 108.928778}, "address": "\u897f\u5b89\u5e02\u83b2\u6e56\u533a", "street_id": "42a34893d523c36beaf8534f", "detail": 1, "uid": "56a2369209666c7ec356ac28", "detail_info": {"tag": "\u4f11\u95f2\u5a31\u4e50;\u7f51\u5427", "type": "life", "detail_url": "http://api.map.baidu.com/place/detail?uid=56a2369209666c7ec356ac28&output=html&source=placeapi_v2", "overall_rating": "3.6", "image_num": "24", "comment_num": "20"}}, {"name": "\u5bcc\u4e3d\u5bab", "location": {"lat": 34.259109, "lng": 108.939252}, "address": "\u751c\u6c34\u4e95\u885729\u53f7B1\u697c", "street_id": "22e11407d269a8add5b74e70", "detail": 1, "uid": "22e11407d269a8add5b74e70", "detail_info": {"tag": "\u4f11\u95f2\u5a31\u4e50;\u6d17\u6d74\u6309\u6469", "navi_location": {"lng": 108.93899236743, "lat": 34.2590758008}, "type": "life", "detail_url": "http://api.map.baidu.com/place/detail?uid=22e11407d269a8add5b74e70&output=html&source=placeapi_v2", "price": "169", "overall_rating": "5", "image_num": "21", "comment_num": "5"}}, {"name": "\u6c34\u6728\u548c\u8db3\u7597\u4fdd\u5065\u4f1a\u6240(\u897f\u5173\u6b63\u8857\u5e97)", "location": {"lat": 34.264917, "lng": 108.926607}, "address": "\u897f\u5173\u6b63\u885768\u53f7(\u8fd1\u7b2c\u4e94\u4eba\u6c11\u533b\u9662)", "street_id": "101bc61b42f295bac42ba1c1", "detail": 1, "uid": "101bc61b42f295bac42ba1c1", "detail_info": {"tag": "\u4f11\u95f2\u5a31\u4e50;\u6d17\u6d74\u6309\u6469", "navi_location": {"lng": 108.92647754248, "lat": 34.265029794068}, "type": "life", "detail_url": "http://api.map.baidu.com/place/detail?uid=101bc61b42f295bac42ba1c1&output=html&source=placeapi_v2", "price": "199", "overall_rating": "4.9", "image_num": "437", "comment_num": "0"}}, {"name": "\u6307\u95f4\u8db3\u9053", "location": {"lat": 34.265309, "lng": 108.943916}, "address": "\u7891\u6797\u533a\u897f\u5927\u8857126\u53f7\u8363\u6c11\u56fd\u9645\u996d\u5e97\u4ed8\u4e00\u5c42(\u767e\u76db\u8d2d\u7269\u4e2d\u5fc3)", "street_id": "bf0ccb88a63f3afbb6f42f0d", "detail": 1, "uid": "bf0ccb88a63f3afbb6f42f0d", "detail_info": {"tag": "\u4f11\u95f2\u5a31\u4e50;\u6d17\u6d74\u6309\u6469", "navi_location": {"lng": 108.94407676404, "lat": 34.265455139218}, "type": "life", "detail_url": "http://api.map.baidu.com/place/detail?uid=bf0ccb88a63f3afbb6f42f0d&output=html&source=placeapi_v2", "overall_rating": "4.5", "image_num": "27", "comment_num": "145"}}, {"name": "\u5c0f\u548c\u56ed(\u897f\u95e8\u5e97)", "location": {"lat": 34.266133, "lng": 108.933461}, "address": "\u897f\u5927\u8857369\u53f7\u5510\u5143\u5bab", "street_id": "74f8f8f295613321c9c3db59", "detail": 1, "uid": "74f8f8f295613321c9c3db59", "detail_info": {"tag": "\u7f8e\u98df;\u4e2d\u9910\u5385", "type": "life", "detail_url": "http://api.map.baidu.com/place/detail?uid=74f8f8f295613321c9c3db59&output=html&source=placeapi_v2", "price": "151", "overall_rating": "4.8", "image_num": "2", "groupon_num": "1", "comment_num": "12"}}, {"name": "\u50bb\u6839\u6cf0\u56fd\u9c7c\u7597", "location": {"lat": 34.269254, "lng": 108.946975}, "address": "\u897f\u7f8a\u5e0294\u53f7\u5174\u65fa\u62db\u5f85\u6240\u9694\u58c1", "street_id": "c181da0622f5de9f81288a63", "detail": 1, "uid": "c181da0622f5de9f81288a63", "detail_info": {"tag": "\u4f11\u95f2\u5a31\u4e50;\u6d17\u6d74\u6309\u6469", "type": "life", "detail_url": "http://api.map.baidu.com/place/detail?uid=c181da0622f5de9f81288a63&output=html&source=placeapi_v2", "price": "24", "overall_rating": "4.3", "image_num": "43", "comment_num": "16"}}, {"name": "\u8001\u57ce\u5370\u8c61\u8db3\u9053\u4f1a\u9986", "location": {"lat": 34.263632, "lng": 108.949583}, "address": "\u7891\u6797\u533a\u897f\u5927\u885748\u53f7\u94f6\u6cf0\u4e2d\u73af\u5e7f\u573a\u540e(\u8fd1\u9648\u516c\u9986)", "street_id": "75da6e8319ff1c1a88f15dc8", "detail": 1, "uid": "75da6e8319ff1c1a88f15dc8", "detail_info": {"tag": "\u4f11\u95f2\u5a31\u4e50;\u6d17\u6d74\u6309\u6469", "navi_location": {"lng": 108.94986214438, "lat": 34.26362136768}, "type": "life", "detail_url": "http://api.map.baidu.com/place/detail?uid=75da6e8319ff1c1a88f15dc8&output=html&source=placeapi_v2", "price": "300", "overall_rating": "3.3", "image_num": "45", "comment_num": "44"}}, {"name": "\u8717\u725b\u5411\u4e0a\u684c\u6e38\u5427", "location": {"lat": 34.269442, "lng": 108.95242}, "address": "\u5317\u5927\u8857\u5b8f\u5e9c\u5609\u4f1a\u5e7f\u573aB\u5ea710\u5c4210004\u5ba4", "street_id": "0e62856ab8f9056f9c09f78b", "detail": 1, "uid": "0e62856ab8f9056f9c09f78b", "detail_info": {"tag": "\u4f11\u95f2\u5a31\u4e50;\u6e38\u620f\u573a\u6240", "type": "life", "detail_url": "http://api.map.baidu.com/place/detail?uid=0e62856ab8f9056f9c09f78b&output=html&source=placeapi_v2", "price": "20", "overall_rating": "4.6", "image_num": "43", "comment_num": "56"}}, {"name": "\u6d77\u798f\u5730\u56fd\u9645\u4f1a\u6240", "location": {"lat": 34.264944, "lng": 108.92711}, "address": "\u897f\u5173\u6b63\u885752", "street_id": "11212bfa4a81ba78b75f1e60", "detail": 1, "uid": "11212bfa4a81ba78b75f1e60", "detail_info": {"tag": "\u4f11\u95f2\u5a31\u4e50;\u6b4c\u821e\u5385", "type": "life", "detail_url": "http://api.map.baidu.com/place/detail?uid=11212bfa4a81ba78b75f1e60&output=html&source=placeapi_v2", "price": "100.0", "overall_rating": "4", "image_num": "9", "comment_num": "2"}}, {"name": "\u535a\u6cf0\u6d17\u6d74\u4f1a\u6240", "location": {"lat": 34.263205, "lng": 108.945207}, "address": "\u5357\u5e7f\u6d4e\u88576\u53f7\u535a\u6cf0\u5927\u9152\u5e97B1\u697c(\u767e\u76db\u5bf9\u9762)", "street_id": "3ae656654f5dd2062bb97c0c", "detail": 1, "uid": "3ae656654f5dd2062bb97c0c", "detail_info": {"tag": "\u4f11\u95f2\u5a31\u4e50;\u6d17\u6d74\u6309\u6469", "type": "life", "detail_url": "http://api.map.baidu.com/place/detail?uid=3ae656654f5dd2062bb97c0c&output=html&source=placeapi_v2", "overall_rating": "4.3", "image_num": "4", "comment_num": "6"}}, {"name": "\u5f00\u5b9d\u6309\u6469", "location": {"lat": 34.266957, "lng": 108.934617}, "address": "\u897f\u4e3e\u9662\u5df772\u53f7(\u897f\u5b89\u513f\u7ae5\u533b\u9662\u5357\u95e8\u5411\u4e1c80\u7c73\u8def\u5357)", "street_id": "a9d20f2846af9c542a02e13b", "telephone": "13572054266", "detail": 1, "uid": "a9d20f2846af9c542a02e13b", "detail_info": {"tag": "\u4f11\u95f2\u5a31\u4e50;\u6d17\u6d74\u6309\u6469", "type": "life", "detail_url": "http://api.map.baidu.com/place/detail?uid=a9d20f2846af9c542a02e13b&output=html&source=placeapi_v2", "price": "60", "overall_rating": "4.4", "image_num": "39", "comment_num": "27"}}, {"name": "\u90d1\u8fdc\u5143\u4e13\u4e1a\u4fee\u811a\u623f(\u67f4\u5bb6\u4ec0\u5b57\u5206\u5e97)", "location": {"lat": 34.262454, "lng": 108.936354}, "address": "\u9655\u897f\u7701\u897f\u5b89\u5e02\u83b2\u6e56\u533a\u67f4\u5bb6\u4ec0\u5b5750", "street_id": "9b06bea5282d11674c3a59bf", "detail": 1, "uid": "9b06bea5282d11674c3a59bf", "detail_info": {"tag": "\u4f11\u95f2\u5a31\u4e50;\u6d17\u6d74\u6309\u6469", "type": "life", "detail_url": "http://api.map.baidu.com/place/detail?uid=9b06bea5282d11674c3a59bf&output=html&source=placeapi_v2", "price": "32.5", "overall_rating": "3.4", "image_num": "4", "comment_num": "6"}}, {"name": "\u5927\u51b0\u7684\u5c0f\u5c4b", "location": {"lat": 34.258389, "lng": 108.951891}, "address": "\u9655\u897f\u7701\u897f\u5b89\u5e02\u7891\u6797\u533a\u6e58\u5b50\u5e99\u885722\u53f7", "detail": 1, "uid": "fa7dd85a3246a3e4f5c59cb1", "detail_info": {"tag": "\u7f8e\u98df;\u9152\u5427", "type": "life", "detail_url": "http://api.map.baidu.com/place/detail?uid=fa7dd85a3246a3e4f5c59cb1&output=html&source=placeapi_v2", "overall_rating": "3", "image_num": "2", "comment_num": "2"}}, {"name": "\u767e\u8349\u5802\u8db3\u7597\u4e2d\u5fc3(\u6731\u96c0\u95e8\u5e97)", "location": {"lat": 34.259516, "lng": 108.945142}, "address": ":\u9655\u897f\u7701\u897f\u5b89\u5e02\u7891\u6797\u533a\u5357\u5e7f\u6d4e\u885730\u67e0\u6aac\u9152\u5e97\u6731\u96c0\u5e972\u697c", "street_id": "4d9a5738b035716e8c55ece2", "detail": 1, "uid": "3deba14f6b13af0bd618b72e", "detail_info": {"tag": "\u4f11\u95f2\u5a31\u4e50;\u6d17\u6d74\u6309\u6469", "navi_location": {"lng": 108.94533039789, "lat": 34.259587438125}, "type": "life", "detail_url": "http://api.map.baidu.com/place/detail?uid=3deba14f6b13af0bd618b72e&output=html&source=placeapi_v2", "price": "159", "overall_rating": "3.3", "image_num": "149", "comment_num": "0"}}, {"name": "\u8001\u5b57\u53f7\u667a\u8d85\u76f2\u4eba\u6309\u6469\u4e2d\u5fc3", "location": {"lat": 34.267207, "lng": 108.937506}, "address": "\u897f\u5927\u8857\u4e1c\u4e3e\u9662\u5df738\u53f7", "street_id": "ae9f185bdefe0c93badf8fe7", "detail": 1, "uid": "ae9f185bdefe0c93badf8fe7", "detail_info": {"tag": "\u4f11\u95f2\u5a31\u4e50;\u6d17\u6d74\u6309\u6469", "type": "life", "detail_url": "http://api.map.baidu.com/place/detail?uid=ae9f185bdefe0c93badf8fe7&output=html&source=placeapi_v2", "price": "17", "overall_rating": "5", "image_num": "13", "comment_num": "4"}}, {"name": "\u6e05\u89c1\u6d17\u6d74", "location": {"lat": 34.261934, "lng": 108.946333}, "address": "\u7891\u6797\u533a\u5357\u9662\u95e853\u53f7\uff08\u9760\u8fd1\u7c89\u5df7\u597d\u4e50\u8feaKTV\uff09", "street_id": "0adce3e2803cfa6180a00c03", "detail": 1, "uid": "0adce3e2803cfa6180a00c03", "detail_info": {"tag": "\u4f11\u95f2\u5a31\u4e50;\u6d17\u6d74\u6309\u6469", "navi_location": {"lng": 108.94631262759, "lat": 34.261766715694}, "type": "life", "detail_url": "http://api.map.baidu.com/place/detail?uid=0adce3e2803cfa6180a00c03&output=html&source=placeapi_v2", "price": "76", "overall_rating": "3", "image_num": "63", "comment_num": "0"}}, {"name": "\u949f\u9f13\u697c\u5e7f\u573a", "location": {"lat": 34.266169, "lng": 108.951693}, "address": "\u9655\u897f\u7701\u897f\u5b89\u5e02\u83b2\u6e56\u533a\u5317\u9662\u95e8\u8857\u9053\u897f\u5927\u88571\u53f7", "street_id": "d6df91c16cc0c86af7b9164d", "detail": 1, "uid": "d6df91c16cc0c86af7b9164d", "detail_info": {"tag": "\u4f11\u95f2\u5a31\u4e50;\u4f11\u95f2\u5e7f\u573a", "navi_location": {"lng": 108.94995719049, "lat": 34.266173614502}, "type": "life", "detail_url": "http://api.map.baidu.com/place/detail?uid=d6df91c16cc0c86af7b9164d&output=html&source=placeapi_v2", "overall_rating": "4.5", "image_num": "9", "comment_num": "7"}}, {"name": "\u5fa1\u9526\u8f69\u8db3\u9053", "location": {"lat": 34.26556, "lng": 108.92774}, "address": "\u897f\u5173\u8857\u9053\u897f\u5173\u6b63\u885749\u53f7(\u4e07\u666f\u5546\u52a1\u9152\u5e97\u4e8c\u697c)", "street_id": "7b4d5dbc51222a67871541fe", "detail": 1, "uid": "7b4d5dbc51222a67871541fe", "detail_info": {"tag": "\u4f11\u95f2\u5a31\u4e50;\u6d17\u6d74\u6309\u6469", "navi_location": {"lng": 108.92770744579, "lat": 34.265294318764}, "type": "life", "detail_url": "http://api.map.baidu.com/place/detail?uid=7b4d5dbc51222a67871541fe&output=html&source=placeapi_v2", "price": "128", "overall_rating": "4.3", "image_num": "68", "comment_num": "19"}}, {"name": "\u674e\u6c0f\u63a8\u62ff(\u6731\u96c0\u5e97)", "location": {"lat": 34.256801, "lng": 108.944278}, "address": "\u6731\u96c0\u95e8\u5916\u897f\u5357\u89d2\u4e3d\u8c6a\u9152\u5e97\u4e00\u5c42", "street_id": "2c0bd6c51a5bf2a943ab9ad4", "detail": 1, "uid": "2c0bd6c51a5bf2a943ab9ad4", "detail_info": {"tag": "\u4f11\u95f2\u5a31\u4e50;\u6d17\u6d74\u6309\u6469", "type": "life", "detail_url": "http://api.map.baidu.com/place/detail?uid=2c0bd6c51a5bf2a943ab9ad4&output=html&source=placeapi_v2", "price": "50.0", "overall_rating": "3.8", "image_num": "15"}}, {"name": "\u534e\u5eb7\u63a8\u62ff", "location": {"lat": 34.255129, "lng": 108.945932}, "address": "\u897f\u5b89\u5e02\u7891\u6797\u533a\u6731\u96c0\u5927\u8857\u5317\u6bb5153\u53f7", "street_id": "e44b312acf7d58e9931fc9e4", "detail": 1, "uid": "e44b312acf7d58e9931fc9e4", "detail_info": {"tag": "\u4f11\u95f2\u5a31\u4e50;\u6d17\u6d74\u6309\u6469", "navi_location": {"lng": 108.9457573607, "lat": 34.255127258745}, "type": "life", "detail_url": "http://api.map.baidu.com/place/detail?uid=e44b312acf7d58e9931fc9e4&output=html&source=placeapi_v2", "price": "62", "overall_rating": "5", "image_num": "33", "comment_num": "2"}}, {"name": "\u706b\u51e4\u51f0", "location": {"lat": 34.265663, "lng": 108.942609}, "address": "\u897f\u5b89\u5e02\u83b2\u6e56\u533a\u897f\u5927\u8857139\u53f7", "street_id": "a0ddd3bdc5d5bf75f32d8356", "detail": 1, "uid": "a0ddd3bdc5d5bf75f32d8356", "detail_info": {"tag": "\u4f11\u95f2\u5a31\u4e50;\u6b4c\u821e\u5385", "type": "life", "detail_url": "http://api.map.baidu.com/place/detail?uid=a0ddd3bdc5d5bf75f32d8356&output=html&source=placeapi_v2", "image_num": "2", "comment_num": "1"}}, {"name": "\u4e1c\u6765\u7f51\u5496", "location": {"lat": 34.262492, "lng": 108.94685}, "address": "\u9655\u897f\u7701\u897f\u5b89\u5e02\u7891\u6797\u533a\u9662\u95e8\u5df77\u53f7", "street_id": "7959cc7b0011d89c80a00cb0", "detail": 1, "uid": "7959cc7b0011d89c80a00cb0", "detail_info": {"tag": "\u4f11\u95f2\u5a31\u4e50;\u7f51\u5427", "type": "life", "detail_url": "http://api.map.baidu.com/place/detail?uid=7959cc7b0011d89c80a00cb0&output=html&source=placeapi_v2", "overall_rating": "5", "image_num": "1", "comment_num": "2"}}, {"name": "\u718a\u4e0e\u871c\u7cd6DIY\u7ffb\u7cd6\u86cb\u7cd5\uff08\u6e05\u771f\uff09", "location": {"lat": 34.268378, "lng": 108.950263}, "address": "\u5317\u9662\u95e8111\u53f7\u8d3e\u4e09\u704c\u6c64\u5305\u9694\u58c1\u9662\u5185", "street_id": "d5eaa1c890d647f2f6b916f5", "telephone": "18165317681", "detail": 1, "uid": "d5eaa1c890d647f2f6b916f5", "detail_info": {"tag": "\u7f8e\u98df;\u86cb\u7cd5\u751c\u54c1\u5e97", "type": "life", "detail_url": "http://api.map.baidu.com/place/detail?uid=d5eaa1c890d647f2f6b916f5&output=html&source=placeapi_v2", "overall_rating": "4.7", "image_num": "79", "comment_num": "11"}}, {"name": "\u7f8e\u4e3d\u4eba\u751f\u5927\u821e\u5385", "location": {"lat": 34.264336, "lng": 108.928424}, "address": "\u897f\u5b89\u5e02\u83b2\u6e56\u533a\u897f\u5173\u6b63\u885748\u53f7", "street_id": "28b1b48ff37ebb13d1f49ee3", "detail": 1, "uid": "28b1b48ff37ebb13d1f49ee3", "detail_info": {"tag": "\u4f11\u95f2\u5a31\u4e50;\u6b4c\u821e\u5385", "navi_location": {"lng": 108.92826561151, "lat": 34.264366644438}, "type": "life", "detail_url": "http://api.map.baidu.com/place/detail?uid=28b1b48ff37ebb13d1f49ee3&output=html&source=placeapi_v2", "overall_rating": "5", "image_num": "3", "comment_num": "2"}}, {"name": "\u5929\u9601ktv", "location": {"lat": 34.256083, "lng": 108.929615}, "address": "\u897f\u5b89\u5e02\u7891\u6797\u533a\u4e30\u5e86\u8def2A\u53f7\u6c34\u53f8\u5341\u5b57\u897f\u5357\u89d2\u8fce\u5bbe\u5e7f\u573a4-5\u697c", "street_id": "0fa34d070d2ddebe43024578", "detail": 1, "uid": "0fa34d070d2ddebe43024578", "detail_info": {"tag": "\u4f11\u95f2\u5a31\u4e50;ktv", "type": "life", "detail_url": "http://api.map.baidu.com/place/detail?uid=0fa34d070d2ddebe43024578&output=html&source=placeapi_v2", "overall_rating": "5", "image_num": "7", "comment_num": "2"}}, {"name": "\u661f\u7f8e\u56fd\u9645\u5f71\u57ce(\u897f\u5927\u8857\u5e97)", "location": {"lat": 34.26528, "lng": 108.94101}, "address": "\u897f\u5b89\u5e02\u83b2\u6e56\u533a\u897f\u5927\u8857\u6865\u6893\u53e3170\u53f7\u6b63\u9633\u540d\u5bb6\u56fd\u9645\u5bb6\u5c45\u5e7f\u573a5\u697c", "street_id": "d5464cf82b5b774efca778e6", "detail": 1, "uid": "d5464cf82b5b774efca778e6", "detail_info": {"tag": "\u4f11\u95f2\u5a31\u4e50;\u7535\u5f71\u9662", "type": "life", "detail_url": "http://api.map.baidu.com/place/detail?uid=d5464cf82b5b774efca778e6&output=html&source=placeapi_v2", "price": "32", "overall_rating": "3.9", "service_rating": "0", "environment_rating": "0", "comment_num": "1656"}}, {"name": "\u897f\u5b89\u5e02\u7891\u6797\u533a\u4ec1\u548c\u821e\u5385", "location": {"lat": 34.264971, "lng": 108.95006}, "address": "\u7af9\u7b06\u5e0269\u53f7\u65c1", "street_id": "38e48037ebc2bd50363a7184", "detail": 1, "uid": "38e48037ebc2bd50363a7184", "detail_info": {"tag": "\u4f11\u95f2\u5a31\u4e50;\u6b4c\u821e\u5385", "navi_location": {"lng": 108.94991467549, "lat": 34.264868451665}, "type": "life", "detail_url": "http://api.map.baidu.com/place/detail?uid=38e48037ebc2bd50363a7184&output=html&source=placeapi_v2", "overall_rating": "3", "image_num": "10", "comment_num": "2"}}, {"name": "\u795e\u6e38\u7f51\u7edc\u7535\u7ade", "location": {"lat": 34.258318, "lng": 108.942695}, "address": "\u5c0f\u5357\u95e8\u91cc\u4fdd\u5409\u5df72\u53f73\u697c(\u8001\u5170\u5bb6\u5c0f\u5357\u95e8\u5e972\u697c)", "street_id": "825b285f2fc02d5325d2bba9", "detail": 1, "uid": "d252f1a3437d71611c389477", "detail_info": {"tag": "\u4f11\u95f2\u5a31\u4e50;\u7f51\u5427", "navi_location": {"lng": 108.94269185902, "lat": 34.258186974142}, "type": "life", "detail_url": "http://api.map.baidu.com/place/detail?uid=d252f1a3437d71611c389477&output=html&source=placeapi_v2", "overall_rating": "2.7", "image_num": "9", "comment_num": "5"}}, {"name": "\u8d39\u52a0\u7f57\u5a5a\u7eb1\u5f71\u57ce", "location": {"lat": 34.259988, "lng": 108.953795}, "address": "\u5357\u5927\u88573\u53f7\u897f\u5317\u6c34\u7535\u535a\u6c34\u5546\u52a1\u5927\u53a6\u897f1\u5c42\u5e95\u5546", "street_id": "82be39718121d6facf06a488", "telephone": "(029)87268618,4000308610", "detail": 1, "uid": "e7cda6e27122cfb454bfffd8", "detail_info": {"tag": "\u4f11\u95f2\u5a31\u4e50;\u7535\u5f71\u9662", "navi_location": {"lng": 108.95354501731, "lat": 34.259852285691}, "type": "life", "detail_url": "http://api.map.baidu.com/place/detail?uid=e7cda6e27122cfb454bfffd8&output=html&source=placeapi_v2", "overall_rating": "2", "image_num": "30", "comment_num": "7"}}, {"name": "\u9526\u7ee3\u6cc9", "location": {"lat": 34.260824, "lng": 108.945686}, "address": "\u7891\u6797\u533a\u4e8c\u73af\u8def\u6cbf\u7ebf\u5546\u4e1a\u7ecf\u6d4e\u5e26\u5357\u5e7f\u6d4e\u885749\u53f7", "street_id": "73826d1caea6c8ce4557262c", "detail": 1, "uid": "73826d1caea6c8ce4557262c", "detail_info": {"tag": "\u4f11\u95f2\u5a31\u4e50;\u6d17\u6d74\u6309\u6469", "navi_location": {"lng": 108.94560594143, "lat": 34.260772323117}, "type": "life", "detail_url": "http://api.map.baidu.com/place/detail?uid=73826d1caea6c8ce4557262c&output=html&source=placeapi_v2", "overall_rating": "3.0", "image_num": "7", "comment_num": "1"}}, {"name": "\u7389\u7af9\u5802\u8db3\u9053", "location": {"lat": 34.265539, "lng": 108.927323}, "address": "\u897f\u95e8\u5916\u897f\u5173\u6b63\u8857\u7ca5\u738b\u5e9c\u4e09\u697c", "street_id": "93cb0fa72bb6aaccf32d838c", "detail": 1, "uid": "93cb0fa72bb6aaccf32d838c", "detail_info": {"tag": "\u4f11\u95f2\u5a31\u4e50;\u6d17\u6d74\u6309\u6469", "type": "life", "detail_url": "http://api.map.baidu.com/place/detail?uid=93cb0fa72bb6aaccf32d838c&output=html&source=placeapi_v2", "overall_rating": "4", "image_num": "27", "comment_num": "5"}}, {"name": "\u661f\u5c9b\u7f51\u5496\u79c1\u4eba\u5f71\u9662", "location": {"lat": 34.263996, "lng": 108.945913}, "address": "\u9655\u897f\u7701\u897f\u5b89\u5e02\u7891\u6797\u533a\u897f\u5927\u8857\u4e0e\u5357\u5e7f\u6d4e\u8857\u5341\u5b57\u4e1c\u5357\u89d2\u5357\u5e7f\u6d4e\u8857\u5c0f\u533a\u531720\u7c73", "street_id": "1aa0f09d39ce01df82a12e61", "detail": 1, "uid": "1aa0f09d39ce01df82a12e61", "detail_info": {"tag": "\u4f11\u95f2\u5a31\u4e50", "type": "life", "detail_url": "http://api.map.baidu.com/place/detail?uid=1aa0f09d39ce01df82a12e61&output=html&source=placeapi_v2", "overall_rating": "3.9", "image_num": "17", "comment_num": "10"}}, {"name": "\u5eb7\u6865\u5927\u821e\u5385", "location": {"lat": 34.263061, "lng": 108.92941}, "address": "\u516b\u4f73\u8def1\u53f7", "street_id": "af1ae56b3a750c6f4207c105", "detail": 1, "uid": "af1ae56b3a750c6f4207c105", "detail_info": {"tag": "\u4f11\u95f2\u5a31\u4e50;\u6b4c\u821e\u5385", "navi_location": {"lng": 108.92941042283, "lat": 34.262925778877}, "type": "life", "detail_url": "http://api.map.baidu.com/place/detail?uid=af1ae56b3a750c6f4207c105&output=html&source=placeapi_v2", "overall_rating": "2.3", "image_num": "6", "comment_num": "4"}}, {"name": "\u61c2\u5473\u8336\u94fa\u5b50", "location": {"lat": 34.263546, "lng": 108.94051}, "address": "\u6881\u5bb6\u724c\u697c26\u53f7", "street_id": "4124094343457da68bf15df4", "detail": 1, "uid": "4124094343457da68bf15df4", "detail_info": {"tag": "\u7f8e\u98df;\u8336\u5ea7", "navi_location": {"lng": 108.94011760378, "lat": 34.263709687816}, "type": "life", "detail_url": "http://api.map.baidu.com/place/detail?uid=4124094343457da68bf15df4&output=html&source=placeapi_v2", "overall_rating": "4", "image_num": "20", "comment_num": "2"}}, {"name": "\u8317\u4ec1\u9601\u8336\u82d1\u68cb\u724c", "location": {"lat": 34.262718, "lng": 108.927311}, "address": "\u83b2\u6e56\u533a\u897f\u95e8\u5916\u516b\u4f73\u5df76\u53f7(\u51fa\u79df\u8f66\u7ba1\u7406\u5904\u4e1c\u4fa7)", "street_id": "4cf8d24ecf4ab0999cf7793e", "telephone": "15339050053", "detail": 1, "uid": "4cf8d24ecf4ab0999cf7793e", "detail_info": {"tag": "\u7f8e\u98df;\u8336\u5ea7", "type": "life", "detail_url": "http://api.map.baidu.com/place/detail?uid=4cf8d24ecf4ab0999cf7793e&output=html&source=placeapi_v2", "price": "29", "overall_rating": "5.0", "image_num": "3"}}, {"name": "\u73a9\u9177\u7f51\u7edc", "location": {"lat": 34.263675, "lng": 108.953785}, "address": "\u5357\u5927\u885751\u53f7\u9655\u897f\u6587\u7269\u5927\u53a65\u697c", "street_id": "b6a8bf2ebeff58eec71e51c2", "detail": 1, "uid": "b6a8bf2ebeff58eec71e51c2", "detail_info": {"tag": "\u4f11\u95f2\u5a31\u4e50;\u7f51\u5427", "type": "life", "detail_url": "http://api.map.baidu.com/place/detail?uid=b6a8bf2ebeff58eec71e51c2&output=html&source=placeapi_v2", "overall_rating": "3.5", "image_num": "11", "comment_num": "2"}}, {"name": "\u91d1\u7b11\u821e\u5385", "location": {"lat": 34.26587, "lng": 108.94254}, "address": "\u897f\u5927\u8857141\u53f72\u5c42", "street_id": "32c71acdc61b924f21f01761", "detail": 1, "uid": "32c71acdc61b924f21f01761", "detail_info": {"tag": "\u4f11\u95f2\u5a31\u4e50;\u6b4c\u821e\u5385", "navi_location": {"lng": 108.94281354797, "lat": 34.266027675174}, "type": "life", "detail_url": "http://api.map.baidu.com/place/detail?uid=32c71acdc61b924f21f01761&output=html&source=placeapi_v2", "overall_rating": "1.7", "image_num": "4", "comment_num": "3"}}, {"name": "2.0\u65f6\u4ee3\u5bc6\u5ba4\u9003\u8131\u4f53\u9a8c\u9986", "location": {"lat": 34.270036, "lng": 108.952718}, "address": "\u897f\u5b89\u5e02\u83b2\u6e56\u533a\u4e8c\u73af\u8def\u6cbf\u7ebf\u5546\u4e1a\u7ecf\u6d4e\u5e26\u897f\u534e\u95e8\u5927\u5b8f\u5e9c\u5609\u4f1a\u5e7f\u573aC\u5ea76\u5c42", "street_id": "30b538b627c22b6cd81318fd", "detail": 1, "uid": "30b538b627c22b6cd81318fd", "detail_info": {"tag": "\u4f11\u95f2\u5a31\u4e50", "type": "life", "detail_url": "http://api.map.baidu.com/place/detail?uid=30b538b627c22b6cd81318fd&output=html&source=placeapi_v2", "overall_rating": "4.4", "image_num": "158", "comment_num": "43"}}, {"name": "\u7231\u4e50\u5821\u513f\u7ae5\u6e38\u4e50\u56ed", "location": {"lat": 34.266346, "lng": 108.933398}, "address": "\u897f\u5927\u8857\u805a\u6e90\u5c0f\u533aA\u533a4\u5e62\u4e00\u5c42", "street_id": "deca4ad88363845480a00c84", "detail": 1, "uid": "e0bb988417228243e81e97fb", "detail_info": {"tag": "\u65c5\u6e38\u666f\u70b9;\u6e38\u4e50\u56ed", "type": "life", "detail_url": "http://api.map.baidu.com/place/detail?uid=e0bb988417228243e81e97fb&output=html&source=placeapi_v2", "overall_rating": "3.5", "image_num": "60", "comment_num": "10"}}, {"name": "\u4e0a\u4e0a\u7f51\u7edc\u4f1a\u6240", "location": {"lat": 34.256309, "lng": 108.945931}, "address": "\u6731\u96c0\u5927\u8857\u5317\u6bb5211\u9644\u8fd1", "street_id": "c2cb1ace684cfb17ad31e543", "detail": 1, "uid": "c2cb1ace684cfb17ad31e543", "detail_info": {"tag": "\u4f11\u95f2\u5a31\u4e50;\u7f51\u5427", "navi_location": {"lng": 108.94562789781, "lat": 34.256303657802}, "type": "life", "detail_url": "http://api.map.baidu.com/place/detail?uid=c2cb1ace684cfb17ad31e543&output=html&source=placeapi_v2", "overall_rating": "1.6", "image_num": "6", "comment_num": "7"}}, {"name": "\u9759\u6e56\u6cc9\u6e29\u6cc9\u6d74\u573a", "location": {"lat": 34.256691, "lng": 108.942308}, "address": "\u9655\u897f\u7701\u897f\u5b89\u5e02\u7891\u6797\u533a\u73af\u57ce\u5357\u8def112\u53f7", "street_id": "15148f55c695b3bd40afe6e8", "detail": 1, "uid": "15148f55c695b3bd40afe6e8", "detail_info": {"tag": "\u4f11\u95f2\u5a31\u4e50;\u6d17\u6d74\u6309\u6469", "type": "life", "detail_url": "http://api.map.baidu.com/place/detail?uid=15148f55c695b3bd40afe6e8&output=html&source=placeapi_v2", "image_num": "1"}}, {"name": "\u897f\u5b89\u5927\u5496\u5f71\u57ce", "location": {"lat": 34.26527, "lng": 108.941025}, "address": "\u897f\u5b89\u5e02\u84ec\u6e56\u533a\u897f\u5927\u8857\u6865\u6893\u53e3170\u53f7\u6b63\u9633\u540d\u5bb6\u56fd\u9645\u5bb6\u5c45\u5e7f\u573a5\u697c", "street_id": "939bffc37e31278e6140a953", "telephone": "(029)89628550", "detail": 1, "uid": "939bffc37e31278e6140a953", "detail_info": {"tag": "\u4f11\u95f2\u5a31\u4e50;\u7535\u5f71\u9662", "type": "life", "detail_url": "http://api.map.baidu.com/place/detail?uid=939bffc37e31278e6140a953&output=html&source=placeapi_v2", "service_rating": "0", "environment_rating": "0"}}, {"name": "\u81ea\u7531\u9e1f\u7f51\u5427", "location": {"lat": 34.269034, "lng": 108.937969}, "address": "\u897f\u5b89\u5e02\u83b2\u6e56\u533a\u65b0\u5bfa\u5df746\u53f7", "street_id": "bf29b70222a3668009b93a5d", "telephone": "(029)81500559,(029)81919510", "detail": 1, "uid": "bf29b70222a3668009b93a5d", "detail_info": {"tag": "\u4f11\u95f2\u5a31\u4e50;\u7f51\u5427", "type": "life", "detail_url": "http://api.map.baidu.com/place/detail?uid=bf29b70222a3668009b93a5d&output=html&source=placeapi_v2", "overall_rating": "3", "image_num": "4", "comment_num": "4"}}, {"name": "SEVEN NAIL TIME\u8d2d\u7269", "location": {"lat": 34.266625, "lng": 108.950829}, "address": "\u5357\u9662\u95e853\u53f7\u6e05\u89c1\u5fa1\u62401\u697c", "street_id": "ae1d79ecf6eac0895e0d0282", "detail": 1, "uid": "ae1d79ecf6eac0895e0d0282", "detail_info": {"tag": "\u7f8e\u98df", "navi_location": {"lng": 108.950253634, "lat": 34.266523353903}, "type": "life", "detail_url": "http://api.map.baidu.com/place/detail?uid=ae1d79ecf6eac0895e0d0282&output=html&source=placeapi_v2", "overall_rating": "4.8", "image_num": "58", "comment_num": "11"}}, {"name": "\u592a\u5e73\u6d0b\u5496\u5561(\u949f\u697c\u5e97)", "location": {"lat": 34.266584, "lng": 108.95327}, "address": "\u5317\u5927\u88571\u53f7\uff08\u949f\u697c\u897f\u5317\u89d2\uff09", "street_id": "7ccc1a1401313322bfa82251", "telephone": "(029)87230096", "detail": 1, "uid": "7ccc1a1401313322bfa82251", "detail_info": {"tag": "\u7f8e\u98df;\u5496\u5561\u5385", "navi_location": {"lng": 108.95332659702, "lat": 34.266582334656}, "type": "cater", "detail_url": "http://api.map.baidu.com/place/detail?uid=7ccc1a1401313322bfa82251&output=html&source=placeapi_v2", "price": "36.0", "overall_rating": "4.5", "comment_num": "100", "di_review_keyword": []}}, {"name": "\u897f\u4eac\u56fd\u9645\u6d17\u6d74\u4e2d\u5fc3", "location": {"lat": 34.266369, "lng": 108.943513}, "address": "\u897f\u5927\u8857135\u53f7\u9526\u6c5f\u897f\u4eac\u56fd\u9645\u996d\u5e972\u697c", "street_id": "3c0ea7c5e841ef9cfbf0cb03", "detail": 1, "uid": "3c0ea7c5e841ef9cfbf0cb03", "detail_info": {"tag": "\u4f11\u95f2\u5a31\u4e50;\u6d17\u6d74\u6309\u6469", "navi_location": {"lng": 108.94329328983, "lat": 34.265852495016}, "type": "life", "detail_url": "http://api.map.baidu.com/place/detail?uid=3c0ea7c5e841ef9cfbf0cb03&output=html&source=placeapi_v2", "overall_rating": "5", "image_num": "3", "comment_num": "1"}}, {"name": "\u98ce\u8776\u7f51\u5496\uff08\u897f\u5927\u8857\u5e97\uff09", "location": {"lat": 34.265326, "lng": 108.951767}, "address": "\u897f\u5927\u885714\u53f7", "street_id": "7f747419c73c51a7990050b8", "detail": 1, "uid": "7f747419c73c51a7990050b8", "detail_info": {"tag": "\u4f11\u95f2\u5a31\u4e50;\u7f51\u5427", "type": "life", "detail_url": "http://api.map.baidu.com/place/detail?uid=7f747419c73c51a7990050b8&output=html&source=placeapi_v2", "image_num": "2"}}, {"name": "\u8fd9\u513f\u684c\u6e38\u5427", "location": {"lat": 34.265035, "lng": 108.929168}, "address": "\u73af\u57ce\u897f\u8def\u5357\u6bb578\u53f7\u4e1c\u5149\u5927\u53a6\u4e8c\u533a1509\u5ba4\uff08\u4eba\u4eba\u4e50\u65c1\uff09", "street_id": "576c9663d4a922de93114c65", "detail": 1, "uid": "576c9663d4a922de93114c65", "detail_info": {"tag": "\u4f11\u95f2\u5a31\u4e50;\u6e38\u620f\u573a\u6240", "type": "life", "detail_url": "http://api.map.baidu.com/place/detail?uid=576c9663d4a922de93114c65&output=html&source=placeapi_v2", "price": "9", "overall_rating": "4.7", "image_num": "2"}}, {"name": "\u897f\u5cb8\u516c\u9986", "location": {"lat": 34.258837, "lng": 108.930592}, "address": "\u9655\u897f\u7701\u897f\u5b89\u5e02\u83b2\u6e56\u533a\u5929\u54c1\u897f\u5cb82\u53f7", "street_id": "3d1436d9024ab821cb213d2c", "detail": 1, "uid": "3d1436d9024ab821cb213d2c", "detail_info": {"tag": "\u623f\u5730\u4ea7;\u4f4f\u5b85\u533a", "type": "life", "detail_url": "http://api.map.baidu.com/place/detail?uid=3d1436d9024ab821cb213d2c&output=html&source=placeapi_v2", "image_num": "21"}}, {"name": "\u8ff7\u789f\u9152\u5427(\u5fb7\u798f\u5df7\u5e97)", "location": {"lat": 34.25924, "lng": 108.951146}, "address": "\u5fb7\u798f\u5df72\u53f7", "street_id": "ea87fb2391b1c948f7b916a1", "detail": 1, "uid": "ea87fb2391b1c948f7b916a1", "detail_info": {"tag": "\u7f8e\u98df;\u9152\u5427", "type": "cater", "detail_url": "http://api.map.baidu.com/place/detail?uid=ea87fb2391b1c948f7b916a1&output=html&source=placeapi_v2", "overall_rating": "4.9", "groupon_num": "2", "comment_num": "25", "di_review_keyword": []}}, {"name": "\u706b\u70ae\u7535\u7ade\u9986", "location": {"lat": 34.266699, "lng": 108.933401}, "address": "\u897f\u5927\u8857369\u53f7\u5510\u5143\u5bab2\u5c42", "street_id": "f86d8894180b368a047ce8df", "detail": 1, "uid": "f86d8894180b368a047ce8df", "detail_info": {"tag": "\u4f11\u95f2\u5a31\u4e50;\u7f51\u5427", "type": "life", "detail_url": "http://api.map.baidu.com/place/detail?uid=f86d8894180b368a047ce8df&output=html&source=placeapi_v2", "image_num": "2", "comment_num": "1"}}, {"name": "\u91d1\u6d6a\u6d74\u9986", "location": {"lat": 34.269439, "lng": 108.944216}, "address": "\u5e99\u540e\u885733", "street_id": "56e88cba5811b665a4c75603", "detail": 1, "uid": "56e88cba5811b665a4c75603", "detail_info": {"tag": "\u4f11\u95f2\u5a31\u4e50;\u6d17\u6d74\u6309\u6469", "type": "life", "detail_url": "http://api.map.baidu.com/place/detail?uid=56e88cba5811b665a4c75603&output=html&source=placeapi_v2", "overall_rating": "5", "image_num": "7", "comment_num": "1"}}, {"name": "\u6842mototo", "location": {"lat": 34.258192, "lng": 108.941517}, "address": "\u9655\u897f\u7701\u897f\u5b89\u5e02\u83b2\u6e56\u533a\u542b\u5149\u95e8\u91cc\u987a\u57ce\u5df7\u4e1c15\u53f7", "street_id": "a805a54cd3951a45a7c756fb", "detail": 1, "uid": "a805a54cd3951a45a7c756fb", "detail_info": {"tag": "\u7f8e\u98df;\u5c0f\u5403\u5feb\u9910\u5e97", "navi_location": {"lng": 108.94152591506, "lat": 34.258105793423}, "type": "cater", "detail_url": "http://api.map.baidu.com/place/detail?uid=a805a54cd3951a45a7c756fb&output=html&source=placeapi_v2", "overall_rating": "4.4", "comment_num": "69", "di_review_keyword": []}}, {"name": "KX\u7f51\u5496", "location": {"lat": 34.263564, "lng": 108.937561}, "address": "\u9655\u897f\u7701\u897f\u5b89\u5e02\u83b2\u6e56\u533a\u5317\u9662\u95e8\u8857\u9053\u590f\u5bb6\u4ec0\u5b57\u5c0f\u533a\u534e\u6c47\u5927\u53a6", "street_id": "6f733a548dda730233169bc2", "detail": 0, "uid": "6f733a548dda730233169bc2", "detail_info": {"tag": "\u4f11\u95f2\u5a31\u4e50;\u7f51\u5427"}}, {"name": "\u5927\u4f17\u6d74\u6c60(\u4e94\u5473\u4ec0\u5b57)", "location": {"lat": 34.262011, "lng": 108.943557}, "address": "\u4e94\u5473\u4ec0\u5b5733\u53f72\u5c42", "street_id": "d1473d4074f92d016140a9c2", "detail": 1, "uid": "d1473d4074f92d016140a9c2", "detail_info": {"tag": "\u4f11\u95f2\u5a31\u4e50;\u6d17\u6d74\u6309\u6469", "type": "life", "detail_url": "http://api.map.baidu.com/place/detail?uid=d1473d4074f92d016140a9c2&output=html&source=placeapi_v2", "overall_rating": "3", "image_num": "1", "comment_num": "1"}}, {"name": "\u8303\u7279\u897f", "location": {"lat": 34.261511, "lng": 108.953072}, "address": "\u7891\u6797\u533a\u5357\u5927\u885746\u53f7\u798f\u5eb7\u5927\u53a62\u697c(\u5357\u9662\u95e8\u5927\u8857\u53e3)", "street_id": "764672e56b7693d094ec843f", "detail": 1, "uid": "764672e56b7693d094ec843f", "detail_info": {"tag": "\u7f8e\u98df;\u9152\u5427", "navi_location": {"lng": 108.95253782639, "lat": 34.26169642671}, "type": "cater", "detail_url": "http://api.map.baidu.com/place/detail?uid=764672e56b7693d094ec843f&output=html&source=placeapi_v2", "price": "150.0", "overall_rating": "4.3", "comment_num": "7", "di_review_keyword": []}}, {"name": "\u65f6\u51492000\u6708\u5149\u9601", "location": {"lat": 34.26175, "lng": 108.941697}, "address": "\u9655\u897f\u7701\u897f\u5b89\u5e02\u7891\u6797\u533a\u4e94\u661f\u88578\u53f7", "street_id": "cfcf9fd1cea4292deb56fa31", "telephone": "(029)87622492", "detail": 1, "uid": "cfcf9fd1cea4292deb56fa31", "detail_info": {"tag": "\u623f\u5730\u4ea7;\u5199\u5b57\u697c", "navi_location": {"lng": 108.94177699414, "lat": 34.261899885097}, "type": "cater", "detail_url": "http://api.map.baidu.com/place/detail?uid=cfcf9fd1cea4292deb56fa31&output=html&source=placeapi_v2"}}, {"name": "\u96d5\u523b\u65f6\u5149\u5496\u5561\u9986(\u897f\u5b89\u5357\u9662\u95e8\u5e97)", "location": {"lat": 34.261906, "lng": 108.946897}, "address": "\u5357\u9662\u95e847\u53f7\u4e94\u5473\u5341\u5b57\u5411\u4e1c100\u7c73\u8def\u5317(\u7c89\u5df7\u4e94\u5473\u5341\u5b57)", "street_id": "e474cc4a4da0a35f16764374", "telephone": "(029)87625857", "detail": 1, "uid": "e474cc4a4da0a35f16764374", "detail_info": {"tag": "\u7f8e\u98df;\u5496\u5561\u5385", "navi_location": {"lng": 108.94664508597, "lat": 34.261757666278}, "type": "cater", "detail_url": "http://api.map.baidu.com/place/detail?uid=e474cc4a4da0a35f16764374&output=html&source=placeapi_v2", "price": "38.0", "overall_rating": "4.1", "comment_num": "100", "di_review_keyword": []}}, {"name": "\u5496\u5561\u966a\u4f60\u6982\u5ff5\u5e97", "location": {"lat": 34.262475, "lng": 108.95278}, "address": "\u5357\u5927\u8857109\u53f7\u82ad\u838e\u540d\u5e975\u5c42", "street_id": "bbda33f5ca92cc228836ee91", "telephone": "(029)87372391", "detail": 1, "uid": "bbda33f5ca92cc228836ee91", "detail_info": {"tag": "\u7f8e\u98df;\u5496\u5561\u5385", "navi_location": {"lng": 108.95269658572, "lat": 34.262293220189}, "type": "cater", "detail_url": "http://api.map.baidu.com/place/detail?uid=bbda33f5ca92cc228836ee91&output=html&source=placeapi_v2", "price": "49.0", "overall_rating": "4.6", "comment_num": "17", "di_review_keyword": []}}, {"name": "ss\u7f51\u5496", "location": {"lat": 34.256271, "lng": 108.945855}, "address": "\u897f\u5b89\u5e02\u7891\u6797\u533a\u6731\u96c0\u5927\u8857\u5317\u6bb5183\u53f7", "street_id": "c80b0f1a72f2b61904026f96", "detail": 0, "uid": "c80b0f1a72f2b61904026f96", "detail_info": {"tag": "\u4f11\u95f2\u5a31\u4e50;\u7f51\u5427"}}, {"name": "\u79e6\u4e4b\u97f5\u76ae\u5f71\u620f", "location": {"lat": 34.268287, "lng": 108.949971}, "address": "\u9655\u897f\u7701\u897f\u5b89\u5e02\u83b2\u6e56\u533a\u5317\u9662\u95e8140\u53f7\uff08\u8d3e\u4e09\u5305\u5b50\u5bf9\u9762\uff09", "street_id": "ba0e6a66d6edffc3a11de97e", "detail": 1, "uid": "ba0e6a66d6edffc3a11de97e", "detail_info": {"tag": "\u4f11\u95f2\u5a31\u4e50;\u5267\u9662", "type": "scope", "detail_url": "http://api.map.baidu.com/place/detail?uid=ba0e6a66d6edffc3a11de97e&output=html&source=placeapi_v2", "price": "15", "overall_rating": "4.8", "comment_num": "7"}}, {"name": "\u585e\u7eb3\u65f6\u5149\u79c1\u4eab\u5f71\u9662", "location": {"lat": 34.26445, "lng": 108.950035}, "address": "\u9655\u897f\u7701\u897f\u5b89\u5e02\u7891\u6797\u533a\u7af9\u7b06\u5e0255\u53f7", "street_id": "358852167847f2a43010afed", "detail": 0, "uid": "358852167847f2a43010afed", "detail_info": {"tag": "\u4f11\u95f2\u5a31\u4e50;\u7535\u5f71\u9662"}}, {"name": "\u7f51\u7edc\u4f11\u95f2\u5427", "location": {"lat": 34.259028, "lng": 108.948356}, "address": "\u897f\u5b89\u5e02\u7891\u6797\u533a\u5927\u8f66\u5bb6\u5df7\u5357\u53e3", "street_id": "14ced07f77eeb1f74207c112", "detail": 1, "uid": "14ced07f77eeb1f74207c112", "detail_info": {"tag": "\u4f11\u95f2\u5a31\u4e50;\u7f51\u5427", "type": "life", "detail_url": "http://api.map.baidu.com/place/detail?uid=14ced07f77eeb1f74207c112&output=html&source=placeapi_v2", "image_num": "5"}}, {"name": "\u661f\u5df4\u514b(\u767e\u76db\u8d2d\u7269\u4e2d\u5fc3\u5e97)", "location": {"lat": 34.265991, "lng": 108.945874}, "address": "\u897f\u5b89\u5e02\u83b2\u6e56\u533a\u897f\u5927\u88576\u53f7\u767e\u76db\u8d2d\u7269\u4e2d\u5fc3F2", "street_id": "e00551ea5e81d6fb5cd4fe5e", "detail": 1, "uid": "e00551ea5e81d6fb5cd4fe5e", "detail_info": {"tag": "\u7f8e\u98df;\u5496\u5561\u5385", "navi_location": {"lng": 108.94626978022, "lat": 34.266826571242}, "indoor_floor": "F2", "type": "cater", "detail_url": "http://api.map.baidu.com/place/detail?uid=e00551ea5e81d6fb5cd4fe5e&output=html&source=placeapi_v2", "comment_num": "1"}}, {"name": "\u60c5\u56ed\u5927\u821e\u5385", "location": {"lat": 34.263835, "lng": 108.949976}, "address": "\u7af9\u7b06\u5e0241\u53f7", "street_id": "a77d3f1d26a945bcacee7a92", "detail": 0, "uid": "a77d3f1d26a945bcacee7a92", "detail_info": {"tag": "\u4f11\u95f2\u5a31\u4e50;\u6b4c\u821e\u5385"}}, {"name": "\u5361\u95e81932\u9152\u5427", "location": {"lat": 34.259406, "lng": 108.930762}, "address": "\u83b2\u6e56\u533a\u73af\u57ce\u897f\u8def\u6c34\u53f8\u5bf9\u9762\u5929\u54c18\u53f7(\u897f\u5357\u57ce\u89d2)", "street_id": "ad702192f13aaab59ef77978", "telephone": "(029)89540224", "detail": 1, "uid": "ad702192f13aaab59ef77978", "detail_info": {"tag": "\u7f8e\u98df;\u9152\u5427", "type": "cater", "detail_url": "http://api.map.baidu.com/place/detail?uid=ad702192f13aaab59ef77978&output=html&source=placeapi_v2", "price": "70.0", "overall_rating": "4.5", "groupon_num": "2", "comment_num": "178", "di_review_keyword": []}}, {"name": "\u55b5cafe", "location": {"lat": 34.260446, "lng": 108.940015}, "address": "\u51b0\u7a96\u5df720\u53f7(\u8fd1\u738b\u5983\u5bb6\u7684\u829d\u58eb\u706b\u9505)", "street_id": "d1117fb91f33eadd950319f0", "telephone": "18681802623", "detail": 1, "uid": "d1117fb91f33eadd950319f0", "detail_info": {"tag": "\u7f8e\u98df;\u86cb\u7cd5\u751c\u54c1\u5e97", "type": "cater", "detail_url": "http://api.map.baidu.com/place/detail?uid=d1117fb91f33eadd950319f0&output=html&source=placeapi_v2", "price": "30.5", "overall_rating": "4.4", "groupon_num": "1", "comment_num": "27", "di_review_keyword": []}}, {"name": "\u592a\u5e73\u6d0b\u5496\u5561(\u5357\u5927\u8857\u5e97)", "location": {"lat": 34.263497, "lng": 108.953751}, "address": "\u897f\u5b89\u5e02\u7891\u6797\u533a\u5357\u5927\u88578\u53f7\u4e16\u7eaa\u91d1\u82b1(\u5357\u5927\u8857\u5e97)3\u5c42", "street_id": "8e4bdb47b2feb29b0b1cc770", "telephone": "(029)87231330,(029)87230096", "detail": 1, "uid": "171414f913baeec743ab9a05", "detail_info": {"tag": "\u7f8e\u98df;\u5496\u5561\u5385", "navi_location": {"lng": 108.95354391958, "lat": 34.263042337304}, "type": "cater", "detail_url": "http://api.map.baidu.com/place/detail?uid=171414f913baeec743ab9a05&output=html&source=placeapi_v2", "price": "35.0", "overall_rating": "3", "comment_num": "2", "di_review_keyword": []}}, {"name": "\u897f\u5b89\u5e02\u83b2\u6e56\u533a\u9690\u820d\u8336\u9986", "location": {"lat": 34.259051, "lng": 108.930509}, "address": "\u73af\u57ce\u897f\u8def\u5357\u6bb51\u53f7\u5929\u54c1\u897f\u5cb8\u5357\u533a26\u53f7", "street_id": "a254cbc1bff0955f5e0d02ad", "telephone": "(029)89630058", "detail": 1, "uid": "a254cbc1bff0955f5e0d02ad", "detail_info": {"tag": "\u7f8e\u98df;\u8336\u5ea7", "type": "cater", "detail_url": "http://api.map.baidu.com/place/detail?uid=a254cbc1bff0955f5e0d02ad&output=html&source=placeapi_v2", "price": "145.0", "overall_rating": "5", "groupon_num": "1", "comment_num": "1", "di_review_keyword": []}}, {"name": "\u798f\u5c71\u5496\u5561(\u5357\u5e7f\u6d4e\u8857)", "location": {"lat": 34.258462, "lng": 108.944834}, "address": "\u6731\u96c0\u95e8\u91cc\u8def\u897f\u592a\u9633\u5e99\u95e86\u53f7(\u56db\u5ddd\u4f1a\u9986\u5411\u897f80\u7c73)", "street_id": "504d6113cc7805aa475726e9", "detail": 1, "uid": "504d6113cc7805aa475726e9", "detail_info": {"tag": "\u7f8e\u98df;\u5496\u5561\u5385", "navi_location": {"lng": 108.94508957296, "lat": 34.258509022884}, "type": "cater", "detail_url": "http://api.map.baidu.com/place/detail?uid=504d6113cc7805aa475726e9&output=html&source=placeapi_v2", "price": "50.5", "overall_rating": "3.8", "comment_num": "17", "di_review_keyword": []}}, {"name": "\u76f8\u7ea6\u7f51\u5496", "location": {"lat": 34.262936, "lng": 108.942511}, "address": "\u9655\u897f\u7701\u897f\u5b89\u5e02\u7891\u6797\u533a\u5317\u56db\u5e9c\u8857135\u53f7\u9644\u8fd1", "street_id": "a056b73176c44e19d8d89105", "detail": 1, "uid": "a056b73176c44e19d8d89105", "detail_info": {"tag": "\u4f11\u95f2\u5a31\u4e50;\u7f51\u5427", "type": "life", "detail_url": "http://api.map.baidu.com/place/detail?uid=a056b73176c44e19d8d89105&output=html&source=placeapi_v2", "image_num": "5"}}, {"name": "\u9f99\u6cfd\u6d74\u9986", "location": {"lat": 34.26754, "lng": 108.938866}, "address": "\u897f\u5b89\u5e02\u83b2\u6e56\u533a\u5927\u9ea6\u5e02\u885760\u53f7", "street_id": "0058610867b02da546e27403", "telephone": "(029)87255080", "detail": 1, "uid": "0058610867b02da546e27403", "detail_info": {"tag": "\u4f11\u95f2\u5a31\u4e50;\u6d17\u6d74\u6309\u6469", "type": "life", "detail_url": "http://api.map.baidu.com/place/detail?uid=0058610867b02da546e27403&output=html&source=placeapi_v2", "overall_rating": "5.0", "image_num": "6", "comment_num": "0"}}, {"name": "\u4e50\u5de2\u9152\u5427", "location": {"lat": 34.26503, "lng": 108.943371}, "address": "\u897f\u5927\u8857\u8363\u6c11\u56fd\u9645\u996d\u5e97\u4e00\u5c42(\u90fd\u57ce\u968d\u5e99\u5bf9\u9762)", "street_id": "fe52cdac9c99e6cfeb12e494", "detail": 1, "uid": "fe52cdac9c99e6cfeb12e494", "detail_info": {"tag": "\u7f8e\u98df;\u9152\u5427", "type": "cater", "detail_url": "http://api.map.baidu.com/place/detail?uid=fe52cdac9c99e6cfeb12e494&output=html&source=placeapi_v2", "price": "280.0", "overall_rating": "4.5", "comment_num": "2", "di_review_keyword": []}}, {"name": "\u661f\u56fd\u4f1a", "location": {"lat": 34.264852, "lng": 108.936611}, "address": "\u83b2\u6e56\u533a\u897f\u5927\u8857218\u53f7\u5510\u4eba\u8857B\u5ea76\u697c", "street_id": "934d9ec52c0de12bae045708", "detail": 1, "uid": "934d9ec52c0de12bae045708", "detail_info": {"tag": "\u4f11\u95f2\u5a31\u4e50;ktv", "type": "life", "detail_url": "http://api.map.baidu.com/place/detail?uid=934d9ec52c0de12bae045708&output=html&source=placeapi_v2", "image_num": "1"}}, {"name": "\u5c0f\u5929\u5730\u6bcd\u5a74\u4f1a\u6240", "location": {"lat": 34.263873, "lng": 108.949497}, "address": "\u897f\u5927\u885748\u53f7\u4e2d\u73af\u5546\u52a1\u5927\u53a6b\u5ea73-4\u5c42", "street_id": "1ceb59a1d83fec63d3ff2345", "detail": 0, "uid": "1ceb59a1d83fec63d3ff2345", "detail_info": {"tag": "\u4f11\u95f2\u5a31\u4e50", "navi_location": {"lng": 108.94949645858, "lat": 34.263816243933}}}, {"name": "\u5341\u60a6oct bar", "location": {"lat": 34.256468, "lng": 108.952026}, "address": "\u7891\u6797\u533a\u5357\u95e8\u5916\u677e\u56ed\u8d1f1\u5c4216", "street_id": "25faddafff7286316fa3cc10", "detail": 1, "uid": "25faddafff7286316fa3cc10", "detail_info": {"tag": "\u4f11\u95f2\u5a31\u4e50", "type": "life", "detail_url": "http://api.map.baidu.com/place/detail?uid=25faddafff7286316fa3cc10&output=html&source=placeapi_v2", "image_num": "1"}}, {"name": "\u559c\u5730\u82b1\u751f\u5496\u5561\u9986", "location": {"lat": 34.258078, "lng": 108.933352}, "address": "\u897f\u5b89\u83b2\u6e56\u533a\u5357\u9a6c\u9053\u5df75\u53f7", "street_id": "13734e6829f871a94afc8dd5", "telephone": "(029)87628918", "detail": 1, "uid": "13734e6829f871a94afc8dd5", "detail_info": {"tag": "\u7f8e\u98df;\u5496\u5561\u5385", "type": "cater", "detail_url": "http://api.map.baidu.com/place/detail?uid=13734e6829f871a94afc8dd5&output=html&source=placeapi_v2", "price": "49.0", "overall_rating": "4.6", "comment_num": "0", "di_review_keyword": []}}, {"name": "xp\u7f51\u5496", "location": {"lat": 34.264336, "lng": 108.928424}, "address": "\u9655\u897f\u7701\u897f\u5b89\u5e02\u83b2\u6e56\u533a\u897f\u5173\u6b63\u885794\u53f7", "street_id": "1de6f6ddc97b4f92a8059dbf", "detail": 1, "uid": "1de6f6ddc97b4f92a8059dbf", "detail_info": {"tag": "\u4f11\u95f2\u5a31\u4e50;\u7f51\u5427", "type": "life", "detail_url": "http://api.map.baidu.com/place/detail?uid=1de6f6ddc97b4f92a8059dbf&output=html&source=placeapi_v2", "image_num": "1"}}, {"name": "\u7ea4\u53e4\u60c5\u8db3\u6d74\u517b\u751f\u4f1a\u6240", "location": {"lat": 34.264935, "lng": 108.927887}, "address": "\u897f\u5b89\u5e02\u83b2\u6e56\u533a\u897f\u5173\u6b63\u885754\u53f7", "street_id": "af2246b6d25958deab175ab8", "detail": 1, "uid": "af2246b6d25958deab175ab8", "detail_info": {"tag": "\u4f11\u95f2\u5a31\u4e50;\u6d17\u6d74\u6309\u6469", "type": "life", "detail_url": "http://api.map.baidu.com/place/detail?uid=af2246b6d25958deab175ab8&output=html&source=placeapi_v2", "image_num": "1"}}, {"name": "JG\u5496\u5561\u8336\u8bed", "location": {"lat": 34.267889, "lng": 108.953867}, "address": "\u5317\u5927\u88572\u53f7\u91d1\u949f\u5927\u53a6A\u5ea75\u697c(\u949f\u697c\u90ae\u5c40\u5f80\u531780\u7c73)", "street_id": "87248d9619d7aab32806ce15", "telephone": "029-87260908", "detail": 1, "uid": "87248d9619d7aab32806ce15", "detail_info": {"tag": "\u7f8e\u98df;\u5496\u5561\u5385", "navi_location": {"lng": 108.95383690731, "lat": 34.268072926693}, "type": "cater", "detail_url": "http://api.map.baidu.com/place/detail?uid=87248d9619d7aab32806ce15&output=html&source=placeapi_v2", "overall_rating": "4.6", "groupon_num": "1", "comment_num": "31", "di_review_keyword": []}}, {"name": "\u77e5\u66f4Cafe", "location": {"lat": 34.258277, "lng": 108.944526}, "address": "\u987a\u57ce\u5357\u8def\u897f\u6bb5\u592a\u9633\u5e99\u95e8\u4e1c\u533aB\u5ea7202\u53f7\u94fa", "street_id": "54f08f579a111810f02d834a", "telephone": "(029)87618962", "detail": 1, "uid": "54f08f579a111810f02d834a", "detail_info": {"tag": "\u7f8e\u98df;\u8336\u5ea7", "type": "cater", "detail_url": "http://api.map.baidu.com/place/detail?uid=54f08f579a111810f02d834a&output=html&source=placeapi_v2", "price": "40.0", "overall_rating": "4.6", "comment_num": "66", "di_review_keyword": []}}, {"name": "\u76db\u4e16\u5e74\u534e\u8db3\u6d74\u517b\u751f\u4f1a\u6240", "location": {"lat": 34.264761, "lng": 108.927559}, "address": "\u9655\u897f\u7701\u897f\u5b89\u5e02\u83b2\u6e56\u533a\u897f\u5173\u6b63\u885754\u53f7\u5929\u6a3e\u660e\u6cf0\u9152\u5e973\u5c42", "street_id": "01872b37abeb6db440d63e61", "detail": 1, "uid": "01872b37abeb6db440d63e61", "detail_info": {"tag": "\u4f11\u95f2\u5a31\u4e50;\u6d17\u6d74\u6309\u6469", "type": "life", "detail_url": "http://api.map.baidu.com/place/detail?uid=01872b37abeb6db440d63e61&output=html&source=placeapi_v2", "overall_rating": "2", "image_num": "47", "comment_num": "3"}}, {"name": "\u7f8e\u4e3d\u8c6a\u9152\u5e97-\u8d35\u5983\u6851\u62ff\u4e2d\u5fc3", "location": {"lat": 34.266654, "lng": 108.947065}, "address": "\u897f\u5927\u885779\u53f7\u7f8e\u4e3d\u8c6a\u9152\u5e972\u5c42", "street_id": "544e6d5da5d41182e507380e", "detail": 1, "uid": "0609c2e47f0984c203294ff8", "detail_info": {"tag": "\u4f11\u95f2\u5a31\u4e50;\u6d17\u6d74\u6309\u6469", "navi_location": {"lng": 108.94732705885, "lat": 34.266668193892}, "type": "life", "detail_url": "http://api.map.baidu.com/place/detail?uid=0609c2e47f0984c203294ff8&output=html&source=placeapi_v2", "image_num": "1"}}, {"name": "\u4e1c\u5c1a\u7f51\u5496", "location": {"lat": 34.263747, "lng": 108.929535}, "address": "\u9655\u897f\u7701\u897f\u5b89\u5e02\u83b2\u6e56\u533a\u73af\u57ce\u897f\u8def72\u53f7", "detail": 0, "uid": "4ed6ce3a8b9334da9122e078", "detail_info": {"tag": "\u4f11\u95f2\u5a31\u4e50;\u7f51\u5427"}}, {"name": "\u7b49\u4e00\u4e2a\u4eba\u5496\u5561\u9986", "location": {"lat": 34.26464, "lng": 108.949655}, "address": "\u897f\u5927\u8857\u9a6c\u574a\u95e8\u949f\u697c\u5c0f\u533a\u897f\u95e8\u6b63\u5bf9\u9762", "street_id": "de7957fce4df5778cc06a43a", "telephone": "(029)87265525", "detail": 1, "uid": "de7957fce4df5778cc06a43a", "detail_info": {"tag": "\u7f8e\u98df;\u5496\u5561\u5385", "type": "cater", "detail_url": "http://api.map.baidu.com/place/detail?uid=de7957fce4df5778cc06a43a&output=html&source=placeapi_v2", "price": "30.0", "overall_rating": "4.7", "groupon_num": "1", "comment_num": "53", "di_review_keyword": []}}, {"name": "marley coffee", "location": {"lat": 34.260293, "lng": 108.9538}, "address": "\u5357\u5927\u885715\u53f7\u4e2d\u56fd\u5efa\u8bbe\u94f6\u884c\u65c1\u8fb9", "telephone": "(029)87390095", "detail": 1, "uid": "fccc8e95207fabd421026260", "detail_info": {"tag": "\u7f8e\u98df;\u5496\u5561\u5385", "type": "cater", "detail_url": "http://api.map.baidu.com/place/detail?uid=fccc8e95207fabd421026260&output=html&source=placeapi_v2", "price": "26.0", "groupon_num": "2", "comment_num": "8", "di_review_keyword": []}}, {"name": "\u5927\u679c\u51bb\u5c0f\u9152\u7a9d", "location": {"lat": 34.258149, "lng": 108.942851}, "address": "\u897f\u5b89\u5e02\u7891\u6797\u533a\u5c0f\u5357\u95e8\u91cc\u987a\u57ce\u5df77\u53f7", "street_id": "61f8afd0d917d30c095cb383", "detail": 1, "uid": "61f8afd0d917d30c095cb383", "detail_info": {"tag": "\u7f8e\u98df;\u9152\u5427", "type": "cater", "detail_url": "http://api.map.baidu.com/place/detail?uid=61f8afd0d917d30c095cb383&output=html&source=placeapi_v2", "price": "30.0", "overall_rating": "4.6", "comment_num": "20", "di_review_keyword": []}}, {"name": "\u897f\u8bf4\u7f51\u7edc\u897f\u95e8\u5e97", "location": {"lat": 34.269896, "lng": 108.928793}, "address": "\u73af\u57ce\u897f\u8def\u5317\u6bb5240\u53f7(\u946b\u76db\u5927\u53a62\u5c42)", "street_id": "0270dcd7e04feb01c41e5111", "detail": 0, "uid": "0270dcd7e04feb01c41e5111", "detail_info": {"tag": "\u4f11\u95f2\u5a31\u4e50;\u7f51\u5427"}}, {"name": "\u4e1c\u5c1a\u7ea2\u6811\u6797\u7f51\u7edc\u4f1a\u6240", "location": {"lat": 34.263867, "lng": 108.929495}, "address": "\u9655\u897f\u7701\u897f\u5b89\u5e02\u83b2\u6e56\u533a\u73af\u57ce\u897f\u8def72\u53f7", "street_id": "fd571224b6bf5522b8bd63c3", "detail": 1, "uid": "fd571224b6bf5522b8bd63c3", "detail_info": {"tag": "\u4f11\u95f2\u5a31\u4e50;\u7f51\u5427", "navi_location": {"lng": 108.92974485209, "lat": 34.263816889553}, "type": "life", "detail_url": "http://api.map.baidu.com/place/detail?uid=fd571224b6bf5522b8bd63c3&output=html&source=placeapi_v2", "image_num": "2"}}, {"name": "Cafe Kim \u6e05\u5496", "location": {"lat": 34.260854, "lng": 108.930826}, "address": "\u897f\u5b89\u5e02\u83b2\u6e56\u533a\u5929\u54c1\u897f\u5cb818\u53f7", "street_id": "e860705ccb397a4130169bea", "telephone": "(029)84590785", "detail": 1, "uid": "95829ea7a7070913e115f984", "detail_info": {"tag": "\u7f8e\u98df;\u5496\u5561\u5385", "navi_location": {"lng": 108.93146806436, "lat": 34.26173971647}, "type": "cater", "detail_url": "http://api.map.baidu.com/place/detail?uid=95829ea7a7070913e115f984&output=html&source=placeapi_v2", "price": "46.5", "overall_rating": "4.6", "comment_num": "45", "di_review_keyword": []}}, {"name": "\u51b0\u5858", "location": {"lat": 34.260644, "lng": 108.939636}, "address": "\u51b0\u7a96\u5df7\u4e0e\u751c\u6c34\u4e95\u885719\u53f7\uff08\u4ea4\u53c9\u53e3\u5411\u4e1c30\u7c73\uff09", "detail": 1, "uid": "3dec43482cea61d2c71e51b9", "detail_info": {"tag": "\u7f8e\u98df;\u9152\u5427", "type": "cater", "detail_url": "http://api.map.baidu.com/place/detail?uid=3dec43482cea61d2c71e51b9&output=html&source=placeapi_v2", "groupon_num": "2", "comment_num": "4", "di_review_keyword": []}}, {"name": "TrueCOLOR\u672c\u8272", "location": {"lat": 34.265986, "lng": 108.938877}, "address": "\u897f\u5927\u8857369\u53f7\u6865\u6893\u53e3\u4e0a\u6d77\u57ce1\u697c", "street_id": "acc49a6fdb82275674e5b6b8", "detail": 1, "uid": "acc49a6fdb82275674e5b6b8", "detail_info": {"tag": "\u7f8e\u98df;\u9152\u5427", "navi_location": {"lng": 108.9390264213, "lat": 34.265993380511}, "type": "cater", "detail_url": "http://api.map.baidu.com/place/detail?uid=acc49a6fdb82275674e5b6b8&output=html&source=placeapi_v2", "price": "257.0", "overall_rating": "4.4", "comment_num": "14", "di_review_keyword": []}}, {"name": "LIV\u9152\u5427", "location": {"lat": 34.265993, "lng": 108.93891}, "address": "\u83b2\u6e56\u533a\u897f\u5927\u8857\u6865\u6893\u53e3369\u53f7\u4e0a\u6d77\u57ce1F", "street_id": "ed96f17d24479825ab0dd8b3", "detail": 1, "uid": "ed96f17d24479825ab0dd8b3", "detail_info": {"tag": "\u7f8e\u98df;\u9152\u5427", "type": "cater", "detail_url": "http://api.map.baidu.com/place/detail?uid=ed96f17d24479825ab0dd8b3&output=html&source=placeapi_v2"}}, {"name": "\u6293\u5a03\u5a03\u673a", "location": {"lat": 34.268348, "lng": 108.952747}, "address": "\u897f\u5b89\u5e02\u83b2\u6e56\u533a\u5317\u5927\u885788\u53f7\u65b0\u4e16\u754c\u767e\u8d27B1", "street_id": "d4fdf12bf6c08fdaf6e73b08", "detail": 0, "uid": "d4fdf12bf6c08fdaf6e73b08", "detail_info": {"tag": "\u4f11\u95f2\u5a31\u4e50;\u6e38\u620f\u573a\u6240", "indoor_floor": "B1"}}, {"name": "\u7687\u5bb67\u53f7\u4f1a\u6240", "location": {"lat": 34.256663, "lng": 108.949953}, "address": "\u7891\u6797\u533a\u73af\u57ce\u5357\u8def\u897f\u6bb518\u53f7,\u91d1\u82b1\u8c6a\u751f\u5927\u9152\u5e974\u697c5\u697c(\u8fd1\u5357\u95e8)", "street_id": "c7071f8a36f79346d12dd699", "detail": 1, "uid": "c7071f8a36f79346d12dd699", "detail_info": {"tag": "\u4f11\u95f2\u5a31\u4e50;ktv", "type": "life", "detail_url": "http://api.map.baidu.com/place/detail?uid=c7071f8a36f79346d12dd699&output=html&source=placeapi_v2", "price": "89", "image_num": "9", "comment_num": "1"}}, {"name": "\u65f6\u5149\u5496\u5561", "location": {"lat": 34.259862, "lng": 108.950566}, "address": "\u7891\u6797\u533a\u5fb7\u798f\u5df713\u53f7", "street_id": "a5097bfabfc1ac7af13cbabf", "telephone": "(029)87233955", "detail": 1, "uid": "a5097bfabfc1ac7af13cbabf", "detail_info": {"tag": "\u7f8e\u98df;\u5496\u5561\u5385", "navi_location": {"lng": 108.95042450069, "lat": 34.259889511579}, "type": "cater", "detail_url": "http://api.map.baidu.com/place/detail?uid=a5097bfabfc1ac7af13cbabf&output=html&source=placeapi_v2", "price": "50.5", "overall_rating": "4.3", "groupon_num": "2", "comment_num": "114", "di_review_keyword": []}}, {"name": "\u7f8e\u76ca360\u4e13\u4e1a\u6309\u6469\u8db3\u7597", "location": {"lat": 34.267309, "lng": 108.951852}, "address": "\u9655\u897f\u7701\u897f\u5b89\u5e02\u83b2\u6e56\u533a\u793e\u4f1a\u8def3\u53f7\u96622\u5355\u51432\u5c42(\u6587\u82d1\u5927\u9152\u5e97)", "street_id": "8694f9ef4bec3b8551e5c5a3", "detail": 1, "uid": "8694f9ef4bec3b8551e5c5a3", "detail_info": {"tag": "\u4f11\u95f2\u5a31\u4e50;\u6d17\u6d74\u6309\u6469", "type": "life", "detail_url": "http://api.map.baidu.com/place/detail?uid=8694f9ef4bec3b8551e5c5a3&output=html&source=placeapi_v2", "image_num": "1", "comment_num": "2"}}, {"name": "\u5fa1\u6307\u5357\u5bab\u6d17\u6d74\u517b\u751f\u4f1a\u6240", "location": {"lat": 34.262755, "lng": 108.953183}, "address": "\u9655\u897f\u7701\u897f\u5b89\u5e02\u7891\u6797\u533a\u5357\u5927\u885754\u53f7", "street_id": "fc7bacf73fa368ca2b201ab3", "detail": 1, "uid": "fc7bacf73fa368ca2b201ab3", "detail_info": {"tag": "\u4f11\u95f2\u5a31\u4e50;\u6d17\u6d74\u6309\u6469", "navi_location": {"lng": 108.95335982893, "lat": 34.262752437191}, "type": "life", "detail_url": "http://api.map.baidu.com/place/detail?uid=fc7bacf73fa368ca2b201ab3&output=html&source=placeapi_v2", "overall_rating": "4.9", "image_num": "10"}}, {"name": "\u5927\u4f17\u6e29\u6cc9\u6d17\u6d74", "location": {"lat": 34.269095, "lng": 108.938381}, "address": "\u5e99\u540e\u8857208\u53f7\u9644\u8fd1", "street_id": "f4003f59cc6802c8a0acc4d3", "detail": 1, "uid": "f4003f59cc6802c8a0acc4d3", "detail_info": {"tag": "\u4f11\u95f2\u5a31\u4e50;\u6d17\u6d74\u6309\u6469", "type": "life", "detail_url": "http://api.map.baidu.com/place/detail?uid=f4003f59cc6802c8a0acc4d3&output=html&source=placeapi_v2", "overall_rating": "3.0", "image_num": "9", "comment_num": "0"}}, {"name": "\u4e2d\u548c\u4f11\u95f2", "location": {"lat": 34.268796, "lng": 108.952613}, "address": "\u897f\u5b89\u5e02\u83b2\u6e56\u533a\u897f\u5927\u88576\u53f7\u767e\u76db\u8d2d\u7269\u4e2d\u5fc3F5", "street_id": "f9c963edbc839907f7b91678", "detail": 1, "uid": "51e268267c6546b4b04c4999", "detail_info": {"tag": "\u4f11\u95f2\u5a31\u4e50;\u6d17\u6d74\u6309\u6469", "indoor_floor": "F5", "type": "life", "detail_url": "http://api.map.baidu.com/place/detail?uid=51e268267c6546b4b04c4999&output=html&source=placeapi_v2", "overall_rating": "1.0", "image_num": "1", "comment_num": "1"}}, {"name": "\u701b\u5bab\u9152\u5427", "location": {"lat": 34.259484, "lng": 108.954005}, "address": "\u5357\u5927\u88573\u53f7\u535a\u6c34\u5546\u52a1\u5927\u53a6B1", "street_id": "0a15c7eca9b31a81ed74f804", "detail": 1, "uid": "0a15c7eca9b31a81ed74f804", "detail_info": {"tag": "\u7f8e\u98df;\u9152\u5427", "navi_location": {"lng": 108.95400110767, "lat": 34.259216286087}, "type": "cater", "detail_url": "http://api.map.baidu.com/place/detail?uid=0a15c7eca9b31a81ed74f804&output=html&source=placeapi_v2", "price": "100.0", "overall_rating": "4.2", "comment_num": "207", "di_review_keyword": []}}, {"name": "\u6b63\u5fa1\u5802\u810a\u690e\u8c03\u8861\u5065\u5eb7\u4f1a\u6240", "location": {"lat": 34.261476, "lng": 108.945816}, "address": "\u897f\u5b89\u5e02\u7891\u6797\u533a\u5357\u5e7f\u6d4e\u885767\u53f7\u4f1f\u4e1a\u5927\u53a610\u5c42", "street_id": "251374c96f73b126a11de970", "detail": 1, "uid": "251374c96f73b126a11de970", "detail_info": {"tag": "\u4f11\u95f2\u5a31\u4e50;\u6d17\u6d74\u6309\u6469", "navi_location": {"lng": 108.94543607365, "lat": 34.261475521062}, "type": "life", "detail_url": "http://api.map.baidu.com/place/detail?uid=251374c96f73b126a11de970&output=html&source=placeapi_v2", "overall_rating": "5", "image_num": "14", "comment_num": "0"}}, {"name": "\u8282\u594f\u9152\u5427", "location": {"lat": 34.259969, "lng": 108.950258}, "address": "\u897f\u5b89\u7891\u6797\u533a\u5fb7\u798f\u5df726\u53f7", "street_id": "750ec165ec35a0324d3a598b", "detail": 1, "uid": "750ec165ec35a0324d3a598b", "detail_info": {"tag": "\u7f8e\u98df;\u9152\u5427", "navi_location": {"lng": 108.9503713246, "lat": 34.259976766425}, "type": "cater", "detail_url": "http://api.map.baidu.com/place/detail?uid=750ec165ec35a0324d3a598b&output=html&source=placeapi_v2", "price": "79.0", "overall_rating": "2.8", "comment_num": "4", "di_review_keyword": []}}, {"name": "\u7231\u4e01\u5821\u5ead\u9662\u5427", "location": {"lat": 34.258265, "lng": 108.943819}, "address": "\u897f\u5b89\u5e02\u7891\u6797\u533a\u987a\u57ce\u897f\u5df7d1\u53f7", "street_id": "15e1e85eab1481bb59109385", "detail": 1, "uid": "15e1e85eab1481bb59109385", "detail_info": {"tag": "\u7f8e\u98df;\u9152\u5427", "type": "cater", "detail_url": "http://api.map.baidu.com/place/detail?uid=15e1e85eab1481bb59109385&output=html&source=placeapi_v2", "price": "55.0", "overall_rating": "3.6", "groupon_num": "1", "comment_num": "13", "di_review_keyword": []}}, {"name": "RORAL-CLUB", "location": {"lat": 34.261864, "lng": 108.945912}, "address": "\u9655\u897f\u7701\u897f\u5b89\u5e02\u7891\u6797\u533a\u7c89\u5df7\u5357\u9662\u95e8\u4e94\u5473\u5341\u5b57\u8d85\u8d8a\u697c3\u697c(\u4f1f\u4e1a\u5927\u53a6\u5bf9\u9762)", "street_id": "0b74c3975da60dcaf4231092", "detail": 1, "uid": "0b74c3975da60dcaf4231092", "detail_info": {"tag": "\u7f8e\u98df;\u9152\u5427", "type": "cater", "detail_url": "http://api.map.baidu.com/place/detail?uid=0b74c3975da60dcaf4231092&output=html&source=placeapi_v2", "groupon_num": "2"}}, {"name": "\u5e7a\u4e5d", "location": {"lat": 34.258172, "lng": 108.946563}, "address": "\u4e94\u5cb3\u5e99\u95e8\u4e0e\u82a6\u8361\u5df7\u4ea4\u53c9\u53e3\u4e1c\u5357100\u7c73", "street_id": "3c1878211d2e304c2cb9089c", "detail": 1, "uid": "3c1878211d2e304c2cb9089c", "detail_info": {"tag": "\u7f8e\u98df;\u9152\u5427", "type": "cater", "detail_url": "http://api.map.baidu.com/place/detail?uid=3c1878211d2e304c2cb9089c&output=html&source=placeapi_v2"}}, {"name": "\u827a\u7f51\u5496", "location": {"lat": 34.254787, "lng": 108.938961}, "address": "\u542b\u5149\u5317\u8def155\u53f7\u9655\u897f\u7701\u56e2\u6821\u95e8\u53e3\u5317\u4fa7", "detail": 0, "uid": "7a4195db60efc6216fc02c8b", "detail_info": {"tag": "\u4f11\u95f2\u5a31\u4e50;\u7f51\u5427"}}, {"name": "\u5fb7\u798f\u697c", "location": {"lat": 34.260754, "lng": 108.950503}, "address": "\u5fb7\u798f\u5df7\u9152\u5427\u885739\u53f7", "street_id": "06f9559d2d1c4cb5bbbd630a", "telephone": "(029)87210025", "detail": 1, "uid": "b0d056f2a0aacc67cbc3dbbc", "detail_info": {"tag": "\u7f8e\u98df;\u5496\u5561\u5385", "navi_location": {"lng": 108.95032484268, "lat": 34.260991717668}, "type": "cater", "detail_url": "http://api.map.baidu.com/place/detail?uid=b0d056f2a0aacc67cbc3dbbc&output=html&source=placeapi_v2", "price": "42.0", "overall_rating": "3.8", "groupon_num": "2", "comment_num": "70", "di_review_keyword": []}}, {"name": "\u91d1\u6e2f\u6e29\u6cc9\u6d74\u6c60", "location": {"lat": 34.256261, "lng": 108.940947}, "address": "\u9655\u897f\u7701\u897f\u5b89\u5e02\u7891\u6797\u533a\u5927\u5b66\u4e1c\u8def11\u53f7\u9644\u8fd1", "street_id": "0e171aafa4f81490fa2d61bd", "detail": 1, "uid": "0e171aafa4f81490fa2d61bd", "detail_info": {"tag": "\u4f11\u95f2\u5a31\u4e50;\u6d17\u6d74\u6309\u6469", "type": "life", "detail_url": "http://api.map.baidu.com/place/detail?uid=0e171aafa4f81490fa2d61bd&output=html&source=placeapi_v2", "image_num": "3"}}, {"name": "\u9999\u69ad\u5496\u5561\u897f\u9910\u5385", "location": {"lat": 34.259922, "lng": 108.953136}, "address": "\u5927\u6e58\u5b50\u5e99\u88571\u53f7\u897f\u5b89\u5546\u4f1a\u5927\u53a61\u5c42", "street_id": "24d0550876b25fb6128824f9", "detail": 1, "uid": "24d0550876b25fb6128824f9", "detail_info": {"tag": "\u7f8e\u98df;\u5916\u56fd\u9910\u5385", "type": "cater", "detail_url": "http://api.map.baidu.com/place/detail?uid=24d0550876b25fb6128824f9&output=html&source=placeapi_v2", "price": "65.0", "overall_rating": "4.2", "comment_num": "100", "di_review_keyword": []}}, {"name": "\u968f\u7f18\u68cb\u724c", "location": {"lat": 34.261152, "lng": 108.938702}, "address": "\u897f\u5b89\u5e02\u83b2\u6e56\u533a", "street_id": "6c8a1c235c49ec95f603b829", "detail": 1, "uid": "6c8a1c235c49ec95f603b829", "detail_info": {"tag": "\u4f11\u95f2\u5a31\u4e50;\u6e38\u620f\u573a\u6240", "type": "life", "detail_url": "http://api.map.baidu.com/place/detail?uid=6c8a1c235c49ec95f603b829&output=html&source=placeapi_v2", "price": "50", "image_num": "16", "comment_num": "1"}}, {"name": "\u540d\u5178\u5496\u5561\u8bed\u8336(\u897f\u5927\u8857\u901f8\u5e97)", "location": {"lat": 34.265742, "lng": 108.937255}, "address": "\u897f\u5927\u8857\u6865\u6893\u53e3383\u53f7\u901f\u516b\u9152\u5e975\u697c", "street_id": "181653347ed0ad1dfa2d6184", "telephone": "(029)87639626", "detail": 1, "uid": "aa5a936d30608f5f82a12e0e", "detail_info": {"tag": "\u7f8e\u98df;\u5496\u5561\u5385", "navi_location": {"lng": 108.93724687, "lat": 34.26553315963}, "type": "cater", "detail_url": "http://api.map.baidu.com/place/detail?uid=aa5a936d30608f5f82a12e0e&output=html&source=placeapi_v2", "price": "20.0", "overall_rating": "4.4", "comment_num": "69", "di_review_keyword": []}}, {"name": "\u9ea6\u5b50", "location": {"lat": 34.260312, "lng": 108.950608}, "address": "\u9655\u897f\u7701\u897f\u5b89\u5e02\u7891\u6797\u533a\u5fb7\u798f\u5df723\u53f7", "street_id": "c61bd305489b7271c27da274", "detail": 1, "uid": "c61bd305489b7271c27da274", "detail_info": {"tag": "\u7f8e\u98df;\u9152\u5427", "navi_location": {"lng": 108.95036704956, "lat": 34.260184491956}, "type": "cater", "detail_url": "http://api.map.baidu.com/place/detail?uid=c61bd305489b7271c27da274&output=html&source=placeapi_v2", "price": "88.0", "overall_rating": "4.3", "comment_num": "8", "di_review_keyword": []}}, {"name": "\u65b9\u76ca\u5802\u63a8\u62ff(\u897f\u5173\u5e97)", "location": {"lat": 34.264958, "lng": 108.926682}, "address": "\u897f\u5173\u6b63\u8857120\u53f7\u82f1\u8fbe\u5927\u53a61\u680b15\u5c42", "street_id": "31db08623659c6ebe812e483", "detail": 1, "uid": "31db08623659c6ebe812e483", "detail_info": {"tag": "\u4f11\u95f2\u5a31\u4e50;\u6d17\u6d74\u6309\u6469", "type": "life", "detail_url": "http://api.map.baidu.com/place/detail?uid=31db08623659c6ebe812e483&output=html&source=placeapi_v2", "overall_rating": "4.7", "image_num": "1", "comment_num": "2"}}, {"name": "\u4e2d\u73af\u5546\u52a1\u5927\u53a6", "location": {"lat": 34.264298, "lng": 108.949648}, "address": "\u9655\u897f\u7701\u897f\u5b89\u5e02\u7891\u6797\u533a\u4e2d\u73af\u5e7f\u573aB\u5ea7", "street_id": "dffd4642eed6c5cf3c9a5e03", "detail": 1, "uid": "dffd4642eed6c5cf3c9a5e03", "detail_info": {"tag": "\u623f\u5730\u4ea7;\u5199\u5b57\u697c", "navi_location": {"lng": 108.94983230357, "lat": 34.264579458676}, "type": "life", "detail_url": "http://api.map.baidu.com/place/detail?uid=dffd4642eed6c5cf3c9a5e03&output=html&source=placeapi_v2", "image_num": "6"}}, {"name": "\u6211\u4eec\u7684\u5496\u5561\u9986", "location": {"lat": 34.258466, "lng": 108.943849}, "address": "\u592a\u9633\u5e99\u95e8\u4fdd\u5409\u5df72\u53f72\u5e623\u5c42", "street_id": "ebf959c8a61f9728e115f9a6", "telephone": "(029)87627370", "detail": 1, "uid": "ebf959c8a61f9728e115f9a6", "detail_info": {"tag": "\u7f8e\u98df;\u5496\u5561\u5385", "type": "cater", "detail_url": "http://api.map.baidu.com/place/detail?uid=ebf959c8a61f9728e115f9a6&output=html&source=placeapi_v2", "price": "24.0", "overall_rating": "4.2", "comment_num": "100", "di_review_keyword": []}}, {"name": "MEXICO\u58a8\u897f\u54e5\u9910\u5427", "location": {"lat": 34.260984, "lng": 108.930805}, "address": "\u897f\u5b89\u83b2\u6e56\u533a\u73af\u57ce\u897f\u8def\u5357\u6bb51\u53f7\u73af\u57ce\u897f\u82d1\u516c\u56ed\u5185\u5929\u54c1\u897f\u5cb8\u9152\u5427\u885721\u53f7(\u8fd1\u897f\u95e8)", "street_id": "7df6d8c04413b9b36f476006", "telephone": "(029)88778211", "detail": 1, "uid": "7df6d8c04413b9b36f476006", "detail_info": {"tag": "\u7f8e\u98df;\u9152\u5427", "navi_location": {"lng": 108.92993271652, "lat": 34.260960760802}, "type": "cater", "detail_url": "http://api.map.baidu.com/place/detail?uid=7df6d8c04413b9b36f476006&output=html&source=placeapi_v2", "price": "68.0", "overall_rating": "3.5", "groupon_num": "1", "comment_num": "103", "di_review_keyword": []}}, {"name": "\u7f8e\u597d\u4eba\u751f\u821e\u5385", "location": {"lat": 34.264202, "lng": 108.928299}, "address": "\u9655\u897f\u7701\u897f\u5b89\u5e02\u83b2\u6e56\u533a\u897f\u5173\u6b63\u885730\u53f7\u9644\u8fd1", "street_id": "62503b32d078731640ab9a61", "detail": 0, "uid": "62503b32d078731640ab9a61", "detail_info": {"tag": "\u4f11\u95f2\u5a31\u4e50;\u6b4c\u821e\u5385"}}, {"name": "\u745e\u4e30\u4e8c\u5b9d\u8fdb\u53e3\u5546\u8d38(\u6c34\u53f8\u5e97)", "location": {"lat": 34.2571, "lng": 108.929478}, "address": "\u4e30\u5e86\u8def\u745e\u4e30\u6279\u53d1\u5e02\u573a\u4e09\u697c3112\u53f7\u5546\u94fa", "street_id": "c4fdf16c9aaafe7ea3acc49c", "detail": 1, "uid": "c4fdf16c9aaafe7ea3acc49c", "detail_info": {"tag": "\u7f8e\u98df;\u9152\u5427", "type": "cater", "detail_url": "http://api.map.baidu.com/place/detail?uid=c4fdf16c9aaafe7ea3acc49c&output=html&source=placeapi_v2"}}, {"name": "\u987a\u5706\u8db3\u9053\u4fdd\u5065\u82d1", "location": {"lat": 34.263491, "lng": 108.94061}, "address": "\u83b2\u6e56\u533a\u6881\u5bb6\u724c\u697c22\u53f7", "street_id": "9f97b1c557239f05b64f54d7", "detail": 1, "uid": "9f97b1c557239f05b64f54d7", "detail_info": {"tag": "\u4f11\u95f2\u5a31\u4e50;\u6d17\u6d74\u6309\u6469", "type": "life", "detail_url": "http://api.map.baidu.com/place/detail?uid=9f97b1c557239f05b64f54d7&output=html&source=placeapi_v2", "overall_rating": "5.0", "image_num": "9", "comment_num": "1"}}, {"name": "\u59d0\u59b9\u8db3\u6d74\u5e97", "location": {"lat": 34.262981, "lng": 108.927827}, "address": "\u516b\u4f73\u8def34\u53f7\u9644\u8fd1", "detail": 1, "uid": "96dd45f0472b65fac17da243", "detail_info": {"tag": "\u4f11\u95f2\u5a31\u4e50;\u6d17\u6d74\u6309\u6469", "type": "life", "detail_url": "http://api.map.baidu.com/place/detail?uid=96dd45f0472b65fac17da243&output=html&source=placeapi_v2", "image_num": "1"}}, {"name": "\u8f7b\u677e\u4f11\u95f2\u9601", "location": {"lat": 34.256261, "lng": 108.941095}, "address": "\u5927\u5b66\u4e1c\u8def11\u53f7\u9644\u8fd1", "street_id": "3f826ed3d3a5aa46d1f49e01", "detail": 1, "uid": "3f826ed3d3a5aa46d1f49e01", "detail_info": {"tag": "\u4f11\u95f2\u5a31\u4e50;\u6d17\u6d74\u6309\u6469", "type": "life", "detail_url": "http://api.map.baidu.com/place/detail?uid=3f826ed3d3a5aa46d1f49e01&output=html&source=placeapi_v2", "image_num": "4", "comment_num": "0"}}, {"name": "\u65b0\u81ea\u7531\u9e1f\u82f1\u96c4\u8054\u76df\u4e3b\u9898\u7f51\u5427", "location": {"lat": 34.269965, "lng": 108.941658}, "address": "\u897f\u4ed3\u5357\u5df724\u53f7", "street_id": "9d9169bfac699fa7e115f93a", "detail": 1, "uid": "9d9169bfac699fa7e115f93a", "detail_info": {"tag": "\u4f11\u95f2\u5a31\u4e50;\u7f51\u5427", "type": "life", "detail_url": "http://api.map.baidu.com/place/detail?uid=9d9169bfac699fa7e115f93a&output=html&source=placeapi_v2", "overall_rating": "2", "image_num": "8", "comment_num": "1"}}, {"name": "\u5927\u811a\u677f", "location": {"lat": 34.256386, "lng": 108.930242}, "address": "\u897f\u5b89\u5e02\u7891\u6797\u533a", "street_id": "de712eb286703365a3acc49c", "detail": 0, "uid": "de712eb286703365a3acc49c", "detail_info": {"tag": "\u4f11\u95f2\u5a31\u4e50;\u6d17\u6d74\u6309\u6469"}}, {"name": "\u7d2b\u8431\u4fdd\u5065\u6309\u6469\u9986", "location": {"lat": 34.266354, "lng": 108.926482}, "address": "\u897f\u5173\u6b63\u8857\u738b\u5bb6\u5df79\u53f7", "street_id": "36ba985495ab79212fe67b6f", "detail": 1, "uid": "36ba985495ab79212fe67b6f", "detail_info": {"tag": "\u4f11\u95f2\u5a31\u4e50;\u6d17\u6d74\u6309\u6469", "type": "life", "detail_url": "http://api.map.baidu.com/place/detail?uid=36ba985495ab79212fe67b6f&output=html&source=placeapi_v2", "image_num": "1"}}, {"name": "\u6843\u6e90\u4e61\u684c\u9762\u6e38\u620f", "location": {"lat": 34.263963, "lng": 108.953059}, "address": "\u7891\u6797\u533a\u5357\u5927\u885780\u53f7\u5916\u8d38\u56fd\u96457\u697c(\u8fd1\u949f\u697c)", "street_id": "e93761f66b42c515223bf204", "detail": 1, "uid": "e93761f66b42c515223bf204", "detail_info": {"tag": "\u4f11\u95f2\u5a31\u4e50;\u6e38\u620f\u573a\u6240", "type": "life", "detail_url": "http://api.map.baidu.com/place/detail?uid=e93761f66b42c515223bf204&output=html&source=placeapi_v2", "overall_rating": "4.7", "image_num": "1"}}, {"name": "TheOneClub", "location": {"lat": 34.26157, "lng": 108.95285}, "address": "\u9655\u897f\u7701\u897f\u5b89\u5e02\u7891\u6797\u533a\u5357\u5927\u885746\u53f7", "street_id": "c8a980b55cd7715dc356ac52", "detail": 1, "uid": "c8a980b55cd7715dc356ac52", "detail_info": {"tag": "\u4f11\u95f2\u5a31\u4e50", "navi_location": {"lng": 108.95305021985, "lat": 34.261406426964}, "type": "life", "detail_url": "http://api.map.baidu.com/place/detail?uid=c8a980b55cd7715dc356ac52&output=html&source=placeapi_v2", "overall_rating": "5", "image_num": "3", "comment_num": "1"}}, {"name": "\u6bcf\u5929\u6d17\u6d74", "location": {"lat": 34.264317, "lng": 108.932205}, "address": "\u897f\u5927\u8857330\u53f7", "street_id": "e4026b633c343bd60d3dda7e", "detail": 1, "uid": "e4026b633c343bd60d3dda7e", "detail_info": {"tag": "\u4f11\u95f2\u5a31\u4e50;\u6d17\u6d74\u6309\u6469", "navi_location": {"lng": 108.93203655162, "lat": 34.264304437841}, "type": "life", "detail_url": "http://api.map.baidu.com/place/detail?uid=e4026b633c343bd60d3dda7e&output=html&source=placeapi_v2", "image_num": "3", "comment_num": "1"}}, {"name": "\u7687\u57ce\u5496\u5561(\u897f\u5927\u8857\u5e97)", "location": {"lat": 34.265892, "lng": 108.937361}, "address": "\u897f\u5927\u8857383\u53f7\u987a\u4e30\u5546\u52a1\u9152\u5e975\u697c", "street_id": "b3d4b983e5291f4f2fb17ee7", "telephone": "(029)87639626", "detail": 1, "uid": "b3d4b983e5291f4f2fb17ee7", "detail_info": {"tag": "\u7f8e\u98df;\u5496\u5561\u5385", "type": "cater", "detail_url": "http://api.map.baidu.com/place/detail?uid=b3d4b983e5291f4f2fb17ee7&output=html&source=placeapi_v2", "price": "37.0", "overall_rating": "3.5", "groupon_num": "2", "comment_num": "104", "di_review_keyword": []}}, {"name": "Tao\u9152\u5427", "location": {"lat": 34.258164, "lng": 108.943848}, "address": "\u5c0f\u5357\u95e8\u91cc\u987a\u57ce\u5df7\u5411\u4e1c50\u7c73", "street_id": "e22701e531d9b7a3f7b91681", "detail": 1, "uid": "e22701e531d9b7a3f7b91681", "detail_info": {"tag": "\u7f8e\u98df;\u9152\u5427", "type": "cater", "detail_url": "http://api.map.baidu.com/place/detail?uid=e22701e531d9b7a3f7b91681&output=html&source=placeapi_v2", "overall_rating": "5", "groupon_num": "1", "comment_num": "18", "di_review_keyword": []}}, {"name": "\u8db3\u4e09\u91cc", "location": {"lat": 34.255105, "lng": 108.945385}, "address": "\u6731\u96c0\u5927\u885799\u53f7\u6731\u96c0\u5927\u8857\u4e0e\u73af\u57ce\u5357\u8def\u5341\u5b57\u8def\u53e3\u5411\u5357150\u7c73\u8def\u897f", "street_id": "beb1e667a7f81cb0a11de9d5", "detail": 1, "uid": "beb1e667a7f81cb0a11de9d5", "detail_info": {"tag": "\u4f11\u95f2\u5a31\u4e50;\u6d17\u6d74\u6309\u6469", "type": "life", "detail_url": "http://api.map.baidu.com/place/detail?uid=beb1e667a7f81cb0a11de9d5&output=html&source=placeapi_v2", "price": "83.0", "image_num": "2", "comment_num": "2"}}, {"name": "\u5f6d\u6c0f\u4fee\u811a", "location": {"lat": 34.261828, "lng": 108.942705}, "address": "\u9655\u897f\u7701\u897f\u5b89\u5e02\u7891\u6797\u533a\u4e94\u5473\u4ec0\u5b57\u885714\u53f7(\u5e7f\u64ad\u7535\u89c6\u5927\u5b66\u897f\u4fa7)", "street_id": "a6461b2a76dbe1a08e7727cd", "detail": 1, "uid": "a6461b2a76dbe1a08e7727cd", "detail_info": {"tag": "\u4f11\u95f2\u5a31\u4e50;\u6d17\u6d74\u6309\u6469", "type": "life", "detail_url": "http://api.map.baidu.com/place/detail?uid=a6461b2a76dbe1a08e7727cd&output=html&source=placeapi_v2", "image_num": "1"}}, {"name": "\u5927\u4f17\u6e29\u6cc9\u6d74\u6c60", "location": {"lat": 34.26107, "lng": 108.94921}, "address": "\u9655\u897f\u7701\u897f\u5b89\u5e02\u7891\u6797\u533a\u5c0f\u8f66\u5bb6\u5df75", "street_id": "541d04b15e385c16bb17e7ed", "detail": 1, "uid": "541d04b15e385c16bb17e7ed", "detail_info": {"tag": "\u4f11\u95f2\u5a31\u4e50;\u6d17\u6d74\u6309\u6469", "type": "life", "detail_url": "http://api.map.baidu.com/place/detail?uid=541d04b15e385c16bb17e7ed&output=html&source=placeapi_v2", "image_num": "1"}}, {"name": "THE CAFE KECOOL", "location": {"lat": 34.265236, "lng": 108.94327}, "address": "\u897f\u5b89\u5e02\u7891\u6797\u533a\u4e8c\u73af\u8def\u6cbf\u7ebf\u5546\u4e1a\u7ecf\u6d4e\u5e26\u897f\u5927\u8857(\u8fd1\u897f\u5927\u8857\u5e7f\u6d4e\u8857)", "street_id": "b07d1e936f357d03eaf853f7", "telephone": "(029)87629109", "detail": 1, "uid": "b07d1e936f357d03eaf853f7", "detail_info": {"tag": "\u7f8e\u98df;\u5496\u5561\u5385", "type": "cater", "detail_url": "http://api.map.baidu.com/place/detail?uid=b07d1e936f357d03eaf853f7&output=html&source=placeapi_v2", "price": "33.0", "overall_rating": "4.0", "comment_num": "26", "di_review_keyword": []}}, {"name": "\u5c0f\u8d3e\u8db3\u7597\u6ce1\u811a\u4fee\u811a\u6309\u6469", "location": {"lat": 34.264013, "lng": 108.934324}, "address": "\u9a86\u9a7c\u5df73\u53f7", "street_id": "5e86c935851043d6a21de98e", "detail": 1, "uid": "5e86c935851043d6a21de98e", "detail_info": {"tag": "\u4f11\u95f2\u5a31\u4e50;\u6d17\u6d74\u6309\u6469", "navi_location": {"lng": 108.93433560467, "lat": 34.263833792168}, "type": "life", "detail_url": "http://api.map.baidu.com/place/detail?uid=5e86c935851043d6a21de98e&output=html&source=placeapi_v2", "overall_rating": "3", "image_num": "7", "comment_num": "1"}}, {"name": "\u6587\u82d1\u5927\u9152\u5e97-\u6d17\u6d74\u4e2d\u5fc3", "location": {"lat": 34.266639, "lng": 108.951108}, "address": "\u949f\u9f13\u697c\u5e7f\u573a\u5317\u4fa7/\u793e\u4f1a\u8def8\u53f7\u6587\u82d1\u5927\u9152\u5e97\u5185", "street_id": "2eac69190a61fcbec16c143e", "detail": 1, "uid": "2eac69190a61fcbec16c143e", "detail_info": {"tag": "\u4f11\u95f2\u5a31\u4e50;\u6d17\u6d74\u6309\u6469", "navi_location": {"lng": 108.95026250746, "lat": 34.266613441063}, "type": "life", "detail_url": "http://api.map.baidu.com/place/detail?uid=2eac69190a61fcbec16c143e&output=html&source=placeapi_v2", "overall_rating": "1", "image_num": "3", "comment_num": "1"}}, {"name": "\u661f\u5df4\u514b(\u949f\u697c\u5e97)", "location": {"lat": 34.266598, "lng": 108.952851}, "address": "\u897f\u5927\u88571\u53f7\u949f\u9f13\u697c\u5e7f\u573a\u6b65\u884c\u5546\u4e1a\u885741\u53f7", "street_id": "ae80a34af4d1786a210262dd", "telephone": "(029)87265863", "detail": 1, "uid": "4eb3b5331af82e764302452f", "detail_info": {"tag": "\u7f8e\u98df;\u5496\u5561\u5385", "navi_location": {"lng": 108.94995719139, "lat": 34.266172614774}, "type": "cater", "detail_url": "http://api.map.baidu.com/place/detail?uid=4eb3b5331af82e764302452f&output=html&source=placeapi_v2", "price": "33.0", "overall_rating": "4.4", "comment_num": "100", "di_review_keyword": []}}, {"name": "\u56fe\u817e\u7f51\u7edc\u4ff1\u4e50\u90e8", "location": {"lat": 34.260959, "lng": 108.946575}, "address": "\u82a6\u8361\u5df732\u53f7", "street_id": "504d6113f45a7daa4757268f", "detail": 1, "uid": "504d6113f45a7daa4757268f", "detail_info": {"tag": "\u4f11\u95f2\u5a31\u4e50;\u7f51\u5427", "navi_location": {"lng": 108.94664688258, "lat": 34.26095910985}, "type": "life", "detail_url": "http://api.map.baidu.com/place/detail?uid=504d6113f45a7daa4757268f&output=html&source=placeapi_v2", "overall_rating": "2.5", "image_num": "8", "comment_num": "4"}}, {"name": "\u7a84\u5df7\u5b50\u5496\u5561\u9986", "location": {"lat": 34.270495, "lng": 108.950511}, "address": "\u9655\u897f\u7701\u897f\u5b89\u5e02\u83b2\u6e56\u533a\u5317\u9662\u95e8\u62d0\u89d2\u5904\u897f\u534e\u95e8\u5927\u885718\u53f7", "street_id": "bba646c2798839f6a6da39a0", "telephone": "(029)87274319", "detail": 1, "uid": "bba646c2798839f6a6da39a0", "detail_info": {"tag": "\u7f8e\u98df;\u5496\u5561\u5385", "type": "cater", "detail_url": "http://api.map.baidu.com/place/detail?uid=bba646c2798839f6a6da39a0&output=html&source=placeapi_v2", "price": "10.0", "overall_rating": "4.4", "comment_num": "16", "di_review_keyword": []}}, {"name": "\u5458\u82d1\u5496\u5561", "location": {"lat": 34.269815, "lng": 108.952644}, "address": "\u897f\u5b89\u5e02\u83b2\u6e56\u533a\u5317\u5927\u885788\u53f7\u65b0\u4e16\u754c\u767e\u8d27M", "street_id": "71f141ea658e62bda1d230f3", "detail": 1, "uid": "71f141ea658e62bda1d230f3", "detail_info": {"tag": "\u7f8e\u98df;\u5496\u5561\u5385", "indoor_floor": "M", "type": "cater", "detail_url": "http://api.map.baidu.com/place/detail?uid=71f141ea658e62bda1d230f3&output=html&source=placeapi_v2"}}, {"name": "\u540e\u9662\u5f71\u5427", "location": {"lat": 34.262008, "lng": 108.941587}, "address": "\u4e94\u661f\u885719", "street_id": "3e35bc125412973c276e9857", "telephone": "(029)87615961", "detail": 1, "uid": "3e35bc125412973c276e9857", "detail_info": {"tag": "\u8d2d\u7269;\u5546\u94fa", "type": "life", "detail_url": "http://api.map.baidu.com/place/detail?uid=3e35bc125412973c276e9857&output=html&source=placeapi_v2", "overall_rating": "4.6", "image_num": "92", "comment_num": "1"}}, {"name": "\u9716\u56ed\u6cc9", "location": {"lat": 34.269408, "lng": 108.941767}, "address": "\u9655\u897f\u7701\u897f\u5b89\u5e02\u83b2\u6e56\u533a\u5e99\u540e\u8857\u897f\u4ed3\u5357\u5df7\u79e6\u57ce\u5c0f\u5df7\u9752\u5e74\u65c5\u820d\u4e1c\u5357", "street_id": "ada3b4cd1e9219fcb74f54a0", "detail": 1, "uid": "ada3b4cd1e9219fcb74f54a0", "detail_info": {"tag": "\u4f11\u95f2\u5a31\u4e50;\u6d17\u6d74\u6309\u6469", "type": "life", "detail_url": "http://api.map.baidu.com/place/detail?uid=ada3b4cd1e9219fcb74f54a0&output=html&source=placeapi_v2", "overall_rating": "5", "image_num": "7", "comment_num": "1"}}, {"name": "kt\u5496\u5561", "location": {"lat": 34.263443, "lng": 108.953134}, "address": "\u5357\u5927\u885770\u53f7\u897f\u5b89\u57ce\u5e02\u9152\u5e972\u697c", "street_id": "093ecf3cd5bf2410581093b5", "telephone": "(029)87278700", "detail": 1, "uid": "093ecf3cd5bf2410581093b5", "detail_info": {"tag": "\u7f8e\u98df;\u5496\u5561\u5385", "type": "cater", "detail_url": "http://api.map.baidu.com/place/detail?uid=093ecf3cd5bf2410581093b5&output=html&source=placeapi_v2", "overall_rating": "3", "comment_num": "1"}}, {"name": "\u674e\u7956\u6b63\u9aa8\u63a8\u62ff(\u83dc\u5751\u5cb8)", "location": {"lat": 34.264036, "lng": 108.9345}, "address": "\u897f\u95e8\u9a86\u9a7c\u5df73\u53f7\u697c1\u95e84\u5df7", "street_id": "2a8b98ff3a59941cf60e7700", "detail": 1, "uid": "2a8b98ff3a59941cf60e7700", "detail_info": {"tag": "\u4f11\u95f2\u5a31\u4e50;\u6d17\u6d74\u6309\u6469", "type": "life", "detail_url": "http://api.map.baidu.com/place/detail?uid=2a8b98ff3a59941cf60e7700&output=html&source=placeapi_v2", "image_num": "5"}}, {"name": "\u897f\u5b89\u5357\u95e8\u5e7f\u573a", "location": {"lat": 34.255725, "lng": 108.953201}, "address": "\u9655\u897f\u7701\u897f\u5b89\u5e02\u7891\u6797\u533a\u73af\u57ce\u5357\u8def\u6c38\u5b81\u95e8\u4e2d\u534e\u7b2c\u4e00\u8fce\u5bbe\u793c\u4eea\u5e7f\u573a", "street_id": "aae401607ab3d1be8bf15de7", "detail": 1, "uid": "aae401607ab3d1be8bf15de7", "detail_info": {"tag": "\u4f11\u95f2\u5a31\u4e50;\u4f11\u95f2\u5e7f\u573a", "navi_location": {"lng": 108.95427428328, "lat": 34.254632328076}, "type": "life", "detail_url": "http://api.map.baidu.com/place/detail?uid=aae401607ab3d1be8bf15de7&output=html&source=placeapi_v2", "image_num": "8", "comment_num": "1"}}, {"name": "\u57c3\u5c14\u5496\u5561", "location": {"lat": 34.262766, "lng": 108.928966}, "address": "\u897f\u95e8\u5916\u73af\u57ce\u897f\u8def\u516b\u4f73\u8def\u5174\u9633\u9152\u5e97\u4e8c\u697c", "street_id": "840b956cf883c9f022f0178b", "telephone": "(029)88695995", "detail": 1, "uid": "840b956cf883c9f022f0178b", "detail_info": {"tag": "\u7f8e\u98df;\u5496\u5561\u5385", "type": "cater", "detail_url": "http://api.map.baidu.com/place/detail?uid=840b956cf883c9f022f0178b&output=html&source=placeapi_v2", "price": "28.0", "overall_rating": "4.5", "comment_num": "50", "di_review_keyword": []}}, {"name": "\u7075\u9f99\u6cc9\u8001\u9a6c\u4fee\u811a\u5ba4", "location": {"lat": 34.268056, "lng": 108.937666}, "address": "\u4e1c\u4e3e\u9662\u5df727\u53f7", "street_id": "324de624a52399ca17948e49", "telephone": "13484905105", "detail": 1, "uid": "324de624a52399ca17948e49", "detail_info": {"tag": "\u9152\u5e97;\u5176\u4ed6", "type": "life", "detail_url": "http://api.map.baidu.com/place/detail?uid=324de624a52399ca17948e49&output=html&source=placeapi_v2", "overall_rating": "5.0", "image_num": "8"}}, {"name": "\u5317\u6d77\u9053\u7687\u5bb6\u6c34\u4f1a", "location": {"lat": 34.258329, "lng": 108.936328}, "address": "\u542b\u5149\u95e8\u8f6c\u76d8\u5411\u5317100\u7c73\u9038\u5609\u9152\u5e97B1\u5c42", "street_id": "b478370122717454774ff184", "detail": 1, "uid": "b478370122717454774ff184", "detail_info": {"tag": "\u4f11\u95f2\u5a31\u4e50;\u6d17\u6d74\u6309\u6469", "type": "life", "detail_url": "http://api.map.baidu.com/place/detail?uid=b478370122717454774ff184&output=html&source=placeapi_v2", "image_num": "1"}}, {"name": "\u4e1c\u5e9c\u5bbe\u9986", "location": {"lat": 34.264909, "lng": 108.928782}, "address": "\u897f\u5b89\u83b2\u6e56\u533a\u897f\u5173\u6b63\u88572\u53f7\u897f\u95e8\u5916\u4eba\u4eba\u4e50\u8d85\u5e02\u65c1", "street_id": "d6df91c138607c73f7b916c5", "telephone": "(029)81329578", "detail": 1, "uid": "d6df91c138607c73f7b916c5", "detail_info": {"tag": "\u9152\u5e97;\u5176\u4ed6", "type": "hotel", "detail_url": "http://api.map.baidu.com/place/detail?uid=d6df91c138607c73f7b916c5&output=html&source=placeapi_v2", "price": "73.0", "overall_rating": "3.7", "service_rating": "3.2", "facility_rating": "2.9", "hygiene_rating": "2.5", "image_num": "28", "comment_num": "11", "favorite_num": "0", "checkin_num": "0"}}, {"name": "\u674e\u4e16\u63a8\u62ff", "location": {"lat": 34.256474, "lng": 108.94461}, "address": "\u897f\u5b89\u5e02\u7891\u6797\u533a", "street_id": "5fc0afc9135019ef601809cd", "detail": 1, "uid": "5fc0afc9135019ef601809cd", "detail_info": {"tag": "\u4f11\u95f2\u5a31\u4e50;\u6d17\u6d74\u6309\u6469", "type": "life", "detail_url": "http://api.map.baidu.com/place/detail?uid=5fc0afc9135019ef601809cd&output=html&source=placeapi_v2", "image_num": "1"}}, {"name": "\u946b\u7389\u6d17\u6d74\u4e2d\u5fc3", "location": {"lat": 34.263862, "lng": 108.929512}, "address": "\u73af\u57ce\u897f\u8def\u5357\u6bb572\u53f77\u5929\u9152\u5e97\u897f\u5b89\u897f\u95e8\u5e974\u5c42", "street_id": "aeace9f32997655bd8d891e2", "detail": 1, "uid": "aeace9f32997655bd8d891e2", "detail_info": {"tag": "\u4f11\u95f2\u5a31\u4e50;\u6d17\u6d74\u6309\u6469", "navi_location": {"lng": 108.92974054741, "lat": 34.263873410425}, "type": "life", "detail_url": "http://api.map.baidu.com/place/detail?uid=aeace9f32997655bd8d891e2&output=html&source=placeapi_v2", "image_num": "8", "comment_num": "0"}}, {"name": "\u8717\u725bBAR", "location": {"lat": 34.260089, "lng": 108.950208}, "address": "\u5fb7\u798f\u5df730", "street_id": "9a156abbb6876b15932ca3c2", "telephone": "15191589659", "detail": 1, "uid": "9a156abbb6876b15932ca3c2", "detail_info": {"tag": "\u7f8e\u98df;\u9152\u5427", "type": "cater", "detail_url": "http://api.map.baidu.com/place/detail?uid=9a156abbb6876b15932ca3c2&output=html&source=placeapi_v2"}}, {"name": "\u6e29\u99a8\u5c4b\u68cb\u724c", "location": {"lat": 34.261051, "lng": 108.938416}, "address": "\u751c\u6c34\u4e95\u885758", "street_id": "9b25c8efa1dff013c3f1cf7c", "detail": 1, "uid": "9b25c8efa1dff013c3f1cf7c", "detail_info": {"tag": "\u4f11\u95f2\u5a31\u4e50;\u6e38\u620f\u573a\u6240", "type": "life", "detail_url": "http://api.map.baidu.com/place/detail?uid=9b25c8efa1dff013c3f1cf7c&output=html&source=placeapi_v2", "image_num": "5"}}, {"name": "\u897f\u96c5\u57ce\u7535\u5f71\u57ce", "location": {"lat": 34.265061, "lng": 108.948917}, "address": "\u897f\u5b89\u5e02\u7891\u6797\u533a\u897f\u5927\u885748\u53f7\u94f6\u6cf0\u767e\u8d27F7", "street_id": "4c0049ed7388b34fc51e518f", "detail": 1, "uid": "4c0049ed7388b34fc51e518f", "detail_info": {"tag": "\u4f11\u95f2\u5a31\u4e50;\u7535\u5f71\u9662", "navi_location": {"lng": 108.94991468447, "lat": 34.264791484598}, "indoor_floor": "F7", "type": "life", "detail_url": "http://api.map.baidu.com/place/detail?uid=4c0049ed7388b34fc51e518f&output=html&source=placeapi_v2", "image_num": "1"}}, {"name": "\u5458\u5496\u5561", "location": {"lat": 34.270019, "lng": 108.952933}, "address": "\u83b2\u6e56\u533a\u5317\u5927\u8857\u65b0\u4e16\u754c\u767e\u8d27\u8d1f\u4e00\u5c4282\u53f7(\u9760\u5546\u573a\u5317\u95e8\u4e0b\u7535\u68af)", "street_id": "271825f24081cff3a5da396c", "telephone": "(029)87368100", "detail": 1, "uid": "271825f24081cff3a5da396c", "detail_info": {"tag": "\u7f8e\u98df;\u5496\u5561\u5385", "type": "cater", "detail_url": "http://api.map.baidu.com/place/detail?uid=271825f24081cff3a5da396c&output=html&source=placeapi_v2", "price": "30.0", "overall_rating": "4.4", "groupon_num": "2", "comment_num": "100", "di_review_keyword": []}}, {"name": "\u661f\u7a0b\u857e\u5fb7\u66fc\u9152\u5e97\u6731\u96c0\u5e97-\u6851\u62ff\u6d74\u5ba4", "location": {"lat": 34.260298, "lng": 108.94525}, "address": "\u9655\u897f\u7701\u897f\u5b89\u5e02\u7891\u6797\u533a\u6731\u96c0\u95e8\u91cc\u5357\u5e7f\u6d4e\u885736\u53f7\u661f\u7a0b\u857e\u5fb7\u66fc\u9152\u5e97\u6731\u96c0\u5e97", "street_id": "f6c6eeb59f300a1c52e5c516", "detail": 1, "uid": "f6c6eeb59f300a1c52e5c516", "detail_info": {"tag": "\u4f11\u95f2\u5a31\u4e50;\u6d17\u6d74\u6309\u6469", "type": "life", "detail_url": "http://api.map.baidu.com/place/detail?uid=f6c6eeb59f300a1c52e5c516&output=html&source=placeapi_v2", "image_num": "1"}}, {"name": "\u52a8\u611f4D\u5f71\u9662", "location": {"lat": 34.267458, "lng": 108.936012}, "address": "\u9655\u897f\u7701\u897f\u5b89\u5e02\u83b2\u6e56\u533a\u897f\u4e3e\u9662\u5df77-1\u53f7", "street_id": "0e1a561e667ac2db100daaf7", "detail": 1, "uid": "0e1a561e667ac2db100daaf7", "detail_info": {"tag": "\u4f11\u95f2\u5a31\u4e50;\u7535\u5f71\u9662", "navi_location": {"lng": 108.93620106272, "lat": 34.267525446281}, "type": "life", "detail_url": "http://api.map.baidu.com/place/detail?uid=0e1a561e667ac2db100daaf7&output=html&source=placeapi_v2", "image_num": "3"}}, {"name": "\u6771\u6765\u7f51\u5496", "location": {"lat": 34.26231, "lng": 108.947001}, "address": "\u897f\u5b89\u5e02\u7891\u6797\u533a", "detail": 1, "uid": "d942c56410d6d7d29122e046", "detail_info": {"tag": "\u4f11\u95f2\u5a31\u4e50;\u7f51\u5427", "type": "life", "detail_url": "http://api.map.baidu.com/place/detail?uid=d942c56410d6d7d29122e046&output=html&source=placeapi_v2", "image_num": "1"}}, {"name": "K", "location": {"lat": 34.258164, "lng": 108.941931},