[{"name": "\u56de\u6c11\u8857", "location": {"lat": 34.266723, "lng": 108.950249}, "address": "\u897f\u5b89\u5e02\u83b2\u6e56\u533a\u897f\u5927\u88571\u53f7\u56de\u6c11\u8857\u8857\u53e3", "street_id": "bff8fa7d9c8b08b9c8213d55", "detail": 1, "uid": "bff8fa7d9c8b08b9c8213d55", "detail_info": {"tag": "\u7f8e\u98df;\u5176\u4ed6", "navi_location": {"lng": 108.95005435481, "lat": 34.267606548986}, "type": "cater", "detail_url": "http://api.map.baidu.com/place/detail?uid=bff8fa7d9c8b08b9c8213d55&output=html&source=placeapi_v2", "price": "40.0", "overall_rating": "2.3", "comment_num": "172", "di_review_keyword": []}}, {"name": "\u5b9a\u5bb6\u5c0f\u9165\u8089", "location": {"lat": 34.270727, "lng": 108.945607}, "address": "\u897f\u5b89\u5e02\u83b2\u6e56\u533a\u5927\u76ae\u9662\u897f\u53e3223\u53f7", "street_id": "92b806d23e997de779b55c57", "telephone": "(029)87334853", "detail": 1, "uid": "92b806d23e997de779b55c57", "detail_info": {"tag": "\u7f8e\u98df;\u4e2d\u9910\u5385", "navi_location": {"lng": 108.94562601946, "lat": 34.270657706311}, "type": "cater", "detail_url": "http://api.map.baidu.com/place/detail?uid=92b806d23e997de779b55c57&output=html&source=placeapi_v2", "price": "22.0", "overall_rating": "3.5", "comment_num": "100", "di_review_keyword": []}}, {"name": "\u540c\u76db\u658b\u725b\u7f8a\u8089\u6ce1\u998d", "location": {"lat": 34.263915, "lng": 108.936666}, "address": "\u9655\u897f\u7701\u897f\u5b89\u5e02\u83b2\u6e56\u533a\u5510\u4eba\u6b65\u884c\u8857C\u5ea77\u53f7(\u897f\u5927\u8857\u590f\u5bb6\u5341\u5b57\u53e3)", "street_id": "97576a2fc8e889da8a36ee64", "telephone": "15389085825,13571924088", "detail": 1, "uid": "97576a2fc8e889da8a36ee64", "detail_info": {"tag": "\u7f8e\u98df;\u4e2d\u9910\u5385", "navi_location": {"lng": 108.9366214697, "lat": 34.263852746054}, "type": "cater", "detail_url": "http://api.map.baidu.com/place/detail?uid=97576a2fc8e889da8a36ee64&output=html&source=placeapi_v2", "price": "31.0", "overall_rating": "4.2", "comment_num": "28", "di_review_keyword": []}}, {"name": "\u6d77\u5e95\u635e(\u897f\u5173\u5e97)", "location": {"lat": 34.264918, "lng": 108.927749}, "address": "\u83b2\u6e56\u533a\u897f\u5173\u6b63\u885730\u53f7", "street_id": "f4a33da9a70f81103010affc", "telephone": "029-88623252", "detail": 1, "uid": "f4a33da9a70f81103010affc", "detail_info": {"tag": "\u7f8e\u98df;\u4e2d\u9910\u5385", "navi_location": {"lng": 108.92790670432, "lat": 34.265072459011}, "type": "cater", "detail_url": "http://api.map.baidu.com/place/detail?uid=f4a33da9a70f81103010affc&output=html&source=placeapi_v2", "price": "96.0", "overall_rating": "4.8", "comment_num": "100", "di_review_keyword": []}}, {"name": "\u897f\u5b89\u996d\u5e84\u603b\u5e97", "location": {"lat": 34.26473, "lng": 108.952945}, "address": "\u5357\u5927\u8857110\u53f7\uff08\u949f\u697c\u897f\u5357\u89d2\uff09\u949f\u697c\u996d\u5e97", "telephone": "(029)87600115,(029)87680880,4000908621", "detail": 1, "uid": "a37dfb1eeea8bf162bd7ab12", "detail_info": {"tag": "\u7f8e\u98df;\u4e2d\u9910\u5385", "type": "cater", "detail_url": "http://api.map.baidu.com/place/detail?uid=a37dfb1eeea8bf162bd7ab12&output=html&source=placeapi_v2", "price": "69.0", "overall_rating": "4.5", "comment_num": "3", "di_review_keyword": []}}, {"name": "\u5fb7\u99a8\u658b\u725b\u7f8a\u8089\u6ce1\u998d", "location": {"lat": 34.263506, "lng": 108.950085}, "address": "\u7af9\u7b06\u5e0240\u53f7", "street_id": "03e884fddadffba4abf7298b", "telephone": "13892826020", "detail": 1, "uid": "03e884fddadffba4abf7298b", "detail_info": {"tag": "\u7f8e\u98df;\u4e2d\u9910\u5385", "type": "cater", "detail_url": "http://api.map.baidu.com/place/detail?uid=03e884fddadffba4abf7298b&output=html&source=placeapi_v2", "price": "38.0", "overall_rating": "4.2", "groupon_num": "1", "comment_num": "22", "di_review_keyword": []}}, {"name": "\u5916\u5a46\u5370\u8c61(\u5317\u5927\u8857\u6c11\u751f\u56fd\u9645\u5e97)", "location": {"lat": 34.267921, "lng": 108.952413}, "address": "\u5317\u5927\u885728\u53f7\u6c11\u751f\u767e\u8d278\u5c42", "street_id": "2a7a25ec6d97877a6c3e1b4d", "telephone": "029-63395485", "detail": 1, "uid": "2a7a25ec6d97877a6c3e1b4d", "detail_info": {"tag": "\u7f8e\u98df;\u4e2d\u9910\u5385", "navi_location": {"lng": 108.95337404192, "lat": 34.267587930234}, "indoor_floor": "F8", "type": "cater", "detail_url": "http://api.map.baidu.com/place/detail?uid=2a7a25ec6d97877a6c3e1b4d&output=html&source=placeapi_v2", "price": "48.0", "overall_rating": "4.0", "groupon_num": "1", "comment_num": "100", "di_review_keyword": []}}, {"name": "\u8001\u91d1\u5bb6\u86cb\u83dc\u5939\u998d", "location": {"lat": 34.269721, "lng": 108.939148}, "address": "\u897f\u5b89\u5e02\u83b2\u6e56\u533a\u6d12\u91d1\u68655\u53f7(\u8fd1\u9a6c\u7ee7\u660e\u8089\u4e38\u80e1\u8fa3\u6c64)", "street_id": "c8ee53093174060979dbd215", "telephone": "13689241491", "detail": 1, "uid": "c8ee53093174060979dbd215", "detail_info": {"tag": "\u7f8e\u98df;\u4e2d\u9910\u5385", "navi_location": {"lng": 108.93907568437, "lat": 34.269468192771}, "type": "cater", "detail_url": "http://api.map.baidu.com/place/detail?uid=c8ee53093174060979dbd215&output=html&source=placeapi_v2", "price": "7.0", "overall_rating": "4.4", "comment_num": "12", "di_review_keyword": []}}, {"name": "\u8001\u7897(\u6e58\u5b50\u5e99\u8857\u5e97)", "location": {"lat": 34.258839, "lng": 108.949225}, "address": "\u897f\u5b89\u7891\u6797\u533a\u6e58\u5b50\u5e99\u885755\u53f7\u6e58\u5b50\u5e99\u897f200\u7c73\u8def\u5317(\u8fd1\u5927\u8f66\u5bb6\u5df7\u8def)", "street_id": "5ce2637da3a55b48ae31e509", "telephone": "029-68893666,029-87242253", "detail": 1, "uid": "5ce2637da3a55b48ae31e509", "detail_info": {"tag": "\u7f8e\u98df;\u4e2d\u9910\u5385", "navi_location": {"lng": 108.94928918895, "lat": 34.258696053828}, "type": "cater", "detail_url": "http://api.map.baidu.com/place/detail?uid=5ce2637da3a55b48ae31e509&output=html&source=placeapi_v2", "price": "30.0", "overall_rating": "4.1", "comment_num": "20", "di_review_keyword": []}}, {"name": "\u5929\u53d1\u82bd", "location": {"lat": 34.258428, "lng": 108.941531}, "address": "\u897f\u5b89\u5e02\u83b2\u6e56\u533a\u62a5\u6069\u5bfa\u885718\u53f7", "street_id": "dbf4d6eed658b6336fa3cc7c", "telephone": "18700761415", "detail": 1, "uid": "dbf4d6eed658b6336fa3cc7c", "detail_info": {"tag": "\u7f8e\u98df;\u4e2d\u9910\u5385", "navi_location": {"lng": 108.94167876803, "lat": 34.258487225189}, "type": "cater", "detail_url": "http://api.map.baidu.com/place/detail?uid=dbf4d6eed658b6336fa3cc7c&output=html&source=placeapi_v2", "price": "30.0", "overall_rating": "4.4", "groupon_num": "2", "comment_num": "73", "di_review_keyword": []}}, {"name": "\u6731\u79c0\u82f1\u6886\u6886\u8089\u846b\u82a6\u5934", "location": {"lat": 34.264259, "lng": 108.942247}, "address": "\u897f\u5b89\u5e02\u7891\u6797\u533a\u7409\u7483\u88572\u53f7", "street_id": "179911a6260c3ed53913fde9", "telephone": "15339006021,18165301655", "detail": 1, "uid": "179911a6260c3ed53913fde9", "detail_info": {"tag": "\u7f8e\u98df;\u4e2d\u9910\u5385", "navi_location": {"lng": 108.94235467106, "lat": 34.264258707841}, "type": "cater", "detail_url": "http://api.map.baidu.com/place/detail?uid=179911a6260c3ed53913fde9&output=html&source=placeapi_v2", "price": "37.0", "overall_rating": "4.2", "comment_num": "56", "di_review_keyword": []}}, {"name": "\u7d2b\u946b\u9601\u996d\u8358\u542b\u5149\u95e8\u5e97", "location": {"lat": 34.258652, "lng": 108.939402}, "address": "\u542b\u5149\u95e8\u51b0\u7a96\u5df71\u53f7\uff08\u9760\u8fd1\u751c\u6c34\u4e95\u8857\uff09", "street_id": "e93761f655f9c715233bf2e9", "telephone": "(029)87613399", "detail": 1, "uid": "e93761f655f9c715233bf2e9", "detail_info": {"tag": "\u7f8e\u98df;\u4e2d\u9910\u5385", "navi_location": {"lng": 108.93941076401, "lat": 34.258436114195}, "type": "cater", "detail_url": "http://api.map.baidu.com/place/detail?uid=e93761f655f9c715233bf2e9&output=html&source=placeapi_v2", "price": "100.0", "overall_rating": "4.2", "comment_num": "158", "di_review_keyword": []}}, {"name": "\u8001\u767d\u5bb6\u6c34\u76c6\u7f8a\u8089", "location": {"lat": 34.267417, "lng": 108.945333}, "address": "\u897f\u5b89\u5e02\u83b2\u6e56\u533a\u5317\u5e7f\u6d4e\u885776\u53f7", "street_id": "f2f15ffbfd326f91621c6797", "telephone": "(029)87973366", "detail": 1, "uid": "f2f15ffbfd326f91621c6797", "detail_info": {"tag": "\u7f8e\u98df;\u4e2d\u9910\u5385", "navi_location": {"lng": 108.94545805429, "lat": 34.267404099472}, "type": "cater", "detail_url": "http://api.map.baidu.com/place/detail?uid=f2f15ffbfd326f91621c6797&output=html&source=placeapi_v2", "price": "19.0", "overall_rating": "4.3", "comment_num": "11", "di_review_keyword": []}}, {"name": "biangbiang\u9762(\u5357\u9662\u95e8\u5e97)", "location": {"lat": 34.261629, "lng": 108.947687}, "address": "\u897f\u5b89\u7891\u6797\u533a\u5357\u9662\u95e880\u53f7(\u6625\u53d1\u751f\u5bf9\u9762)", "street_id": "61f634f6fbe2e3616a49f3aa", "telephone": "18066514273", "detail": 1, "uid": "61f634f6fbe2e3616a49f3aa", "detail_info": {"tag": "\u7f8e\u98df;\u4e2d\u9910\u5385", "navi_location": {"lng": 108.94761274246, "lat": 34.261679794491}, "type": "cater", "detail_url": "http://api.map.baidu.com/place/detail?uid=61f634f6fbe2e3616a49f3aa&output=html&source=placeapi_v2", "price": "20.0", "overall_rating": "3.8", "comment_num": "100", "di_review_keyword": []}}, {"name": "\u771f\u7231\u4e2d\u56fd\u9910\u9986(\u73af\u57ce\u897f\u82d1\u5e97)", "location": {"lat": 34.267631, "lng": 108.930103}, "address": "\u897f\u95e8\u5916\u5317\u4fa7\u73af\u57ce\u897f\u82d1\u5185", "street_id": "1020060f667be5bf1994c690", "telephone": "(029)87951234", "detail": 1, "uid": "1020060f667be5bf1994c690", "detail_info": {"tag": "\u7f8e\u98df;\u4e2d\u9910\u5385", "navi_location": {"lng": 108.92934875955, "lat": 34.267898312592}, "type": "cater", "detail_url": "http://api.map.baidu.com/place/detail?uid=1020060f667be5bf1994c690&output=html&source=placeapi_v2", "price": "100.0", "overall_rating": "4.6", "comment_num": "106", "di_review_keyword": []}}, {"name": "\u5c0f\u662f\u5c0f\u6210\u90fd\u5ddd\u83dc\u9986", "location": {"lat": 34.2611, "lng": 108.94232}, "address": "\u56db\u5e9c\u885770\u53f7\uff08\u5927\u81ea\u5728\u706b\u9505\u5bf9\u9762\uff09", "street_id": "28b9bf2c1c1111aa71210bdf", "telephone": "(029)87621952", "detail": 1, "uid": "28b9bf2c1c1111aa71210bdf", "detail_info": {"tag": "\u7f8e\u98df;\u4e2d\u9910\u5385", "type": "cater", "detail_url": "http://api.map.baidu.com/place/detail?uid=28b9bf2c1c1111aa71210bdf&output=html&source=placeapi_v2", "price": "30.5", "overall_rating": "4.9", "groupon_num": "1", "comment_num": "21", "di_review_keyword": []}}, {"name": "\u897f\u8d1d\u839c\u9762\u6751(\u897f\u5b89\u5357\u5927\u8857\u5e97)", "location": {"lat": 34.262565, "lng": 108.953723}, "address": "\u5357\u5927\u88578\u53f7\u4e16\u7eaa\u91d1\u82b1\u5411\u535720\u7c73\u8def\u4e1c", "street_id": "8dc82544ac78fb59a2d230d6", "telephone": "(029)87260888", "detail": 1, "uid": "8dc82544ac78fb59a2d230d6", "detail_info": {"tag": "\u7f8e\u98df;\u4e2d\u9910\u5385", "type": "cater", "detail_url": "http://api.map.baidu.com/place/detail?uid=8dc82544ac78fb59a2d230d6&output=html&source=placeapi_v2", "price": "67.0", "overall_rating": "4", "comment_num": "68", "di_review_keyword": []}}, {"name": "\u8001\u5218\u5bb6\u6ce1\u998d\u9986", "location": {"lat": 34.267524, "lng": 108.94564}, "address": "\u83b2\u6e56\u533a\u5317\u5e7f\u6d4e\u8857101\u53f7", "street_id": "cc46c5558f3099a185154147", "detail": 1, "uid": "af3cad7a5515ede430f71dc0", "detail_info": {"tag": "\u7f8e\u98df;\u4e2d\u9910\u5385", "navi_location": {"lng": 108.94547592788, "lat": 34.267444361324}, "type": "cater", "detail_url": "http://api.map.baidu.com/place/detail?uid=af3cad7a5515ede430f71dc0&output=html&source=placeapi_v2", "price": "31.0", "overall_rating": "3.7", "comment_num": "18", "di_review_keyword": []}}, {"name": "\u5927\u725b\u706b\u9505", "location": {"lat": 34.261628, "lng": 108.934978}, "address": "\u897f\u6886\u5b50\u5e02\u885718\u53f7(\u539a\u6c34\u5510\u9152\u5e97\u5411\u897f10\u7c73)", "street_id": "829345dfc087301c9122e006", "telephone": "(029)86686678", "detail": 1, "uid": "829345dfc087301c9122e006", "detail_info": {"tag": "\u7f8e\u98df;\u4e2d\u9910\u5385", "navi_location": {"lng": 108.93485917395, "lat": 34.26169642671}, "type": "cater", "detail_url": "http://api.map.baidu.com/place/detail?uid=829345dfc087301c9122e006&output=html&source=placeapi_v2", "price": "80.0", "overall_rating": "5", "comment_num": "2", "di_review_keyword": []}}, {"name": "\u5927\u9f99\u71da\u706b\u9505(\u7c89\u5df7\u5e97)", "location": {"lat": 34.261864, "lng": 108.948004}, "address": "\u7c89\u5df7\u5357\u9662\u95e8\u5927\u8f66\u5bb6\u5df7\u53e3\u659c\u5bf9\u9762\u53e4\u9053\u8336\u57ce\u4e8c\u697c", "street_id": "28e0dff3034f54ef3fe231e9", "telephone": "029-87365316", "detail": 1, "uid": "28e0dff3034f54ef3fe231e9", "detail_info": {"tag": "\u7f8e\u98df;\u4e2d\u9910\u5385", "navi_location": {"lng": 108.94836733526, "lat": 34.261743451849}, "type": "cater", "detail_url": "http://api.map.baidu.com/place/detail?uid=28e0dff3034f54ef3fe231e9&output=html&source=placeapi_v2", "price": "102.0", "overall_rating": "4.7", "groupon_num": "1", "comment_num": "100", "di_review_keyword": []}}, {"name": "\u9648\u4e09\u5a03\u6ce1\u59dc\u9e21(\u6c34\u53f8\u5e97)", "location": {"lat": 34.256408, "lng": 108.930282}, "address": "\u897f\u5b89\u7891\u6797\u533a\u592a\u767d\u5317\u8def279\u53f7\u897f\u5317\u5927\u5b66\u7efc\u5408\u670d\u52a1\u697c1\u53f7\u697c(\u8fd1\u9f0e\u73cd\u6e90)", "street_id": "3c0ea7c525102a85fbf0cbc8", "telephone": "(029)88304058", "detail": 1, "uid": "3c0ea7c525102a85fbf0cbc8", "detail_info": {"tag": "\u7f8e\u98df;\u4e2d\u9910\u5385", "navi_location": {"lng": 108.93004460586, "lat": 34.256155897824}, "type": "cater", "detail_url": "http://api.map.baidu.com/place/detail?uid=3c0ea7c525102a85fbf0cbc8&output=html&source=placeapi_v2", "price": "63.0", "overall_rating": "4.4", "groupon_num": "1", "comment_num": "100", "di_review_keyword": []}}, {"name": "\u539f\u59cb\u6ce5\u7089\u70e4\u8089(\u897f\u5b89\u5e97)", "location": {"lat": 34.258447, "lng": 108.94383}, "address": "\u592a\u9633\u5e99\u95e8(\u6731\u96c0\u95e8\u56db\u5ddd\u4f1a\u9986\u5411\u897f100\u7c73\u798f\u5c71\u5496\u5561\u53f3\u4fa7)", "street_id": "310f365cc1a1ae34047ce871", "telephone": "(029)87381670,15619346666", "detail": 1, "uid": "310f365cc1a1ae34047ce871", "detail_info": {"tag": "\u7f8e\u98df;\u5176\u4ed6", "type": "cater", "detail_url": "http://api.map.baidu.com/place/detail?uid=310f365cc1a1ae34047ce871&output=html&source=placeapi_v2", "price": "99.0", "overall_rating": "4.2", "comment_num": "3", "di_review_keyword": []}}, {"name": "\u540c\u76db\u7965(\u949f\u697c\u5e97)", "location": {"lat": 34.266518, "lng": 108.951596}, "address": "\u897f\u5927\u88575\u53f7", "street_id": "4163af690d40875b283a9f53", "telephone": "(029)87218711", "detail": 1, "uid": "7aea43b7287c9ce17c29bdc7", "detail_info": {"tag": "\u7f8e\u98df;\u4e2d\u9910\u5385", "navi_location": {"lng": 108.95176159072, "lat": 34.266700022313}, "type": "cater", "detail_url": "http://api.map.baidu.com/place/detail?uid=7aea43b7287c9ce17c29bdc7&output=html&source=placeapi_v2", "price": "43.0", "overall_rating": "2.5", "groupon_num": "1", "comment_num": "367", "di_review_keyword": []}}, {"name": "\u4e00\u771f\u697c", "location": {"lat": 34.27062, "lng": 108.949283}, "address": "\u897f\u5b89\u5e02\u83b2\u6e56\u533a\u5927\u76ae\u966218\u53f7", "street_id": "0dc3d82dc691277574e5b6f6", "telephone": "(029)87286131", "detail": 1, "uid": "0dc3d82dc691277574e5b6f6", "detail_info": {"tag": "\u7f8e\u98df;\u4e2d\u9910\u5385", "navi_location": {"lng": 108.94930137536, "lat": 34.27072956727}, "type": "cater", "detail_url": "http://api.map.baidu.com/place/detail?uid=0dc3d82dc691277574e5b6f6&output=html&source=placeapi_v2", "price": "39.0", "overall_rating": "4.4", "comment_num": "22", "di_review_keyword": []}}, {"name": "\u535a\u6cf0\u5927\u9152\u5e97", "location": {"lat": 34.263167, "lng": 108.945039}, "address": "\u5357\u5e7f\u6d4e\u88576\u53f7", "street_id": "1bf85b25c3c734bda1a9347b", "telephone": "(029)87612222", "detail": 1, "uid": "1bf85b25c3c734bda1a9347b", "detail_info": {"tag": "\u9152\u5e97;\u661f\u7ea7\u9152\u5e97", "navi_location": {"lng": 108.94532483828, "lat": 34.263272286262}, "type": "cater", "detail_url": "http://api.map.baidu.com/place/detail?uid=1bf85b25c3c734bda1a9347b&output=html&source=placeapi_v2", "price": "240.0", "overall_rating": "3.0", "comment_num": "21", "di_review_keyword": []}}, {"name": "\u7a46\u8428\u7802\u9505", "location": {"lat": 34.270819, "lng": 108.947549}, "address": "\u897f\u5b89\u5e02\u83b2\u6e56\u533a\u5927\u76ae\u9662\u4e2d\u6bb5\u8def\u531799\u53f7(\u897f\u534e\u95e8\u5341\u5b57\u53e3\u897f\u4fa7)", "street_id": "c5ddcc08541611dfd8131806", "telephone": "(029)87316020,18009224042", "detail": 1, "uid": "c5ddcc08541611dfd8131806", "detail_info": {"tag": "\u7f8e\u98df;\u4e2d\u9910\u5385", "type": "cater", "detail_url": "http://api.map.baidu.com/place/detail?uid=c5ddcc08541611dfd8131806&output=html&source=placeapi_v2", "price": "25.0", "overall_rating": "4.2", "comment_num": "100", "di_review_keyword": []}}, {"name": "\u80d6\u54e5\u4fe9(\u949f\u697c\u5e97)", "location": {"lat": 34.264032, "lng": 108.954011}, "address": "\u5357\u5927\u885759\u53f7\u5bcc\u8c6a\u5927\u53a6\u4f17\u6c47\u7f8e\u98df\u5e7f\u573a", "street_id": "87bc4617861f8f6a4afd3f39", "telephone": "(029)62655977", "detail": 1, "uid": "87bc4617861f8f6a4afd3f39", "detail_info": {"tag": "\u7f8e\u98df;\u4e2d\u9910\u5385", "navi_location": {"lng": 108.9535767778, "lat": 34.264079377646}, "type": "cater", "detail_url": "http://api.map.baidu.com/place/detail?uid=87bc4617861f8f6a4afd3f39&output=html&source=placeapi_v2", "overall_rating": "4.4", "comment_num": "44", "di_review_keyword": []}}, {"name": "\u7ca4\u73cd\u8f69(\u542b\u5149\u5e97)", "location": {"lat": 34.256643, "lng": 108.939099}, "address": "\u73af\u57ce\u5357\u8def142\u53f7\u542b\u5149\u5927\u53a61-2\u697c", "street_id": "1020060f16bd95bf1894c6ce", "detail": 1, "uid": "1020060f16bd95bf1894c6ce", "detail_info": {"tag": "\u7f8e\u98df;\u4e2d\u9910\u5385", "navi_location": {"lng": 108.93881552521, "lat": 34.25669343557}, "type": "cater", "detail_url": "http://api.map.baidu.com/place/detail?uid=1020060f16bd95bf1894c6ce&output=html&source=placeapi_v2", "price": "118.0", "overall_rating": "4.1", "comment_num": "73", "di_review_keyword": []}}, {"name": "\u5927\u5bb6\u597d\u5a01\u54e5\u9999\u6e2f\u7f8e\u98df\u5927\u9152\u697c", "location": {"lat": 34.258312, "lng": 108.946516}, "address": "\u897f\u5b89\u5e02\u7891\u6797\u533a\u6731\u96c0\u95e8\u91cc\u8def\u4e1c\u5357\u5e7f\u6d4e\u88571\u53f7", "street_id": "5487b2876e9f02ce25d2bb1b", "telephone": "029-87258333;029-87259333", "detail": 1, "uid": "504d61138cfec5b34657261b", "detail_info": {"tag": "\u7f8e\u98df;\u4e2d\u9910\u5385", "type": "cater", "detail_url": "http://api.map.baidu.com/place/detail?uid=504d61138cfec5b34657261b&output=html&source=placeapi_v2", "price": "83.0", "overall_rating": "3.5", "comment_num": "100", "di_review_keyword": []}}, {"name": "\u670b\u6765\u805a", "location": {"lat": 34.258808, "lng": 108.934197}, "address": "\u8fce\u6625\u5c0f\u533a\u706b\u836f\u5c40\u5df7604\u53f7\u697c\u5730\u4e0b\u5ba4", "street_id": "a5951d593df47d0ad8ecedf8", "telephone": "(029)87629077", "detail": 1, "uid": "a5951d593df47d0ad8ecedf8", "detail_info": {"tag": "\u7f8e\u98df;\u4e2d\u9910\u5385", "navi_location": {"lng": 108.93411189516, "lat": 34.258815131808}, "type": "cater", "detail_url": "http://api.map.baidu.com/place/detail?uid=a5951d593df47d0ad8ecedf8&output=html&source=placeapi_v2", "price": "83.0", "overall_rating": "4.1", "comment_num": "22", "di_review_keyword": []}}, {"name": "\u8001\u9655\u8001\u5473", "location": {"lat": 34.26547, "lng": 108.927116}, "address": "\u897f\u5173\u6b63\u885779\u53f7\u60a6\u6cf0\u5229\u8d1e\u5927\u53a61\u5c42", "street_id": "2b86ae52c7bdd143aecb6638", "telephone": "15339208102", "detail": 1, "uid": "2b86ae52c7bdd143aecb6638", "detail_info": {"tag": "\u7f8e\u98df;\u4e2d\u9910\u5385", "navi_location": {"lng": 108.92711619368, "lat": 34.265375269547}, "type": "cater", "detail_url": "http://api.map.baidu.com/place/detail?uid=2b86ae52c7bdd143aecb6638&output=html&source=placeapi_v2", "price": "37.0", "overall_rating": "4.7", "comment_num": "83", "di_review_keyword": []}}, {"name": "\u65b0\u4eae\u70e4\u8089", "location": {"lat": 34.269023, "lng": 108.939008}, "address": "\u897f\u5b89\u5e02\u83b2\u6e56\u533a\u5927\u9ea6\u5e02\u8857106\u53f7", "street_id": "90482d9fb1434142eb56faee", "detail": 1, "uid": "90482d9fb1434142eb56faee", "detail_info": {"tag": "\u7f8e\u98df;\u5176\u4ed6", "type": "cater", "detail_url": "http://api.map.baidu.com/place/detail?uid=90482d9fb1434142eb56faee&output=html&source=placeapi_v2", "price": "33.0", "overall_rating": "4.2", "comment_num": "0", "di_review_keyword": []}}, {"name": "\u6d77\u5e02", "location": {"lat": 34.258133, "lng": 108.933159}, "address": "\u897f\u95e8\u91cc\u57ce\u5899\u897f\u5357\u89d2\u5357\u9a6c\u9053\u5df75\u53f7(\u8fd1\u897f\u95e8\u91cc)", "street_id": "ca10e61573b6389701294fec", "telephone": "(029)87618999", "detail": 1, "uid": "ca10e61573b6389701294fec", "detail_info": {"tag": "\u7f8e\u98df;\u4e2d\u9910\u5385", "navi_location": {"lng": 108.93238377634, "lat": 34.258059052961}, "type": "cater", "detail_url": "http://api.map.baidu.com/place/detail?uid=ca10e61573b6389701294fec&output=html&source=placeapi_v2", "price": "100.0", "overall_rating": "4.2", "comment_num": "6", "di_review_keyword": []}}, {"name": "\u4eba\u4eba\u5c45(\u56db\u5e9c\u8857\u5e97)", "location": {"lat": 34.2616, "lng": 108.942313}, "address": "\u56db\u5e9c\u8857\u4e0e\u4e94\u661f\u8857\u8def\u53e378\u53f7", "street_id": "0523a1410a2fb404b23c811d", "telephone": "(029)87620166", "detail": 1, "uid": "0523a1410a2fb404b23c811d", "detail_info": {"tag": "\u7f8e\u98df;\u4e2d\u9910\u5385", "navi_location": {"lng": 108.94241400144, "lat": 34.261599460917}, "type": "cater", "detail_url": "http://api.map.baidu.com/place/detail?uid=0523a1410a2fb404b23c811d&output=html&source=placeapi_v2", "price": "55.0", "overall_rating": "4.5", "comment_num": "100", "di_review_keyword": []}}, {"name": "\u5a18\u5bb6\u725b\u6392(\u7c89\u5df7\u5e97)", "location": {"lat": 34.26193, "lng": 108.94821}, "address": "\u5357\u5927\u8857\u7c89\u5df73\u53f7\u771f\u7231\u7c89\u5df7\u91cc3\u697c", "street_id": "838138c9d9aec634b23c8187", "telephone": "(029)89626080", "detail": 1, "uid": "838138c9d9aec634b23c8187", "detail_info": {"tag": "\u7f8e\u98df;\u5916\u56fd\u9910\u5385", "type": "cater", "detail_url": "http://api.map.baidu.com/place/detail?uid=838138c9d9aec634b23c8187&output=html&source=placeapi_v2", "price": "141.0", "overall_rating": "4.7", "comment_num": "4", "di_review_keyword": []}}, {"name": "\u897f\u5b89\u8d3e\u4e09\u6e05\u771f\u704c\u6c64\u5305\u5b50\u9986(\u5317\u9662\u95e8\u603b\u5e97)", "location": {"lat": 34.268522, "lng": 108.950242}, "address": "\u9655\u897f\u7701\u897f\u5b89\u5e02\u83b2\u6e56\u533a\u56de\u6c11\u8857\u5317\u9662\u95e893\u53f7", "street_id": "680fb70364f57f858bb9881e", "telephone": "(029)87257507", "detail": 1, "uid": "680fb70364f57f858bb9881e", "detail_info": {"tag": "\u7f8e\u98df;\u5c0f\u5403\u5feb\u9910\u5e97", "navi_location": {"lng": 108.95012931032, "lat": 34.269349900066}, "type": "cater", "detail_url": "http://api.map.baidu.com/place/detail?uid=680fb70364f57f858bb9881e&output=html&source=placeapi_v2", "price": "27.0", "overall_rating": "3.8", "comment_num": "4661", "di_review_keyword": []}}, {"name": "\u6597\u725b\u58eb\u725b\u6392\u9986(\u91d1\u82b1\u7f8e\u5c45\u5e97)", "location": {"lat": 34.26487, "lng": 108.937986}, "address": "\u897f\u5927\u8857208\u53f7\u4e16\u7eaa\u91d1\u82b1\u7f8e\u5c45\u5e971\u697c", "street_id": "8fa14fc3977f3577f7eafc57", "telephone": "(029)87400811", "detail": 1, "uid": "8fa14fc3977f3577f7eafc57", "detail_info": {"tag": "\u7f8e\u98df;\u5916\u56fd\u9910\u5385", "navi_location": {"lng": 108.93772810394, "lat": 34.265280363674}, "type": "cater", "detail_url": "http://api.map.baidu.com/place/detail?uid=8fa14fc3977f3577f7eafc57&output=html&source=placeapi_v2", "price": "107.0", "overall_rating": "4.3", "comment_num": "100", "di_review_keyword": []}}, {"name": "\u5b89\u5bb6\u5c0f\u7092\u6ce1\u998d", "location": {"lat": 34.269611, "lng": 108.938919}, "address": "\u9655\u897f\u7701\u897f\u5b89\u5e02\u83b2\u6e56\u533a\u6d12\u91d1\u686510\u53f7(\u6e05\u771f\u897f\u5bfa\u5317\u4fa720\u7c73,\u8def\u897f)", "street_id": "9e7986eae3e94400eb56fa14", "telephone": "15339120857", "detail": 1, "uid": "f2f15ffbcace1c91631c6723", "detail_info": {"tag": "\u7f8e\u98df;\u4e2d\u9910\u5385", "type": "cater", "detail_url": "http://api.map.baidu.com/place/detail?uid=f2f15ffbcace1c91631c6723&output=html&source=placeapi_v2", "price": "6.0", "overall_rating": "4.2", "comment_num": "20", "di_review_keyword": []}}, {"name": "\u70e4\u4ec0\u4e48\u540d\u5802", "location": {"lat": 34.261579, "lng": 108.932208}, "address": "\u897f\u5b89\u5e02\u83b2\u6e56\u533a\u5357\u9a6c\u9053\u5df722\u53f7", "street_id": "430e426a92ea8078aecb6694", "telephone": "(029)87623888", "detail": 1, "uid": "430e426a92ea8078aecb6694", "detail_info": {"tag": "\u7f8e\u98df;\u5176\u4ed6", "navi_location": {"lng": 108.93204462918, "lat": 34.261578265884}, "type": "cater", "detail_url": "http://api.map.baidu.com/place/detail?uid=430e426a92ea8078aecb6694&output=html&source=placeapi_v2", "price": "66.0", "overall_rating": "4.6", "comment_num": "100", "di_review_keyword": []}}, {"name": "\u8c6a\u4eab\u6765(\u5e7f\u6d4e\u8857\u5e97)", "location": {"lat": 34.262696, "lng": 108.945824}, "address": "\u5357\u5e7f\u6d4e\u885777\u53f7\u5e7f\u6d4e\u5c0f\u533a8\u53f7\u697c1\u697c(\u897f\u5927\u8857\u767e\u76db\u5357\u4fa7)", "street_id": "504d6113c8d001aa46572611", "telephone": "(029)87627389", "detail": 1, "uid": "504d6113c8d001aa46572611", "detail_info": {"tag": "\u7f8e\u98df;\u5916\u56fd\u9910\u5385", "type": "cater", "detail_url": "http://api.map.baidu.com/place/detail?uid=504d6113c8d001aa46572611&output=html&source=placeapi_v2", "price": "56.0", "overall_rating": "4.3", "groupon_num": "2", "comment_num": "100", "di_review_keyword": []}}, {"name": "\u65b0\u8fa3\u9053\u68ad\u8fb9\u9c7c(\u949f\u697c\u5e97)", "location": {"lat": 34.265326, "lng": 108.951765}, "address": "\u897f\u5927\u885714\u53f75\u5c42", "street_id": "49a02a7a233c39592b201a28", "telephone": "(029)87210149", "detail": 1, "uid": "49a02a7a233c39592b201a28", "detail_info": {"tag": "\u7f8e\u98df;\u4e2d\u9910\u5385", "navi_location": {"lng": 108.95174892191, "lat": 34.265422257332}, "type": "cater", "detail_url": "http://api.map.baidu.com/place/detail?uid=49a02a7a233c39592b201a28&output=html&source=placeapi_v2", "price": "76.0", "overall_rating": "4.9", "groupon_num": "2", "comment_num": "100", "di_review_keyword": []}}, {"name": "\u63a2\u9c7c(\u4f17\u6c47\u5e97)", "location": {"lat": 34.264082, "lng": 108.95406}, "address": "\u7891\u6797\u533a\u5bcc\u8c6a\u5927\u53a6\u4f17\u6c47\u7f8e\u98df\u5e7f\u573a\u4e8c\u5c42L2-1\u53f7", "street_id": "ab6af76a6140186ec4f50d13", "telephone": "(029)62760976", "detail": 1, "uid": "ab6af76a6140186ec4f50d13", "detail_info": {"tag": "\u7f8e\u98df;\u4e2d\u9910\u5385", "navi_location": {"lng": 108.9540559627, "lat": 34.26432189289}, "type": "cater", "detail_url": "http://api.map.baidu.com/place/detail?uid=ab6af76a6140186ec4f50d13&output=html&source=placeapi_v2", "price": "83.0", "overall_rating": "4.4", "groupon_num": "1", "comment_num": "100", "di_review_keyword": []}}, {"name": "\u897f\u5b89\u5473\u9053\u5c0f\u7092\u6ce1\u998d\uff08\u7af9\u7b06\u5e02\u5e97\uff09", "location": {"lat": 34.263736, "lng": 108.950045}, "address": "\u897f\u5927\u8857\u7af9\u82ad\u5e02\u8def\u949f\u697c\u5c0f\u533a\u535741\u53f7\u5546\u94fa", "street_id": "8065536f4aa95fac95f08c22", "telephone": "(029)62300197", "detail": 1, "uid": "8065536f4aa95fac95f08c22", "detail_info": {"tag": "\u7f8e\u98df;\u4e2d\u9910\u5385", "type": "cater", "detail_url": "http://api.map.baidu.com/place/detail?uid=8065536f4aa95fac95f08c22&output=html&source=placeapi_v2", "price": "29.0", "overall_rating": "4.6", "groupon_num": "1", "comment_num": "91", "di_review_keyword": []}}, {"name": "\u6c5f\u57ce\u5c0f\u9986", "location": {"lat": 34.262407, "lng": 108.950201}, "address": "\u5357\u5927\u8857\u897f\u6728\u5934\u5e0251\u53f7\u8054\u90a6\u4e2d\u822a\u5546\u52a1\u9152\u5e971\u697c", "street_id": "8e1664325870406f0b5cb34f", "telephone": "029-87618972", "detail": 1, "uid": "8e1664325870406f0b5cb34f", "detail_info": {"tag": "\u7f8e\u98df;\u4e2d\u9910\u5385", "navi_location": {"lng": 108.95022800265, "lat": 34.262252302384}, "type": "cater", "detail_url": "http://api.map.baidu.com/place/detail?uid=8e1664325870406f0b5cb34f&output=html&source=placeapi_v2", "price": "53.5", "overall_rating": "4.5", "groupon_num": "1", "comment_num": "85", "di_review_keyword": []}}, {"name": "\u83dc\u5ba2\u00b7\u9655\u83dc", "location": {"lat": 34.258717, "lng": 108.941959}, "address": "\u5c0f\u5357\u95e8\u91cc\u5341\u5b57\u897f\u5317\u89d2\u5411\u897f10\u7c73\u62a5\u6069\u5bfa\u88573\u53f7", "street_id": "6f6721d0b56be858c51e5182", "detail": 1, "uid": "6f6721d0b56be858c51e5182", "detail_info": {"tag": "\u7f8e\u98df;\u4e2d\u9910\u5385", "navi_location": {"lng": 108.94213544858, "lat": 34.258511446201}, "type": "cater", "detail_url": "http://api.map.baidu.com/place/detail?uid=6f6721d0b56be858c51e5182&output=html&source=placeapi_v2", "price": "36.5", "overall_rating": "4.1", "comment_num": "191", "di_review_keyword": []}}, {"name": "\u8086\u9a7f\u9910\u5385", "location": {"lat": 34.258595, "lng": 108.949555}, "address": "\u9655\u897f\u7701\u897f\u5b89\u5e02\u7891\u6797\u533a\u6e58\u5b50\u5e99\u885750\u53f7", "street_id": "16ebadfd526a18822bb97c1d", "telephone": "02987361065,18966886123", "detail": 1, "uid": "16ebadfd526a18822bb97c1d", "detail_info": {"tag": "\u7f8e\u98df;\u4e2d\u9910\u5385", "navi_location": {"lng": 108.9497938525, "lat": 34.258731257774}, "type": "cater", "detail_url": "http://api.map.baidu.com/place/detail?uid=16ebadfd526a18822bb97c1d&output=html&source=placeapi_v2", "price": "94.0", "overall_rating": "4.7", "comment_num": "50", "di_review_keyword": []}}, {"name": "\u897f\u90e8\u9a6c\u534e(\u9f13\u697c\u5e97)", "location": {"lat": 34.266863, "lng": 108.950233}, "address": "\u5317\u9662\u95e81\u53f7", "street_id": "ce6ab5ee27e109444d2fdfec", "telephone": "(029)87360316", "detail": 1, "uid": "9785f3c0b3042203246e988d", "detail_info": {"tag": "\u7f8e\u98df;\u4e2d\u9910\u5385", "type": "cater", "detail_url": "http://api.map.baidu.com/place/detail?uid=9785f3c0b3042203246e988d&output=html&source=placeapi_v2", "price": "43.0", "overall_rating": "4.2", "groupon_num": "2", "comment_num": "19", "di_review_keyword": []}}, {"name": "\u8001\u767d\u5bb6\u7f8a\u8089\u6ce1\u998d\u9986(\u5927\u76ae\u9662\u5e97)", "location": {"lat": 34.270537, "lng": 108.947254}, "address": "\u5317\u9662\u95e8103\u53f7(\u56de\u6c11\u5c0f\u5403\u8857\u5185)", "street_id": "f633606aed396c570b69d9d3", "detail": 1, "uid": "f633606aed396c570b69d9d3", "detail_info": {"tag": "\u7f8e\u98df;\u4e2d\u9910\u5385", "navi_location": {"lng": 108.94724940663, "lat": 34.270693873404}, "type": "cater", "detail_url": "http://api.map.baidu.com/place/detail?uid=f633606aed396c570b69d9d3&output=html&source=placeapi_v2", "price": "25.0", "overall_rating": "3.6", "groupon_num": "2", "comment_num": "44", "di_review_keyword": []}}, {"name": "\u4e50\u4e50\u9910\u5385(\u6e58\u5b50\u5e99\u8857)", "location": {"lat": 34.259239, "lng": 108.951329}, "address": "\u5927\u5357\u95e8\u91cc\u6e58\u5b50\u5e99\u885711-A\u53f7(\u6e58\u5b50\u5e99\u8857\u95e8\u53e3\u5317\u4fa7)", "street_id": "e56bf5e3fea3835d0682c2ef", "telephone": "(029)87232243", "detail": 1, "uid": "e56bf5e3fea3835d0682c2ef", "detail_info": {"tag": "\u7f8e\u98df;\u4e2d\u9910\u5385", "navi_location": {"lng": 108.95134956583, "lat": 34.259161278184}, "type": "cater", "detail_url": "http://api.map.baidu.com/place/detail?uid=e56bf5e3fea3835d0682c2ef&output=html&source=placeapi_v2", "price": "38.0", "overall_rating": "3.6", "comment_num": "100", "di_review_keyword": []}}, {"name": "\u9a6c\u5149\u8363\u6ce1\u998d\u9986", "location": {"lat": 34.270883, "lng": 108.944667}, "address": "\u897f\u5b89\u5e02\u83b2\u6e56\u533a\u5149\u660e\u5df739\u53f7", "street_id": "29afb6abd86736f95cd4feea", "telephone": "18966732687", "detail": 1, "uid": "29afb6abd86736f95cd4feea", "detail_info": {"tag": "\u7f8e\u98df;\u4e2d\u9910\u5385", "type": "cater", "detail_url": "http://api.map.baidu.com/place/detail?uid=29afb6abd86736f95cd4feea&output=html&source=placeapi_v2", "price": "24.0", "overall_rating": "4.2", "comment_num": "8", "di_review_keyword": []}}, {"name": "\u9b4f\u5bb6\u51c9\u76ae(\u5357\u5927\u8857\u5e97)", "location": {"lat": 34.25966, "lng": 108.953786}, "address": "\u897f\u5b89\u7891\u6797\u533a\u5357\u5927\u88573\u53f7(\u4e2d\u5927\u56fd\u9645\u5bf9\u9762)", "street_id": "e96b4420fdbb494082288aff", "telephone": "(029)87239211", "detail": 1, "uid": "e96b4420fdbb494082288aff", "detail_info": {"tag": "\u7f8e\u98df;\u5c0f\u5403\u5feb\u9910\u5e97", "type": "cater", "detail_url": "http://api.map.baidu.com/place/detail?uid=e96b4420fdbb494082288aff&output=html&source=placeapi_v2", "price": "17.0", "overall_rating": "4.4", "comment_num": "100", "di_review_keyword": []}}, {"name": "\u5bbd\u7a84\u5df7", "location": {"lat": 34.258436, "lng": 108.941453}, "address": "\u5c0f\u5357\u95e8\u91cc\u62a5\u6069\u5bfa\u885716\u53f7", "street_id": "d4a6d52fadffb8b89f09f7c7", "telephone": "(029)87623435", "detail": 1, "uid": "d4a6d52fadffb8b89f09f7c7", "detail_info": {"tag": "\u7f8e\u98df;\u4e2d\u9910\u5385", "type": "cater", "detail_url": "http://api.map.baidu.com/place/detail?uid=d4a6d52fadffb8b89f09f7c7&output=html&source=placeapi_v2", "price": "25.0", "overall_rating": "4.3", "groupon_num": "1", "comment_num": "94", "di_review_keyword": []}}, {"name": "\u5317\u4eac\u8001\u94fa\u70e4\u9e2d(\u5fa1\u94fa\u5e97)", "location": {"lat": 34.256555, "lng": 108.934452}, "address": "\u9655\u897f\u7701\u897f\u5b89\u5e02\u7891\u6797\u533a\u73af\u57ce\u5357\u8def\u897f\u6bb5202\u53f7(\u8fd1\u897f\u5317\u5927\u5b66\u5317\u95e8)", "street_id": "dffd631c60bf15a538221cd0", "telephone": "029-88421888", "detail": 1, "uid": "dffd631c60bf15a538221cd0", "detail_info": {"tag": "\u7f8e\u98df;\u4e2d\u9910\u5385", "navi_location": {"lng": 108.93437038077, "lat": 34.256767101333}, "type": "cater", "detail_url": "http://api.map.baidu.com/place/detail?uid=dffd631c60bf15a538221cd0&output=html&source=placeapi_v2", "price": "74.0", "overall_rating": "4.3", "comment_num": "100", "di_review_keyword": []}}, {"name": "\u697c\u5170\u53e4\u4e3d(\u949f\u697c\u666f\u89c2\u5e97)", "location": {"lat": 34.264224, "lng": 108.954012}, "address": "\u9655\u897f\u7701\u897f\u5b89\u5e02\u7891\u6797\u533a\u5357\u5927\u885759\u53f7\u4f17\u6c47\u7f8e\u98df\u5e7f\u573a\u4e09\u5c42", "street_id": "03cff61e50ca3e7c0af5eba7", "telephone": "(029)62655989", "detail": 1, "uid": "ffd0d3fad30c8093902ca3f9", "detail_info": {"tag": "\u7f8e\u98df;\u4e2d\u9910\u5385", "type": "cater", "detail_url": "http://api.map.baidu.com/place/detail?uid=ffd0d3fad30c8093902ca3f9&output=html&source=placeapi_v2", "price": "51.5", "overall_rating": "4.5", "comment_num": "417", "di_review_keyword": []}}, {"name": "\u4e00\u677e\u6000\u77f3\u6599\u7406", "location": {"lat": 34.258108, "lng": 108.93344}, "address": "\u83b2\u6e56\u533a\u5357\u9a6c\u9053\u987a\u57ce\u5357\u8def\u5546\u4e1a\u88579\u53f7\u9694\u58c1", "street_id": "a2a5acfb640732b622f017d3", "telephone": "029-87626727", "detail": 1, "uid": "a2a5acfb640732b622f017d3", "detail_info": {"tag": "\u7f8e\u98df;\u5916\u56fd\u9910\u5385", "navi_location": {"lng": 108.93363747846, "lat": 34.257989306637}, "type": "cater", "detail_url": "http://api.map.baidu.com/place/detail?uid=a2a5acfb640732b622f017d3&output=html&source=placeapi_v2", "price": "453.0", "overall_rating": "4.5", "comment_num": "5", "di_review_keyword": []}}, {"name": "\u82b1\u7530\u716e\u81fb\u725b(\u949f\u697c\u5e97)", "location": {"lat": 34.264098, "lng": 108.953742}, "address": "\u5357\u5927\u885759\u53f7\u5f00\u5143\u5357\u4fa7\u4f17\u6c47\u7f8e\u98df\u5e7f\u573a\u56db\u697c13\u53f7", "street_id": "90ad0508c559845fe011031d", "telephone": "(029)62613989", "detail": 1, "uid": "90ad0508c559845fe011031d", "detail_info": {"tag": "\u7f8e\u98df;\u4e2d\u9910\u5385", "navi_location": {"lng": 108.95362937179, "lat": 34.264308870335}, "type": "cater", "detail_url": "http://api.map.baidu.com/place/detail?uid=90ad0508c559845fe011031d&output=html&source=placeapi_v2", "price": "63.5", "overall_rating": "4.9", "comment_num": "421", "di_review_keyword": []}}, {"name": "\u5f3a\u6c0f\u559c\u963f\u5a46\u7ca5\u997c\u5e97\u5168\u56fd\u8fde\u9501\u897f\u5b89\u56de\u6c11\u8857\u5e97", "location": {"lat": 34.270571, "lng": 108.949082}, "address": "\u897f\u5b89\u5e02\u83b2\u6e56\u533a\u5927\u76ae\u966228\u53f7", "street_id": "a2b52becd41a06892b11d195", "telephone": "18629546958", "detail": 1, "uid": "a2b52becd41a06892b11d195", "detail_info": {"tag": "\u7f8e\u98df;\u4e2d\u9910\u5385", "type": "cater", "detail_url": "http://api.map.baidu.com/place/detail?uid=a2b52becd41a06892b11d195&output=html&source=placeapi_v2", "price": "25.0", "overall_rating": "4.4", "groupon_num": "1", "comment_num": "109", "di_review_keyword": []}}, {"name": "\u5343\u5bb6\u7c97\u7cae\u738b(\u9526\u7ee3\u5e97)", "location": {"lat": 34.26214, "lng": 108.953803}, "address": "\u7891\u6797\u533a\u5357\u5927\u8857113\u53f7\u897f\u5b89\u767e\u8d27\u5927\u53a62\u697c", "street_id": "d991e11627b6f64c1f3894da", "telephone": "029-87362338", "detail": 1, "uid": "d991e11627b6f64c1f3894da", "detail_info": {"tag": "\u7f8e\u98df;\u4e2d\u9910\u5385", "navi_location": {"lng": 108.95366825584, "lat": 34.262279892923}, "type": "cater", "detail_url": "http://api.map.baidu.com/place/detail?uid=d991e11627b6f64c1f3894da&output=html&source=placeapi_v2", "price": "58.0", "overall_rating": "4.2", "comment_num": "100", "di_review_keyword": []}}, {"name": "\u91cd\u5e86\u8001\u677f\u51f3\u706b\u9505", "location": {"lat": 34.25919, "lng": 108.938753}, "address": "\u897f\u5b89\u5e02\u83b2\u6e56\u533a\u751c\u6c34\u4e95\u88575\u53f7", "street_id": "e827a619163f3808ae045703", "telephone": "(029)89622458", "detail": 1, "uid": "e827a619163f3808ae045703", "detail_info": {"tag": "\u7f8e\u98df;\u4e2d\u9910\u5385", "type": "cater", "detail_url": "http://api.map.baidu.com/place/detail?uid=e827a619163f3808ae045703&output=html&source=placeapi_v2", "price": "63.0", "overall_rating": "5", "comment_num": "5", "di_review_keyword": []}}, {"name": "\u9ad8\u5bb6\u70e4\u8089", "location": {"lat": 34.270871, "lng": 108.949213}, "address": "\u897f\u5b89\u5e02\u83b2\u6e56\u533a\u5927\u76ae\u96625\u53f7(\u8fd1\u56de\u6c11\u8857)", "street_id": "3f9337d61ca7e6aaf72310db", "telephone": "029-87214262", "detail": 1, "uid": "3f9337d61ca7e6aaf72310db", "detail_info": {"tag": "\u7f8e\u98df;\u5176\u4ed6", "navi_location": {"lng": 108.94921672894, "lat": 34.270732427272}, "type": "cater", "detail_url": "http://api.map.baidu.com/place/detail?uid=3f9337d61ca7e6aaf72310db&output=html&source=placeapi_v2", "price": "33.0", "overall_rating": "3.7", "comment_num": "53", "di_review_keyword": []}}, {"name": "\u6e05\u771f\u5927\u57ce\u5c0f\u5473\u65cb\u8f6c\u706b\u9505", "location": {"lat": 34.267199, "lng": 108.942991}, "address": "\u5927\u5b66\u4e60\u5df737\u53f7", "street_id": "fad6a1cbed31ae2415a19062", "telephone": "17691180244", "detail": 1, "uid": "fad6a1cbed31ae2415a19062", "detail_info": {"tag": "\u7f8e\u98df;\u4e2d\u9910\u5385", "type": "cater", "detail_url": "http://api.map.baidu.com/place/detail?uid=fad6a1cbed31ae2415a19062&output=html&source=placeapi_v2", "price": "33.0", "overall_rating": "4.2", "groupon_num": "1", "comment_num": "164", "di_review_keyword": []}}, {"name": "\u963f\u8fbe\u897f\u65b0\u7586\u9910\u5385", "location": {"lat": 34.256345, "lng": 108.931919}, "address": "\u73af\u57ce\u5357\u8def\u897f\u6bb5216\u53f7(\u897f\u5317\u5927\u5b66\u5317\u95e8)", "street_id": "468314d305d369a2283a9f56", "telephone": "(029)88777288", "detail": 1, "uid": "468314d305d369a2283a9f56", "detail_info": {"tag": "\u7f8e\u98df;\u4e2d\u9910\u5385", "navi_location": {"lng": 108.93160730801, "lat": 34.256527298457}, "type": "cater", "detail_url": "http://api.map.baidu.com/place/detail?uid=468314d305d369a2283a9f56&output=html&source=placeapi_v2", "price": "56.0", "overall_rating": "3.9", "comment_num": "19", "di_review_keyword": []}}, {"name": "\u8001\u767d\u5bb6(\u56de\u6c11\u8857\u5e97)", "location": {"lat": 34.269867, "lng": 108.938951}, "address": "\u6d12\u91d1\u686518\u53f7(\u56de\u6c11\u8857\u6865\u5341\u5b57\u6e05\u771f\u897f\u5bfa\u5411\u5317150\u7c73)", "street_id": "d6e314488714b933100daa08", "telephone": "18966882662", "detail": 1, "uid": "d6e314488714b933100daa08", "detail_info": {"tag": "\u7f8e\u98df;\u4e2d\u9910\u5385", "type": "cater", "detail_url": "http://api.map.baidu.com/place/detail?uid=d6e314488714b933100daa08&output=html&source=placeapi_v2", "price": "22.0", "overall_rating": "4.5", "groupon_num": "2", "comment_num": "8", "di_review_keyword": []}}, {"name": "\u5174\u4e1a\u7f8e\u98df\u5e7f\u573a", "location": {"lat": 34.266183, "lng": 108.945672}, "address": "\u897f\u5b89\u83b2\u6e56\u533a\u897f\u5927\u8857\u767e\u76db\u8d2d\u7269\u4e2d\u5fc36\u697c(\u8fd1\u5317\u5e7f\u6d4e\u8857)", "street_id": "e6ee2fd2f4a59e512a11d1ee", "detail": 1, "uid": "e6ee2fd2f4a59e512a11d1ee", "detail_info": {"tag": "\u7f8e\u98df;\u4e2d\u9910\u5385", "type": "cater", "detail_url": "http://api.map.baidu.com/place/detail?uid=e6ee2fd2f4a59e512a11d1ee&output=html&source=placeapi_v2", "price": "15.0", "overall_rating": "4.4", "comment_num": "76", "di_review_keyword": []}}, {"name": "\u9ebb\u8fa3\u5c0f\u4e09", "location": {"lat": 34.258254, "lng": 108.944945}, "address": "\u7891\u6797\u533a\u6731\u96c0\u95e8\u91cc\u4e0a\u5c9b\u5496\u5561\u65c1\u8fb9\u897f\u987a\u57ce\u5df7\u518520\u7c73\u7b2c\u4e00\u6237\u4e09\u697c(\u8fd1\u6731\u96c0\u95e8)", "street_id": "2594fa255986cbe113293537", "telephone": "029-81545460,13709223720", "detail": 1, "uid": "2594fa255986cbe113293537", "detail_info": {"tag": "\u7f8e\u98df;\u4e2d\u9910\u5385", "navi_location": {"lng": 108.9449446161, "lat": 34.258141876007}, "type": "cater", "detail_url": "http://api.map.baidu.com/place/detail?uid=2594fa255986cbe113293537&output=html&source=placeapi_v2", "price": "83.0", "overall_rating": "4.3", "comment_num": "4", "di_review_keyword": []}}, {"name": "\u56db\u5ddd\u4f1a\u9986(\u5e7f\u6d4e\u8857\u5e97)", "location": {"lat": 34.258997, "lng": 108.945049}, "address": "\u6731\u96c0\u95e8\u91cc\u5357\u5e7f\u6d4e\u88578\u53f7(\u6731\u96c0\u95e8\u91cc\u8def\u897f)", "street_id": "b7712ac9d313297f3686f41a", "telephone": "(029)87633388", "detail": 1, "uid": "803708f102ccf16000897282", "detail_info": {"tag": "\u7f8e\u98df;\u4e2d\u9910\u5385", "navi_location": {"lng": 108.94530740846, "lat": 34.258628351832}, "type": "cater", "detail_url": "http://api.map.baidu.com/place/detail?uid=803708f102ccf16000897282&output=html&source=placeapi_v2", "price": "142.0", "overall_rating": "4.2", "comment_num": "100", "di_review_keyword": []}}, {"name": "\u5fd7\u4eae\u704c\u6c64\u84b8\u997a", "location": {"lat": 34.269182, "lng": 108.939945}, "address": "\u897f\u5b89\u5e02\u83b2\u6e56\u533a\u6d12\u91d1\u686512\u53f7", "street_id": "d6df91c128230c73f7b91608", "telephone": "(029)87253420", "detail": 1, "uid": "d6df91c128230c73f7b91608", "detail_info": {"tag": "\u7f8e\u98df;\u5c0f\u5403\u5feb\u9910\u5e97", "navi_location": {"lng": 108.93908344124, "lat": 34.269672265302}, "type": "cater", "detail_url": "http://api.map.baidu.com/place/detail?uid=d6df91c128230c73f7b91608&output=html&source=placeapi_v2", "price": "16.0", "overall_rating": "4.3", "comment_num": "456", "di_review_keyword": []}}, {"name": "\u5889\u57ce\u9091", "location": {"lat": 34.257966, "lng": 108.932188}, "address": "\u542b\u5149\u95e8\u91cc\u987a\u57ce\u5357\u5df71\u53f7\u8fd1\u57ce\u5899\u897f\u5357\u4fa7", "street_id": "0adce3e2dcbb3e7881a00c96", "detail": 1, "uid": "0adce3e2dcbb3e7881a00c96", "detail_info": {"tag": "\u7f8e\u98df;\u4e2d\u9910\u5385", "navi_location": {"lng": 108.93214289662, "lat": 34.258217968439}, "type": "cater", "detail_url": "http://api.map.baidu.com/place/detail?uid=0adce3e2dcbb3e7881a00c96&output=html&source=placeapi_v2", "price": "81.0", "overall_rating": "4.1", "comment_num": "16", "di_review_keyword": []}}, {"name": "\u591c\u6751\u7c73\u9152\u5c4b", "location": {"lat": 34.255647, "lng": 108.951098}, "address": "\u73af\u57ce\u5357\u8def\u897f\u6bb516\u53f7\u957f\u5b89\u516c\u9986\u9694\u58c1", "street_id": "4b661bb982a2accb38e4a60f", "telephone": "(029)85590889,15249203955", "detail": 1, "uid": "4b661bb982a2accb38e4a60f", "detail_info": {"tag": "\u7f8e\u98df;\u5916\u56fd\u9910\u5385", "type": "cater", "detail_url": "http://api.map.baidu.com/place/detail?uid=4b661bb982a2accb38e4a60f&output=html&source=placeapi_v2", "price": "86.0", "overall_rating": "4.0", "comment_num": "6", "di_review_keyword": []}}, {"name": "\u5efa\u8f89\u6e56\u5357\u571f\u83dc\u9986(\u5357\u5927\u8857\u5e97)", "location": {"lat": 34.262478, "lng": 108.951869}, "address": "\u897f\u5b89\u7891\u6797\u533a\u5357\u5927\u8857\u897f\u6728\u5934\u5e0221\u53f7", "street_id": "2fd2beab8852ed4b7adbd216", "telephone": "029-88666609", "detail": 1, "uid": "2fd2beab8852ed4b7adbd216", "detail_info": {"tag": "\u7f8e\u98df;\u4e2d\u9910\u5385", "navi_location": {"lng": 108.95187956518, "lat": 34.262279754339}, "type": "cater", "detail_url": "http://api.map.baidu.com/place/detail?uid=2fd2beab8852ed4b7adbd216&output=html&source=placeapi_v2", "price": "42.0", "overall_rating": "3.9", "comment_num": "9", "di_review_keyword": []}}, {"name": "\u738b\u5983\u5bb6\u7684\u829d\u58eb\u5e74\u7cd5\u706b\u9505", "location": {"lat": 34.259859, "lng": 108.939234}, "address": "\u663e\u793a\u83b2\u6e56\u533a\u542b\u5149\u95e8\u5185300\u7c73\u8def\u4e1c\u751c\u6c34\u4e9537\u53f7(\u4e2d\u8d22\u5927\u53a6\u659c\u5bf9\u9762)", "street_id": "840d0bc40daa5271a90dd862", "detail": 1, "uid": "840d0bc40daa5271a90dd862", "detail_info": {"tag": "\u7f8e\u98df;\u4e2d\u9910\u5385", "type": "cater", "detail_url": "http://api.map.baidu.com/place/detail?uid=840d0bc40daa5271a90dd862&output=html&source=placeapi_v2", "price": "60.0", "overall_rating": "4", "comment_num": "4", "di_review_keyword": []}}, {"name": "\u6e05\u771f\u8001\u57ce\u6dae\u70e4", "location": {"lat": 34.260846, "lng": 108.930839}, "address": "\u73af\u57ce\u897f\u8def\u5929\u54c1\u897f\u5cb819\u53f7\uff08\u539f\u5170\u4ead\u9a7f\uff09", "street_id": "656210f090a5b6b6abf0cd23", "telephone": "(029)88628172", "detail": 1, "uid": "656210f090a5b6b6abf0cd23", "detail_info": {"tag": "\u7f8e\u98df;\u4e2d\u9910\u5385", "type": "cater", "detail_url": "http://api.map.baidu.com/place/detail?uid=656210f090a5b6b6abf0cd23&output=html&source=placeapi_v2", "price": "56.5", "overall_rating": "4.7", "groupon_num": "2", "comment_num": "39", "di_review_keyword": []}}, {"name": "\u963fQ\u9910\u5385(\u5927\u8f66\u5bb6\u5df7\u5e97)", "location": {"lat": 34.260794, "lng": 108.948846}, "address": "\u9655\u897f\u7701\u897f\u5b89\u5e02\u7891\u6797\u533a\u5927\u8f66\u5bb6\u5df731\u53f7", "street_id": "da2566ab9bcedf6b4f6d46cb", "telephone": "(029)87260024", "detail": 1, "uid": "da2566ab9bcedf6b4f6d46cb", "detail_info": {"tag": "\u7f8e\u98df;\u4e2d\u9910\u5385", "navi_location": {"lng": 108.94861842513, "lat": 34.26080999762}, "type": "cater", "detail_url": "http://api.map.baidu.com/place/detail?uid=da2566ab9bcedf6b4f6d46cb&output=html&source=placeapi_v2", "price": "53.0", "overall_rating": "3.5", "comment_num": "100", "di_review_keyword": []}}, {"name": "\u9762\u8fa3\u5b50\u9152\u697c(\u897f\u5927\u8857\u5e97)", "location": {"lat": 34.265194, "lng": 108.937316}, "address": "\u897f\u5927\u8857358\u53f7\u5510\u4eba\u8857\u5546\u4e1a\u6b65\u884c\u8857B2\u680b3\u5c4230690\u53f7\uff08\u897f\u5927\u8857\u6865\u6893\u53e3\u5341\u5b57\u897f\u5357\u89d2\u4e16\u7eaa\u91d1\u82b1\u9694\u58c1\uff09", "street_id": "ed69ef7dd6d0f71d400245c5", "telephone": "(029)87632999", "detail": 1, "uid": "ed69ef7dd6d0f71d400245c5", "detail_info": {"tag": "\u7f8e\u98df;\u4e2d\u9910\u5385", "navi_location": {"lng": 108.93731628476, "lat": 34.265317276267}, "type": "cater", "detail_url": "http://api.map.baidu.com/place/detail?uid=ed69ef7dd6d0f71d400245c5&output=html&source=placeapi_v2", "price": "57.0", "overall_rating": "4.1", "groupon_num": "2", "comment_num": "120", "di_review_keyword": []}}, {"name": "\u9999\u6e2f\u8868\u54e5\u8336\u9910\u5385", "location": {"lat": 34.265176, "lng": 108.949237}, "address": "\u897f\u5b89\u5e02\u7891\u6797\u533a\u897f\u5927\u885748\u53f7\u94f6\u6cf0\u767e\u8d27(\u897f\u5b89\u5e97)4\u5c42", "street_id": "ed6dd36ec87d1c3612882427", "telephone": "18292035870", "detail": 1, "uid": "ed6dd36ec87d1c3612882427", "detail_info": {"tag": "\u7f8e\u98df;\u4e2d\u9910\u5385", "navi_location": {"lng": 108.9498919807, "lat": 34.264657218038}, "indoor_floor": "F4", "type": "cater", "detail_url": "http://api.map.baidu.com/place/detail?uid=ed6dd36ec87d1c3612882427&output=html&source=placeapi_v2", "price": "67.0", "overall_rating": "4.4", "comment_num": "100", "di_review_keyword": []}}, {"name": "\u9648\u516c\u9986\u53a8\u827a\u574a", "location": {"lat": 34.263764, "lng": 108.949805}, "address": "\u7891\u6797\u533a\u7af9\u7b06\u5e0236\u53f7", "street_id": "a3f21eee3b77005d2eb17e8a", "telephone": "(029)68970888", "detail": 1, "uid": "a3f21eee3b77005d2eb17e8a", "detail_info": {"tag": "\u7f8e\u98df;\u4e2d\u9910\u5385", "navi_location": {"lng": 108.94986508273, "lat": 34.263665162584}, "type": "cater", "detail_url": "http://api.map.baidu.com/place/detail?uid=a3f21eee3b77005d2eb17e8a&output=html&source=placeapi_v2", "price": "72.0", "overall_rating": "4.5", "comment_num": "100", "di_review_keyword": []}}, {"name": "\u6f6e\u6c55\u94fa(\u751c\u6c34\u4e95\u5e97)", "location": {"lat": 34.261978, "lng": 108.939252}, "address": "\u6865\u6893\u53e314\u53f7", "street_id": "b7021bf8615bcfe3f4e73b7e", "telephone": "15686033606,13720546563", "detail": 1, "uid": "b7021bf8615bcfe3f4e73b7e", "detail_info": {"tag": "\u7f8e\u98df;\u4e2d\u9910\u5385", "type": "cater", "detail_url": "http://api.map.baidu.com/place/detail?uid=b7021bf8615bcfe3f4e73b7e&output=html&source=placeapi_v2", "price": "61.0", "overall_rating": "4.0", "comment_num": "18", "di_review_keyword": []}}, {"name": "\u865e\u4e30\u4e00\u5c0f\u9986", "location": {"lat": 34.260639, "lng": 108.939332}, "address": "\u751c\u6c34\u4e95\u885761\u53f7\u9644\u8fd1", "street_id": "81d6a509defc5a596f20b9f6", "telephone": "13991919037", "detail": 1, "uid": "81d6a509defc5a596f20b9f6", "detail_info": {"tag": "\u7f8e\u98df;\u4e2d\u9910\u5385", "type": "cater", "detail_url": "http://api.map.baidu.com/place/detail?uid=81d6a509defc5a596f20b9f6&output=html&source=placeapi_v2", "price": "40.0", "overall_rating": "4.6", "comment_num": "31", "di_review_keyword": []}}, {"name": "\u4f70\u4eba\u738b\u4e32\u4e32\u9999(\u7c89\u5df7\u5e97)", "location": {"lat": 34.261522, "lng": 108.949071}, "address": "\u7891\u6797\u533a\u5357\u9662\u95e8127\u53f7(\u738b\u5b50\u5927\u53a6\u659c\u5bf9\u9762)", "street_id": "2c0bd6c5bdcc93ab43ab9a47", "telephone": "(029)87261522", "detail": 1, "uid": "2c0bd6c5bdcc93ab43ab9a47", "detail_info": {"tag": "\u7f8e\u98df;\u4e2d\u9910\u5385", "type": "cater", "detail_url": "http://api.map.baidu.com/place/detail?uid=2c0bd6c5bdcc93ab43ab9a47&output=html&source=placeapi_v2", "price": "59.0", "overall_rating": "4.5", "comment_num": "100", "di_review_keyword": []}}, {"name": "\u6e05\u771f\u53e4\u57ce\u597d\u4e00\u9505\u7f8a\u874e\u5b50\u706b\u9505", "location": {"lat": 34.263034, "lng": 108.945723}, "address": "\u5357\u5e7f\u6d4e\u885779\u53f7(\u4e94\u5473\u5341\u5b57\u5411\u531750\u7c73)", "street_id": "e08c0e4963d9a9c3354aaee0", "telephone": "(029)88444255", "detail": 1, "uid": "e08c0e4963d9a9c3354aaee0", "detail_info": {"tag": "\u7f8e\u98df;\u4e2d\u9910\u5385", "type": "cater", "detail_url": "http://api.map.baidu.com/place/detail?uid=e08c0e4963d9a9c3354aaee0&output=html&source=placeapi_v2", "price": "79.0", "overall_rating": "4.6", "groupon_num": "2", "comment_num": "168", "di_review_keyword": []}}, {"name": "\u6768\u5bb6\u70e4\u8089", "location": {"lat": 34.26938, "lng": 108.941561}, "address": "\u5e99\u540e\u8857137\u53f7", "street_id": "8d17425ef31d145aae04579f", "telephone": "18992882665", "detail": 1, "uid": "8d17425ef31d145aae04579f", "detail_info": {"tag": "\u7f8e\u98df;\u5176\u4ed6", "type": "cater", "detail_url": "http://api.map.baidu.com/place/detail?uid=8d17425ef31d145aae04579f&output=html&source=placeapi_v2", "price": "28.0", "overall_rating": "4.2", "comment_num": "3", "di_review_keyword": []}}, {"name": "\u8717\u53bb\u6162\u65c5\u5496\u9986", "location": {"lat": 34.265118, "lng": 108.935845}, "address": "\u897f\u5927\u8857\u5b89\u5b9a\u5e7f\u573a\u56db\u53f7\u697c\u4e00\u5c42\uff08\u897f\u95e8\u6c83\u5c14\u739b\u5f80\u4e1c50\u7c73\uff09", "street_id": "ecb55a49c6b5404c59bbbc0e", "telephone": "(029)88826018", "detail": 1, "uid": "ecb55a49c6b5404c59bbbc0e", "detail_info": {"tag": "\u7f8e\u98df;\u5496\u5561\u5385", "type": "cater", "detail_url": "http://api.map.baidu.com/place/detail?uid=ecb55a49c6b5404c59bbbc0e&output=html&source=placeapi_v2", "price": "26.0", "overall_rating": "4.3", "groupon_num": "2", "comment_num": "64", "di_review_keyword": []}}, {"name": "\u6a0a\u8bb0\u814a\u6c41\u8089(\u7af9\u7b06\u5e02\u8001\u5e97)", "location": {"lat": 34.264224, "lng": 108.950192}, "address": "\u897f\u5b89\u7891\u6797\u533a\u7af9\u7b06\u5e02\u885753\u53f7(\u8fd1\u963f\u623f\u5bab\u7535\u5f71\u9662)", "street_id": "49d9593884e85f5ac71e51e4", "telephone": "(029)87273917", "detail": 1, "uid": "49d9593884e85f5ac71e51e4", "detail_info": {"tag": "\u7f8e\u98df;\u5c0f\u5403\u5feb\u9910\u5e97", "navi_location": {"lng": 108.94988931812, "lat": 34.26423246319}, "type": "cater", "detail_url": "http://api.map.baidu.com/place/detail?uid=49d9593884e85f5ac71e51e4&output=html&source=placeapi_v2", "price": "14.0", "overall_rating": "3.9", "comment_num": "100", "di_review_keyword": []}}, {"name": "\u6e05\u771f\u9a6c\u6587\u5b66\u814a\u725b\u7f8a\u8089(\u56de\u6c11\u8857\u5e97)", "location": {"lat": 34.267627, "lng": 108.938828}, "address": "\u5927\u9ea6\u5e02\u885740\u53f7", "street_id": "60cdedac7f3bc48cb6f42f4a", "telephone": "18966717630", "detail": 1, "uid": "60cdedac7f3bc48cb6f42f4a", "detail_info": {"tag": "\u7f8e\u98df;\u4e2d\u9910\u5385", "type": "cater", "detail_url": "http://api.map.baidu.com/place/detail?uid=60cdedac7f3bc48cb6f42f4a&output=html&source=placeapi_v2", "price": "50.0", "overall_rating": "4.9", "comment_num": "26", "di_review_keyword": []}}, {"name": "\u8424\u521d\u7089\u7aef\u70e7(\u73af\u57ce\u897f\u82d1\u5e97)", "location": {"lat": 34.261107, "lng": 108.930835}, "address": "\u83b2\u6e56\u533a\u897f\u5173\u8857\u9053\u73af\u57ce\u897f\u8def\u5357\u6bb51\u53f7\u73af\u57ce\u897f\u82d1\u5929\u54c1\u897f\u5cb822\u53f7\uff08\u897f\u95e8\u5916\u9152\u5427\u8857\uff09i", "street_id": "2029cdc7f370b19e31870a29", "telephone": "(029)84255699", "detail": 1, "uid": "2029cdc7f370b19e31870a29", "detail_info": {"tag": "\u7f8e\u98df;\u5916\u56fd\u9910\u5385", "navi_location": {"lng": 108.93146806436, "lat": 34.26173971647}, "type": "cater", "detail_url": "http://api.map.baidu.com/place/detail?uid=2029cdc7f370b19e31870a29&output=html&source=placeapi_v2", "price": "129.0", "overall_rating": "4.5", "comment_num": "20", "di_review_keyword": []}}, {"name": "\u4e1c\u6e56\u9ec4\u9e64\u697c1958", "location": {"lat": 34.258682, "lng": 108.9323}, "address": "\u5357\u9a6c\u9053\u5df75\u53f7\u9752\u90fd\u91cc\u70ad\u70e7(\u897f\u95e8\u5e97)\u9644\u8fd1", "street_id": "7edfca4a1e7ec2d9c9e33c04", "detail": 1, "uid": "7edfca4a1e7ec2d9c9e33c04", "detail_info": {"tag": "\u623f\u5730\u4ea7;\u5199\u5b57\u697c", "navi_location": {"lng": 108.93198632286, "lat": 34.258643231174}, "type": "cater", "detail_url": "http://api.map.baidu.com/place/detail?uid=7edfca4a1e7ec2d9c9e33c04&output=html&source=placeapi_v2", "price": "78.0", "overall_rating": "4.9", "comment_num": "58", "di_review_keyword": []}}, {"name": "\u7a46\u5df4\u62c9\u5ba2(\u56de\u6c11\u8857\u5e97)", "location": {"lat": 34.269355, "lng": 108.945053}, "address": "\u5e99\u540e\u885719\u53f7", "street_id": "b4309f9848757a8df02d8357", "telephone": "13772011210", "detail": 1, "uid": "b4309f9848757a8df02d8357", "detail_info": {"tag": "\u7f8e\u98df;\u4e2d\u9910\u5385", "type": "cater", "detail_url": "http://api.map.baidu.com/place/detail?uid=b4309f9848757a8df02d8357&output=html&source=placeapi_v2", "price": "55.0", "overall_rating": "4.8", "groupon_num": "1", "comment_num": "100", "di_review_keyword": []}}, {"name": "\u5f66\u5f6c\u5143\u5bb5\u5e97", "location": {"lat": 34.270808, "lng": 108.947449}, "address": "\u897f\u5b89\u5e02\u83b2\u6e56\u533a\u5927\u76ae\u9662103\u53f7", "street_id": "b7dcfb9f0d64bb40f7eafcb7", "telephone": "(029)87331071", "detail": 1, "uid": "b7dcfb9f0d64bb40f7eafcb7", "detail_info": {"tag": "\u7f8e\u98df;\u4e2d\u9910\u5385", "navi_location": {"lng": 108.9475211674, "lat": 34.270701797777}, "type": "cater", "detail_url": "http://api.map.baidu.com/place/detail?uid=b7dcfb9f0d64bb40f7eafcb7&output=html&source=placeapi_v2", "price": "11.0", "overall_rating": "4.3", "comment_num": "10", "di_review_keyword": []}}, {"name": "\u8717\u725b\u6dae\u6dae", "location": {"lat": 34.2616, "lng": 108.932361}, "address": "\u73af\u57ce\u897f\u8def115\u53f7", "street_id": "0b1bdfee47af54c4c51e5175", "telephone": "18789448978,(029)88450960", "detail": 1, "uid": "0b1bdfee47af54c4c51e5175", "detail_info": {"tag": "\u7f8e\u98df;\u4e2d\u9910\u5385", "type": "cater", "detail_url": "http://api.map.baidu.com/place/detail?uid=0b1bdfee47af54c4c51e5175&output=html&source=placeapi_v2", "price": "68.0", "overall_rating": "4.5", "comment_num": "1", "di_review_keyword": []}}, {"name": "\u718a\u732b\u5ddd\u83dc", "location": {"lat": 34.261837, "lng": 108.947715}, "address": "\u897f\u5b89\u5e02\u5357\u9662\u95e8\u5357\u53e3\u6625\u53d1\u751f\u897f\u4fa7", "street_id": "dbdb3b4941c2185d210262f9", "telephone": "(029)87219889", "detail": 1, "uid": "dbdb3b4941c2185d210262f9", "detail_info": {"tag": "\u7f8e\u98df;\u4e2d\u9910\u5385", "type": "cater", "detail_url": "http://api.map.baidu.com/place/detail?uid=dbdb3b4941c2185d210262f9&output=html&source=placeapi_v2", "price": "51.0", "overall_rating": "3.7", "comment_num": "1", "di_review_keyword": []}}, {"name": "\u9752\u5c9b\u6d77\u9c9c\u8001\u5e97", "location": {"lat": 34.2564, "lng": 108.931041}, "address": "\u592a\u767d\u5317\u8def279\u53f7\uff08\u6c34\u53f8\u5341\u5b57\u4e1c\u5357\u89d2\uff09", "street_id": "34f68ab0ae4cad138f55ec70", "telephone": "(029)88481871", "detail": 1, "uid": "34f68ab0ae4cad138f55ec70", "detail_info": {"tag": "\u7f8e\u98df;\u4e2d\u9910\u5385", "navi_location": {"lng": 108.931028245, "lat": 34.25651589238}, "type": "cater", "detail_url": "http://api.map.baidu.com/place/detail?uid=34f68ab0ae4cad138f55ec70&output=html&source=placeapi_v2", "price": "40.0", "overall_rating": "4.1", "comment_num": "4", "di_review_keyword": []}}, {"name": "\u4e32\u7ea6\u65f6\u5149", "location": {"lat": 34.266666, "lng": 108.936745}, "address": "\u897f\u5927\u8857\u8d21\u9662\u95e833\u53f7\uff08\u513f\u7ae5\u516c\u56ed\u95e8\u53e3\uff09", "street_id": "e38a5d645c058fc031870a68", "telephone": "18700930930,(029)87378507", "detail": 1, "uid": "e38a5d645c058fc031870a68", "detail_info": {"tag": "\u7f8e\u98df;\u4e2d\u9910\u5385", "type": "cater", "detail_url": "http://api.map.baidu.com/place/detail?uid=e38a5d645c058fc031870a68&output=html&source=placeapi_v2", "price": "36.0", "overall_rating": "4.4", "groupon_num": "1", "comment_num": "15", "di_review_keyword": []}}, {"name": "\u6625\u53d1\u751f(\u5357\u9662\u95e8\u5e97)", "location": {"lat": 34.261817, "lng": 108.947709}, "address": "\u7891\u6797\u533a\u5357\u9662\u95e820\u53f7", "street_id": "bb1d38e4750233540d0a7086", "telephone": "029-87278316", "detail": 1, "uid": "bb1d38e4750233540d0a7086", "detail_info": {"tag": "\u7f8e\u98df;\u4e2d\u9910\u5385", "navi_location": {"lng": 108.94770824042, "lat": 34.261755139677}, "type": "cater", "detail_url": "http://api.map.baidu.com/place/detail?uid=bb1d38e4750233540d0a7086&output=html&source=placeapi_v2", "price": "45.0", "overall_rating": "4.1", "groupon_num": "1", "comment_num": "0", "di_review_keyword": []}}, {"name": "\u4e0a\u6d77\u5c0f\u5357\u56fd(\u5317\u5927\u8857\u5e97)", "location": {"lat": 34.270035, "lng": 108.952835}, "address": "\u897f\u5b89\u5e02\u83b2\u6e56\u533a\u5317\u5927\u885788\u53f7\u8def\u897f\u65b0\u4e16\u754c\u767e\u8d273\u5c42", "street_id": "cdf1ac24dd7d2e1bcc06a4d1", "telephone": "(029)87368177,4008209777", "detail": 1, "uid": "cdf1ac24dd7d2e1bcc06a4d1", "detail_info": {"tag": "\u7f8e\u98df;\u4e2d\u9910\u5385", "navi_location": {"lng": 108.95246912308, "lat": 34.269575436696}, "indoor_floor": "F3", "type": "cater", "detail_url": "http://api.map.baidu.com/place/detail?uid=cdf1ac24dd7d2e1bcc06a4d1&output=html&source=placeapi_v2", "price": "107.5", "overall_rating": "3.9", "comment_num": "100", "di_review_keyword": []}}, {"name": "\u6728\u5747\u65b0\u6d3e\u706b\u9505(\u5357\u9662\u95e8\u5e97)", "location": {"lat": 34.261576, "lng": 108.949099}, "address": "\u5357\u9662\u95e895\u53f7", "street_id": "6543b348fa61037008f5eb49", "telephone": "(029)87217768", "detail": 1, "uid": "6543b348fa61037008f5eb49", "detail_info": {"tag": "\u7f8e\u98df;\u4e2d\u9910\u5385", "type": "cater", "detail_url": "http://api.map.baidu.com/place/detail?uid=6543b348fa61037008f5eb49&output=html&source=placeapi_v2", "price": "103.0", "overall_rating": "5", "comment_num": "10", "di_review_keyword": []}}, {"name": "\u8001\u560e\u7092\u83dc\u9986", "location": {"lat": 34.26938, "lng": 108.94156}, "address": "\u5e99\u540e\u8857145\u53f7", "street_id": "09185c56db0c7744f1193722", "telephone": "(029)87273926", "detail": 1, "uid": "09185c56db0c7744f1193722", "detail_info": {"tag": "\u7f8e\u98df;\u4e2d\u9910\u5385", "navi_location": {"lng": 108.94156118343, "lat": 34.269302364235}, "type": "cater", "detail_url": "http://api.map.baidu.com/place/detail?uid=09185c56db0c7744f1193722&output=html&source=placeapi_v2", "price": "29.0", "overall_rating": "4", "groupon_num": "1", "comment_num": "39", "di_review_keyword": []}}, {"name": "\u6e05\u771f\u8001\u5317\u4eac\u6dae\u9505", "location": {"lat": 34.267651, "lng": 108.93764}, "address": "\u4e1c\u4e3e\u9662\u5df713\u53f7\uff08\u8d21\u9662\u95e8\u5c0f\u5b66\u5411\u531710\u7c73\uff09", "street_id": "89d4316e6242f33d57bfff1b", "telephone": "18909216267", "detail": 1, "uid": "89d4316e6242f33d57bfff1b", "detail_info": {"tag": "\u7f8e\u98df;\u4e2d\u9910\u5385", "type": "cater", "detail_url": "http://api.map.baidu.com/place/detail?uid=89d4316e6242f33d57bfff1b&output=html&source=placeapi_v2", "price": "43.0", "overall_rating": "4.6", "comment_num": "87", "di_review_keyword": []}}, {"name": "\u8587\u914c\u996e\u5bb6\u53a8", "location": {"lat": 34.258274, "lng": 108.941139}, "address": "\u83b2\u6e56\u533a\u542b\u5149\u95e8\u91cc\u987a\u57ce\u5df7\u4e1c100\u7c73(\u8fd1\u5c0f\u5357\u95e8)", "street_id": "d1469ee73861df7b853304e2", "telephone": "(029)87619886", "detail": 1, "uid": "d1469ee73861df7b853304e2", "detail_info": {"tag": "\u7f8e\u98df;\u4e2d\u9910\u5385", "navi_location": {"lng": 108.94116777862, "lat": 34.258110828721}, "type": "cater", "detail_url": "http://api.map.baidu.com/place/detail?uid=d1469ee73861df7b853304e2&output=html&source=placeapi_v2", "price": "50.0", "overall_rating": "4.1", "comment_num": "285", "di_review_keyword": []}}, {"name": "\u571f\u5927\u529b(\u897f\u5927\u8857\u5e97)", "location": {"lat": 34.265166, "lng": 108.948941}, "address": "\u897f\u5927\u885748\u53f7\u94f6\u6cf0\u4e2d\u73af\u5e7f\u573a\u4e2d\u73af\u94f6\u6cf0\u5e7f\u573a3\u5c42", "street_id": "38e48037fcbfca50363a71a9", "telephone": "(029)87271264", "detail": 1, "uid": "38e48037fcbfca50363a71a9", "detail_info": {"tag": "\u7f8e\u98df;\u5916\u56fd\u9910\u5385", "navi_location": {"lng": 108.94991468447, "lat": 34.264791484598}, "indoor_floor": "F3", "type": "cater", "detail_url": "http://api.map.baidu.com/place/detail?uid=38e48037fcbfca50363a71a9&output=html&source=placeapi_v2", "price": "50.0", "overall_rating": "4.0", "comment_num": "100", "di_review_keyword": []}}, {"name": "\u6e05\u771f\u745e\u7965\u697c\u996d\u5e84", "location": {"lat": 34.269312, "lng": 108.941041}, "address": "\u5e99\u540e\u8857165\u53f7", "street_id": "8319f98b93f97285d72ce217", "telephone": "13259999557", "detail": 1, "uid": "8319f98b93f97285d72ce217", "detail_info": {"tag": "\u7f8e\u98df;\u4e2d\u9910\u5385", "type": "cater", "detail_url": "http://api.map.baidu.com/place/detail?uid=8319f98b93f97285d72ce217&output=html&source=placeapi_v2", "price": "41.0", "overall_rating": "4.5", "comment_num": "3", "di_review_keyword": []}}, {"name": "\u522b\u9662\u9ec4\u9152\u9986", "location": {"lat": 34.266005, "lng": 108.934422}, "address": "\u897f\u95e8\u91cc\u8def\u5317\u5b9d\u9686\u5927\u53a61\u697c\u9493\u9c7c\u5c9b\u9152\u5e97\u9662\u5185(\u897f\u95e8\u91cc\u6c83\u5c14\u739b\u9a6c\u8def\u5bf9\u9762)", "street_id": "2965c5e45b8bd4ce2afc480e", "telephone": "(029)87390816", "detail": 1, "uid": "2965c5e45b8bd4ce2afc480e", "detail_info": {"tag": "\u7f8e\u98df;\u4e2d\u9910\u5385", "navi_location": {"lng": 108.93438307203, "lat": 34.265970225695}, "type": "cater", "detail_url": "http://api.map.baidu.com/place/detail?uid=2965c5e45b8bd4ce2afc480e&output=html&source=placeapi_v2", "price": "83.5", "overall_rating": "4.4", "comment_num": "9", "di_review_keyword": []}}, {"name": "\u65fa\u519b\u70e4\u8089\u867e\u5c3e", "location": {"lat": 34.260656, "lng": 108.948505}, "address": "\u7891\u6797\u533a\u8f66\u5bb6\u5df7\u4e2d\u6bb5\u8def\u897f", "street_id": "a21223bcc95f35b0a11de912", "telephone": "029-87276106", "detail": 1, "uid": "a21223bcc95f35b0a11de912", "detail_info": {"tag": "\u7f8e\u98df;\u4e2d\u9910\u5385", "type": "cater", "detail_url": "http://api.map.baidu.com/place/detail?uid=a21223bcc95f35b0a11de912&output=html&source=placeapi_v2", "price": "78.0", "overall_rating": "4.0", "comment_num": "15", "di_review_keyword": []}}, {"name": "\u7edd\u54c1\u7a3b\u9999\u86d9\u7eff\u8377\u9910\u5385", "location": {"lat": 34.262379, "lng": 108.945995}, "address": "\u9655\u897f\u7701\u897f\u5b89\u5e02\u7891\u6797\u533a\u5357\u9662\u95e853\u53f7", "street_id": "05dd7d5fc1613618ad080f4c", "telephone": "(029)87378677", "detail": 1, "uid": "05dd7d5fc1613618ad080f4c", "detail_info": {"tag": "\u7f8e\u98df;\u4e2d\u9910\u5385", "navi_location": {"lng": 108.94600323321, "lat": 34.262631813194}, "type": "cater", "detail_url": "http://api.map.baidu.com/place/detail?uid=05dd7d5fc1613618ad080f4c&output=html&source=placeapi_v2", "price": "76.0", "overall_rating": "4.1", "groupon_num": "1", "comment_num": "100", "di_review_keyword": []}}, {"name": "\u71d5\u71d5\u7092\u7c73", "location": {"lat": 34.270758, "lng": 108.947019}, "address": "\u5927\u76ae\u9662139\u53f7", "street_id": "15ed53ced9607a4d9322e088", "detail": 1, "uid": "15ed53ced9607a4d9322e088", "detail_info": {"tag": "\u7f8e\u98df;\u4e2d\u9910\u5385", "type": "cater", "detail_url": "http://api.map.baidu.com/place/detail?uid=15ed53ced9607a4d9322e088&output=html&source=placeapi_v2", "price": "7.0", "overall_rating": "3.9", "comment_num": "14", "di_review_keyword": []}}, {"name": "\u8001\u5170\u5bb6\u56de\u574a\u7f8e\u98df\u7279\u8272\u7092\u83dc", "location": {"lat": 34.258343, "lng": 108.94233}, "address": "\u62a5\u6069\u5bfaA2\u53f7\u5c0f\u5357\u95e8\u91cc(\u56db\u5e9c\u8857)", "street_id": "00586108aa2beebc47e274bd", "telephone": "(029)87619888", "detail": 1, "uid": "00586108aa2beebc47e274bd", "detail_info": {"tag": "\u7f8e\u98df;\u4e2d\u9910\u5385", "navi_location": {"lng": 108.94232413496, "lat": 34.258516567031}, "type": "cater", "detail_url": "http://api.map.baidu.com/place/detail?uid=00586108aa2beebc47e274bd&output=html&source=placeapi_v2", "price": "54.0", "overall_rating": "4.0", "groupon_num": "1", "comment_num": "43", "di_review_keyword": []}}, {"name": "\u4e0d\u4e8c\u00b7\u94dc\u9505\u6dae\u8089", "location": {"lat": 34.263037, "lng": 108.928527}, "address": "\u516b\u4f73\u8def\u5546\u7528\u623f\u4e00\u5e62\u4e8c\u5c42205\u53f7", "street_id": "c89c8bf745c79c814e55473e", "telephone": "15309278815", "detail": 1, "uid": "c89c8bf745c79c814e55473e", "detail_info": {"tag": "\u7f8e\u98df;\u4e2d\u9910\u5385", "type": "cater", "detail_url": "http://api.map.baidu.com/place/detail?uid=c89c8bf745c79c814e55473e&output=html&source=placeapi_v2", "price": "44.5", "overall_rating": "4.5", "groupon_num": "1", "comment_num": "11", "di_review_keyword": []}}, {"name": "\u732b\u54aa\u9910\u5385(\u6731\u96c0\u95e8\u5916\u5e97)", "location": {"lat": 34.256715, "lng": 108.947864}, "address": "\u5357\u95e8\u5916\u897f\u5357\u89d2\u91d1\u82b1\u8c6a\u751f\u9152\u5e97\u5411\u897f300\u7c73\u8def\u5357\u73af\u57ce\u5357\u8def48\u53f7\u57ce\u5e02\u90e6\u666f\u5c0f\u533a2\u5355\u51432104", "street_id": "c3e9e76648d94ce995f08c9a", "telephone": "(029)85560530,15802937022", "detail": 1, "uid": "c3e9e76648d94ce995f08c9a", "detail_info": {"tag": "\u7f8e\u98df;\u5916\u56fd\u9910\u5385", "type": "cater", "detail_url": "http://api.map.baidu.com/place/detail?uid=c3e9e76648d94ce995f08c9a&output=html&source=placeapi_v2", "price": "50.0", "overall_rating": "4.3", "groupon_num": "2", "comment_num": "620", "di_review_keyword": []}}, {"name": "\u54f2\u9ebb\u7acb\u9910\u5385", "location": {"lat": 34.270815, "lng": 108.949059}, "address": "\u5927\u76ae\u966211\u53f7", "street_id": "4b8a7325811a1a5daeb22a7f", "telephone": "(029)87381463", "detail": 1, "uid": "4b8a7325811a1a5daeb22a7f", "detail_info": {"tag": "\u7f8e\u98df;\u4e2d\u9910\u5385", "type": "cater", "detail_url": "http://api.map.baidu.com/place/detail?uid=4b8a7325811a1a5daeb22a7f&output=html&source=placeapi_v2", "price": "43.5", "overall_rating": "4.3", "groupon_num": "1", "comment_num": "10", "di_review_keyword": []}}, {"name": "\u4e2b\u4e2b\u7ca4\u5f0f\u6253\u8fb9\u7089", "location": {"lat": 34.261917, "lng": 108.933938}, "address": "\u897f\u5b89\u83b2\u6e56\u533a\u897f\u95e8\u91cc\u897f\u6886\u5b50\u5e02\u8857117\u53f7(\u8fd1\u6c83\u5c14\u739b)", "street_id": "803708f103a7f660008972a5", "detail": 1, "uid": "803708f103a7f660008972a5", "detail_info": {"tag": "\u7f8e\u98df;\u4e2d\u9910\u5385", "type": "cater", "detail_url": "http://api.map.baidu.com/place/detail?uid=803708f103a7f660008972a5&output=html&source=placeapi_v2", "price": "94.0", "overall_rating": "4.4", "comment_num": "11", "di_review_keyword": []}}, {"name": "\u62fe\u8d70\u91cd\u5e86\u8001\u706b\u9505", "location": {"lat": 34.265306, "lng": 108.944001}, "address": "\u897f\u5927\u8857126\u53f7\u8363\u6c11\u56fd\u9645\u996d\u5e97\u4e09\u697c\uff08\u897f\u5927\u8857\u767e\u76db\u659c\u5bf9\u9762\uff09", "street_id": "f7f643a37922c1d5f8dc85dc", "telephone": "(029)87381577", "detail": 1, "uid": "f7f643a37922c1d5f8dc85dc", "detail_info": {"tag": "\u7f8e\u98df;\u4e2d\u9910\u5385", "type": "cater", "detail_url": "http://api.map.baidu.com/place/detail?uid=f7f643a37922c1d5f8dc85dc&output=html&source=placeapi_v2", "price": "87.0", "overall_rating": "4.8", "comment_num": "75", "di_review_keyword": []}}, {"name": "\u5fb7\u53d1\u957f\u997a\u5b50\u9986(\u949f\u9f13\u697c\u5e97)", "location": {"lat": 34.266546, "lng": 108.952109}, "address": "\u949f\u9f13\u697c\u5e7f\u573a1\u697c", "street_id": "f696f3c26152caf21b11d54e", "telephone": "029-87214060,029-87218187", "detail": 1, "uid": "f696f3c26152caf21b11d54e", "detail_info": {"tag": "\u7f8e\u98df;\u5c0f\u5403\u5feb\u9910\u5e97", "navi_location": {"lng": 108.9521015212, "lat": 34.266511099161}, "type": "cater", "detail_url": "http://api.map.baidu.com/place/detail?uid=f696f3c26152caf21b11d54e&output=html&source=placeapi_v2", "price": "65.0", "overall_rating": "3.6", "groupon_num": "2", "comment_num": "100", "di_review_keyword": []}}, {"name": "\u70e4\u52a8\u529b(\u65d7\u8230\u5e97)", "location": {"lat": 34.256615, "lng": 108.945347}, "address": "\u957f\u5b89\u8def\u8857\u9053\u6731\u96c0\u5927\u8857\u5317\u6bb5180\u53f7", "street_id": "6004e312224e5ab002897214", "telephone": "(029)85568398", "detail": 1, "uid": "3989a34e345473df28b97c39", "detail_info": {"tag": "\u7f8e\u98df;\u5176\u4ed6", "type": "cater", "detail_url": "http://api.map.baidu.com/place/detail?uid=3989a34e345473df28b97c39&output=html&source=placeapi_v2", "price": "80.0", "overall_rating": "4.2", "comment_num": "87", "di_review_keyword": []}}, {"name": "\u7b80\u5355\u5473\u9053", "location": {"lat": 34.258411, "lng": 108.941093}, "address": "\u897f\u5b89\u5e02\u83b2\u6e56\u533a\u62a5\u6069\u5bfa\u885750\u53f7", "street_id": "4212c63402da066879dbd248", "telephone": "13572180885,(029)87620551", "detail": 1, "uid": "4212c63402da066879dbd248", "detail_info": {"tag": "\u7f8e\u98df;\u5176\u4ed6", "navi_location": {"lng": 108.94109028988, "lat": 34.258487713239}, "type": "cater", "detail_url": "http://api.map.baidu.com/place/detail?uid=4212c63402da066879dbd248&output=html&source=placeapi_v2", "price": "57.0", "overall_rating": "4.2", "comment_num": "25", "di_review_keyword": []}}, {"name": "\u767d\u9e7f\u539f\u732a\u8e44\u574a", "location": {"lat": 34.256354, "lng": 108.9304}, "address": "\u897f\u5b89\u5e02\u7891\u6797\u533a\u73af\u57ce\u5357\u8def1\u53f7\u897f\u5357\u57ce\u89d2", "street_id": "606ab0d01b29bf330e3ddadd", "telephone": "(029)68636666", "detail": 1, "uid": "606ab0d01b29bf330e3ddadd", "detail_info": {"tag": "\u7f8e\u98df;\u4e2d\u9910\u5385", "navi_location": {"lng": 108.93042237387, "lat": 34.256502953566}, "type": "cater", "detail_url": "http://api.map.baidu.com/place/detail?uid=606ab0d01b29bf330e3ddadd&output=html&source=placeapi_v2", "price": "38.5", "overall_rating": "3.6", "groupon_num": "2", "comment_num": "630", "di_review_keyword": []}}, {"name": "\u5927\u81ea\u5728\u706b\u9505(\u4e94\u661f\u8857\u5e97)", "location": {"lat": 34.261741, "lng": 108.942303}, "address": "\u4e94\u661f\u88578\u53f7", "street_id": "435d7aea821ad32c5abbbc0f", "telephone": "029-87332222", "detail": 1, "uid": "435d7aea821ad32c5abbbc0f", "detail_info": {"tag": "\u7f8e\u98df;\u4e2d\u9910\u5385", "navi_location": {"lng": 108.94228375074, "lat": 34.261935966635}, "type": "cater", "detail_url": "http://api.map.baidu.com/place/detail?uid=435d7aea821ad32c5abbbc0f&output=html&source=placeapi_v2", "price": "79.0", "overall_rating": "4.1", "comment_num": "100", "di_review_keyword": []}}, {"name": "\u9a6c\u7ee7\u5c0f\u7092", "location": {"lat": 34.270136, "lng": 108.945329}, "address": "\u9655\u897f\u7701\u897f\u5b89\u5e02\u83b2\u6e56\u533a\u5317\u5e7f\u6d4e\u8857198", "street_id": "b533ea4a8a4af5584f6d4674", "detail": 1, "uid": "b533ea4a8a4af5584f6d4674", "detail_info": {"tag": "\u7f8e\u98df;\u4e2d\u9910\u5385", "type": "cater", "detail_url": "http://api.map.baidu.com/place/detail?uid=b533ea4a8a4af5584f6d4674&output=html&source=placeapi_v2", "price": "23.0", "overall_rating": "4.3", "comment_num": "0", "di_review_keyword": []}}, {"name": "\u771f\u963f\u5a46\u6c34\u997a(\u949f\u697c\u5e97)", "location": {"lat": 34.263848, "lng": 108.95306}, "address": "\u5357\u5927\u885759\u53f7\u4f17\u6c47\u5e7f\u573a\u56db\u5c42(\u5bcc\u8c6a\u5927\u53a64\u697c)", "street_id": "6648e5533f8c8d36581093d4", "telephone": "(029)85391768", "detail": 1, "uid": "c947832b05b038f59a0050dc", "detail_info": {"tag": "\u7f8e\u98df;\u5c0f\u5403\u5feb\u9910\u5e97", "type": "cater", "detail_url": "http://api.map.baidu.com/place/detail?uid=c947832b05b038f59a0050dc&output=html&source=placeapi_v2", "price": "18.0", "overall_rating": "4.7", "comment_num": "106", "di_review_keyword": []}}, {"name": "\u4e1c\u5357\u4e9a\u7511\u7cd5", "location": {"lat": 34.269412, "lng": 108.945552}, "address": "\u897f\u5b89\u5e02\u83b2\u6e56\u533a\u5317\u5e7f\u6d4e\u8857189\u53f7", "street_id": "35debf2986cd5d5da6da3929", "telephone": "(029)87287170", "detail": 1, "uid": "35debf2986cd5d5da6da3929", "detail_info": {"tag": "\u7f8e\u98df;\u5c0f\u5403\u5feb\u9910\u5e97", "navi_location": {"lng": 108.94555240332, "lat": 34.269347414491}, "type": "cater", "detail_url": "http://api.map.baidu.com/place/detail?uid=35debf2986cd5d5da6da3929&output=html&source=placeapi_v2", "price": "5.0", "overall_rating": "3.6", "comment_num": "100", "di_review_keyword": []}}, {"name": "\u8fa3\u5bb4\u706b\u9505", "location": {"lat": 34.256613, "lng": 108.939854}, "address": "\u897f\u5b89\u5e02\u7891\u6797\u533a\u73af\u57ce\u5357\u8def\u897f\u6bb545\u53f7", "street_id": "ca3a030e4a2152a82bd7abc2", "telephone": "(029)85266889", "detail": 1, "uid": "ca3a030e4a2152a82bd7abc2", "detail_info": {"tag": "\u7f8e\u98df;\u4e2d\u9910\u5385", "type": "cater", "detail_url": "http://api.map.baidu.com/place/detail?uid=ca3a030e4a2152a82bd7abc2&output=html&source=placeapi_v2", "price": "90.0", "overall_rating": "4.7", "comment_num": "100", "di_review_keyword": []}}, {"name": "\u9a6c\u5efa\u5c71\u53e3\u53e3\u9999\u7c89\u84b8\u8089", "location": {"lat": 34.269318, "lng": 108.938878}, "address": "\u6d12\u91d1\u6865\u6e05\u771f\u897f\u5bfa\u95e8\u53e3", "street_id": "2991a884d2bfa21f17b54b55", "telephone": "13991120873", "detail": 1, "uid": "d100f5a91fd812a808f5eb68", "detail_info": {"tag": "\u7f8e\u98df;\u4e2d\u9910\u5385", "type": "cater", "detail_url": "http://api.map.baidu.com/place/detail?uid=d100f5a91fd812a808f5eb68&output=html&source=placeapi_v2", "price": "14.0", "overall_rating": "4", "groupon_num": "1", "comment_num": "107", "di_review_keyword": []}}, {"name": "\u5c14\u535c\u9910\u5385", "location": {"lat": 34.270811, "lng": 108.948198}, "address": "\u897f\u5b89\u5e02\u83b2\u6e56\u533a\u5927\u76ae\u966235\u53f7(\u56de\u6c11\u5c0f\u5403\u8857\u5185)", "street_id": "5bdb0961238b16849a00500b", "telephone": "(029)87284241", "detail": 1, "uid": "5bdb0961238b16849a00500b", "detail_info": {"tag": "\u7f8e\u98df;\u4e2d\u9910\u5385", "type": "cater", "detail_url": "http://api.map.baidu.com/place/detail?uid=5bdb0961238b16849a00500b&output=html&source=placeapi_v2", "price": "37.0", "overall_rating": "3.8", "comment_num": "100", "di_review_keyword": []}}, {"name": "\u4e0d\u4e0a\u706b\u7f8e\u98df", "location": {"lat": 34.256276, "lng": 108.942616}, "address": "\u897f\u5b89\u7891\u6797\u533a\u7ea2\u7f28\u8def179\u53f7(\u8fd1\u7ea2\u7f28\u8def\u533b\u9662)", "street_id": "3da907f3562a874ab320a819", "telephone": "13659241658", "detail": 1, "uid": "3da907f3562a874ab320a819", "detail_info": {"tag": "\u7f8e\u98df;\u4e2d\u9910\u5385", "type": "cater", "detail_url": "http://api.map.baidu.com/place/detail?uid=3da907f3562a874ab320a819&output=html&source=placeapi_v2", "price": "36.0", "overall_rating": "4.2", "comment_num": "40", "di_review_keyword": []}}, {"name": "\u5c1a\u635e\u65cb\u8f6c\u81ea\u52a9\u5c0f\u706b\u9505", "location": {"lat": 34.2706, "lng": 108.938901}, "address": "\u56de\u6c11\u8857\u6d12\u91d1\u686544\u53f7(\u6e05\u771f\u53e4\u5bfa\u9694\u58c1)", "street_id": "16fe3f87d672597806fef5fb", "telephone": "(029)87332208", "detail": 1, "uid": "16fe3f87d672597806fef5fb", "detail_info": {"tag": "\u7f8e\u98df;\u4e2d\u9910\u5385", "navi_location": {"lng": 108.93910122499, "lat": 34.270597251306}, "type": "cater", "detail_url": "http://api.map.baidu.com/place/detail?uid=16fe3f87d672597806fef5fb&output=html&source=placeapi_v2", "price": "35.0", "overall_rating": "4.2", "comment_num": "698", "di_review_keyword": []}}, {"name": "\u661f\u6708\u697c", "location": {"lat": 34.269455, "lng": 108.94153}, "address": "\u897f\u5b89\u5e02\u83b2\u6e56\u533a\u5e99\u540e\u8857176\u53f7", "street_id": "48226ff6478207c81b94c6c2", "telephone": "13379061446", "detail": 1, "uid": "48226ff6478207c81b94c6c2", "detail_info": {"tag": "\u7f8e\u98df;\u5176\u4ed6", "navi_location": {"lng": 108.94113028245, "lat": 34.269290447755}, "type": "cater", "detail_url": "http://api.map.baidu.com/place/detail?uid=48226ff6478207c81b94c6c2&output=html&source=placeapi_v2", "price": "36.0", "overall_rating": "4.5", "comment_num": "0"}}, {"name": "\u5c0f\u7af9\u7b7e\u70e4\u8089(\u5c0f\u5357\u95e8\u5e97)", "location": {"lat": 34.258439, "lng": 108.942814}, "address": "\u5c0f\u5357\u95e8\u5185\u56db\u5e9c\u8857\u4e0e\u62a5\u6069\u5bfa\u8857\u5341\u5b57\u4e1c\u5357\u4fa7\u897f\u5b89\u5e02\u5c0f\u5357\u95e8\u91cc32\u53f7\u6731\u96c0\u95e8\uff08\u592a\u9633\u5e99\u95e8\uff09", "street_id": "24d0550879f75ab612882402", "telephone": "13772000612", "detail": 1, "uid": "24d0550879f75ab612882402", "detail_info": {"tag": "\u7f8e\u98df;\u5176\u4ed6", "navi_location": {"lng": 108.94281347521, "lat": 34.258502872845}, "type": "cater", "detail_url": "http://api.map.baidu.com/place/detail?uid=24d0550879f75ab612882402&output=html&source=placeapi_v2", "price": "38.0", "overall_rating": "3.8", "comment_num": "11", "di_review_keyword": []}}, {"name": "\u5b59\u827a\u6db5\u6ce1\u998d(\u897f\u7f8a\u5e02\u5e97)", "location": {"lat": 34.26949, "lng": 108.948548}, "address": "\u56de\u6c11\u8857\u897f\u7f8a\u5e02\u4e2d\u6bb551\u53f7\uff08\u9f13\u697c\u5ba2\u6808\u5bf9\u9762\uff09", "street_id": "0647c3068b4f94a916764353", "telephone": "18049257406", "detail": 1, "uid": "0647c3068b4f94a916764353", "detail_info": {"tag": "\u7f8e\u98df;\u4e2d\u9910\u5385", "type": "cater", "detail_url": "http://api.map.baidu.com/place/detail?uid=0647c3068b4f94a916764353&output=html&source=placeapi_v2", "price": "27.0", "overall_rating": "4.8", "comment_num": "119", "di_review_keyword": []}}, {"name": "\u4f0a\u9f0e\u706b\u9505", "location": {"lat": 34.265727, "lng": 108.93604}, "address": "\u9655\u897f\u7701\u897f\u5b89\u5e02\u83b2\u6e56\u533a\u897f\u5927\u8857299\u53f7", "street_id": "ec46002bbc498fe908f5ebfa", "detail": 1, "uid": "ec46002bbc498fe908f5ebfa", "detail_info": {"tag": "\u7f8e\u98df;\u4e2d\u9910\u5385", "navi_location": {"lng": 108.93621197534, "lat": 34.265580199237}, "type": "cater", "detail_url": "http://api.map.baidu.com/place/detail?uid=ec46002bbc498fe908f5ebfa&output=html&source=placeapi_v2", "price": "84.0", "overall_rating": "4.5", "comment_num": "100", "di_review_keyword": []}}, {"name": "\u6cfc\u5987\u9c7c\u5e84(\u5317\u9662\u95e8\u5e97)", "location": {"lat": 34.270465, "lng": 108.949833}, "address": "\u5317\u9662\u95e8262\u53f7", "street_id": "6ee010204ede65f652e5c52b", "telephone": "13991186351", "detail": 1, "uid": "6ee010204ede65f652e5c52b", "detail_info": {"tag": "\u7f8e\u98df;\u4e2d\u9910\u5385", "navi_location": {"lng": 108.95003566736, "lat": 34.270387377485}, "type": "cater", "detail_url": "http://api.map.baidu.com/place/detail?uid=6ee010204ede65f652e5c52b&output=html&source=placeapi_v2", "price": "61.0", "overall_rating": "4.4", "comment_num": "100", "di_review_keyword": []}}, {"name": "\u6653\u5b87\u706b\u9505(\u7c89\u5df7\u5e97)", "location": {"lat": 34.261834, "lng": 108.948344}, "address": "\u7c89\u5df7\u5357\u9662\u95e815A\u5357\u82d1\u4e2d\u592e\u5e7f\u573a\u98df\u5c1a\u5357\u82d12\u5c42A08", "street_id": "47fb579a303f403fc6effb65", "telephone": "(029)89622688", "detail": 1, "uid": "e07435f887994b0408f5eb5d", "detail_info": {"tag": "\u7f8e\u98df;\u4e2d\u9910\u5385", "navi_location": {"lng": 108.94822595994, "lat": 34.261748638492}, "type": "cater", "detail_url": "http://api.map.baidu.com/place/detail?uid=e07435f887994b0408f5eb5d&output=html&source=placeapi_v2", "price": "100.0", "overall_rating": "4.3", "groupon_num": "1", "comment_num": "100", "di_review_keyword": []}}, {"name": "\u91d1\u82b1\u8c6a\u751f\u56fd\u9645\u5927\u9152\u5e97-\u81ea\u52a9\u9910\u5385", "location": {"lat": 34.256685, "lng": 108.949833}, "address": "\u9655\u897f\u7701\u897f\u5b89\u5e02\u7891\u6797\u533a\u73af\u57ce\u5357\u8def\u897f\u6bb518\u53f7\u91d1\u82b1\u8c6a\u751f\u56fd\u9645\u5927\u9152\u5e971\u5c42", "street_id": "6487265f86207cd9f4e73b8f", "detail": 1, "uid": "3f9337d61fd5e7aaf7231065", "detail_info": {"tag": "\u7f8e\u98df;\u5916\u56fd\u9910\u5385", "type": "cater", "detail_url": "http://api.map.baidu.com/place/detail?uid=3f9337d61fd5e7aaf7231065&output=html&source=placeapi_v2", "price": "70.0", "overall_rating": "4.6", "comment_num": "96", "di_review_keyword": []}}, {"name": "\u97e9\u56fd\u4e09\u53ea\u718a", "location": {"lat": 34.267599, "lng": 108.952739}, "address": "\u897f\u5b89\u5e02\u83b2\u6e56\u533a\u5317\u5927\u885728\u53f7\u6c11\u751f\u767e\u8d27B2", "street_id": "1a38d9aa57fa3f1833621219", "telephone": "18710305763", "detail": 1, "uid": "bbc7e38f2b3fe694b4265549", "detail_info": {"tag": "\u7f8e\u98df;\u4e2d\u9910\u5385", "navi_location": {"lng": 108.95337404192, "lat": 34.267587930234}, "indoor_floor": "B2", "type": "cater", "detail_url": "http://api.map.baidu.com/place/detail?uid=bbc7e38f2b3fe694b4265549&output=html&source=placeapi_v2", "price": "23.0", "overall_rating": "4.1", "groupon_num": "1", "comment_num": "100", "di_review_keyword": []}}, {"name": "\u8001\u5b59\u5bb6\u6ce1\u998d(\u5317\u9662\u95e8\u5e97)", "location": {"lat": 34.270498, "lng": 108.94984}, "address": "\u9655\u897f\u7701\u897f\u5b89\u5e02\u83b2\u6e56\u533a\u5317\u9662\u95e8178\u53f7", "street_id": "415ea5dd002ff91d88fc0665", "telephone": "029-87240766", "detail": 1, "uid": "8fa14fc3679c4577f7eafc76", "detail_info": {"tag": "\u7f8e\u98df;\u5c0f\u5403\u5feb\u9910\u5e97", "navi_location": {"lng": 108.95002762034, "lat": 34.270468248963}, "type": "cater", "detail_url": "http://api.map.baidu.com/place/detail?uid=8fa14fc3679c4577f7eafc76&output=html&source=placeapi_v2", "price": "19.0", "overall_rating": "3.1", "comment_num": "100", "di_review_keyword": []}}, {"name": "\u4e09\u5fb7\u9686\u996d\u5e84", "location": {"lat": 34.269911, "lng": 108.95033}, "address": "\u5317\u9662\u95e8141\u53f7", "street_id": "d305db1fad017627932ca327", "telephone": "(029)87288816", "detail": 1, "uid": "d305db1fad017627932ca327", "detail_info": {"tag": "\u7f8e\u98df;\u4e2d\u9910\u5385", "navi_location": {"lng": 108.95018449233, "lat": 34.26995043587}, "type": "cater", "detail_url": "http://api.map.baidu.com/place/detail?uid=d305db1fad017627932ca327&output=html&source=placeapi_v2", "price": "30.0", "overall_rating": "4.7", "comment_num": "17", "di_review_keyword": []}}, {"name": "\u8001\u5b59\u5bb6\u540c\u76db\u751f", "location": {"lat": 34.266776, "lng": 108.949395}, "address": "\u897f\u5b89\u5e02\u83b2\u6e56\u533a\u56de\u6c11\u8857\u5317\u9662\u95e8\u5357\u7aef(\u8fd1\u9f13\u697c)", "street_id": "453cee714f87e03631f71de4", "telephone": "18691895955", "detail": 1, "uid": "c6da9b4cc3a0ed3dfa42b2de", "detail_info": {"tag": "\u7f8e\u98df;\u4e2d\u9910\u5385", "navi_location": {"lng": 108.94939903734, "lat": 34.266636096137}, "type": "cater", "detail_url": "http://api.map.baidu.com/place/detail?uid=c6da9b4cc3a0ed3dfa42b2de&output=html&source=placeapi_v2", "price": "15.0", "overall_rating": "3.9", "comment_num": "20", "di_review_keyword": []}}, {"name": "\u5343\u5bb6\u5bb4\u9910\u9986", "location": {"lat": 34.258231, "lng": 108.936431}, "address": "\u542b\u5149\u95e8\u91cc\u897f\u751c\u6c34\u4e95\u8857\u5411\u897f200\u7c73\u706b\u836f\u5c40\u5df7\u4e1c\u53e3", "street_id": "9fac776d83868319441a32d4", "telephone": "(029)87409060", "detail": 1, "uid": "9fac776d83868319441a32d4", "detail_info": {"tag": "\u7f8e\u98df;\u4e2d\u9910\u5385", "navi_location": {"lng": 108.93643079537, "lat": 34.258414035122}, "type": "cater", "detail_url": "http://api.map.baidu.com/place/detail?uid=9fac776d83868319441a32d4&output=html&source=placeapi_v2", "price": "66.0", "overall_rating": "4.1", "comment_num": "100", "di_review_keyword": []}}, {"name": "\u91d1\u9f99\u5927\u76d8\u9e21", "location": {"lat": 34.270641, "lng": 108.948882}, "address": "\u5927\u76ae\u966234\u53f7(\u83b2\u6e56\u533a\u653f\u5e9c\u5411\u897f200\u7c73)", "street_id": "f3fc3a75641391f403ff2db5", "telephone": "18966741595", "detail": 1, "uid": "f3fc3a75641391f403ff2db5", "detail_info": {"tag": "\u7f8e\u98df;\u4e2d\u9910\u5385", "type": "cater", "detail_url": "http://api.map.baidu.com/place/detail?uid=f3fc3a75641391f403ff2db5&output=html&source=placeapi_v2", "price": "32.0", "overall_rating": "4.3", "groupon_num": "2", "comment_num": "84", "di_review_keyword": []}}, {"name": "\u4e0a\u6d77\u4eba\u5bb6(\u542b\u5149\u8def\u5e97)", "location": {"lat": 34.255157, "lng": 108.93846}, "address": "\u9655\u897f\u7701\u897f\u5b89\u5e02\u57ce\u5357\u542b\u5149\u5317\u8def160\u53f7\uff08\u542b\u5149\u95e8\u5916\u5411\u5357100\u7c73\uff09", "street_id": "dd8fd658446731afc0f1cf81", "telephone": "(029)85227777,(029)85226777", "detail": 1, "uid": "dd8fd658446731afc0f1cf81", "detail_info": {"tag": "\u7f8e\u98df;\u4e2d\u9910\u5385", "navi_location": {"lng": 108.9385900128, "lat": 34.255219958947}, "type": "cater", "detail_url": "http://api.map.baidu.com/place/detail?uid=dd8fd658446731afc0f1cf81&output=html&source=placeapi_v2", "price": "97.0", "overall_rating": "4.4", "comment_num": "100", "di_review_keyword": []}}, {"name": "\u7802\u9505\u697c", "location": {"lat": 34.269212, "lng": 108.94375}, "address": "\u5e99\u540e\u885762\u53f7\uff08\u539f50\u53f7\uff09", "street_id": "7f8dc828312464e93913fd2e", "telephone": "(029)88811928", "detail": 1, "uid": "7f8dc828312464e93913fd2e", "detail_info": {"tag": "\u7f8e\u98df;\u4e2d\u9910\u5385", "navi_location": {"lng": 108.94374785936, "lat": 34.269330128526}, "type": "cater", "detail_url": "http://api.map.baidu.com/place/detail?uid=7f8dc828312464e93913fd2e&output=html&source=placeapi_v2", "price": "14.0", "overall_rating": "4.3", "groupon_num": "1", "comment_num": "45", "di_review_keyword": []}}, {"name": "\u60e0\u8bb0\u7c89\u6c64\u7f8a\u8840(\u5357\u9662\u95e8\u5e97)", "location": {"lat": 34.258758, "lng": 108.942108}, "address": "\u9655\u897f\u7701\u897f\u5b89\u5e02\u7891\u6797\u533a\u5c0f\u5357\u95e8\u56db\u5e9c\u8857\u4e0e\u592a\u9633\u5e99\u95e8\u4ea4\u6c47\u5904", "street_id": "5ffb18168ae5d9466f47602a", "telephone": "029-88986418", "detail": 1, "uid": "5ffb18168ae5d9466f47602a", "detail_info": {"tag": "\u7f8e\u98df;\u5c0f\u5403\u5feb\u9910\u5e97", "navi_location": {"lng": 108.94211051072, "lat": 34.258511350277}, "type": "cater", "detail_url": "http://api.map.baidu.com/place/detail?uid=5ffb18168ae5d9466f47602a&output=html&source=placeapi_v2", "price": "21.0", "overall_rating": "3.9", "comment_num": "67", "di_review_keyword": []}}, {"name": "\u70e4\u53e4\u5bb6", "location": {"lat": 34.256951, "lng": 108.951078}, "address": "\u73af\u57ce\u5357\u8def\u897f\u6bb5\u96441\u53f7", "street_id": "37aee03a5e81ea216e3e1b7b", "telephone": "(029)87876677", "detail": 1, "uid": "37aee03a5e81ea216e3e1b7b", "detail_info": {"tag": "\u7f8e\u98df;\u4e2d\u9910\u5385", "navi_location": {"lng": 108.95078004732, "lat": 34.256668905141}, "type": "cater", "detail_url": "http://api.map.baidu.com/place/detail?uid=37aee03a5e81ea216e3e1b7b&output=html&source=placeapi_v2", "price": "85.0", "overall_rating": "4.6", "comment_num": "34", "di_review_keyword": []}}, {"name": "\u897f\u5b89\u5e02\u7891\u6797\u533a\u96cd\u548c\u7965\u6d77\u9c9c\u706b\u9505\u5e97", "location": {"lat": 34.256598, "lng": 108.940474}, "address": "\u73af\u57ce\u5357\u8def45\u53f7\u65f6\u4ee3\u8bfa\u5229\u8fbe8\u5c42", "street_id": "dc18342be28b039cd0ff2397", "telephone": "(029)68855557", "detail": 1, "uid": "dc18342be28b039cd0ff2397", "detail_info": {"tag": "\u7f8e\u98df;\u4e2d\u9910\u5385", "type": "cater", "detail_url": "http://api.map.baidu.com/place/detail?uid=dc18342be28b039cd0ff2397&output=html&source=placeapi_v2", "price": "56.5", "overall_rating": "4.3", "groupon_num": "2", "comment_num": "180", "di_review_keyword": []}}, {"name": "\u8001\u91d1\u5bb6\u6c34\u76c6\u7f8a\u8089(\u5317\u9662\u95e8\u5e97)", "location": {"lat": 34.269731, "lng": 108.94999}, "address": "\u897f\u5b89\u5e02\u83b2\u6e56\u533a\u5317\u9662\u95e8216\u53f7(\u5317\u9662\u95e8\u6d3e\u51fa\u6240)", "street_id": "48eb00589ba569b42fe67b0e", "telephone": "029-83770878", "detail": 1, "uid": "48eb00589ba569b42fe67b0e", "detail_info": {"tag": "\u7f8e\u98df;\u4e2d\u9910\u5385", "type": "cater", "detail_url": "http://api.map.baidu.com/place/detail?uid=48eb00589ba569b42fe67b0e&output=html&source=placeapi_v2", "price": "32.0", "overall_rating": "4.0", "comment_num": "30", "di_review_keyword": []}}, {"name": "\u767d\u4f1f\u6258\u76d8\u9c7c(\u5c0f\u5357\u95e8\u5206\u5e97)", "location": {"lat": 34.258744, "lng": 108.941888}, "address": "\u5c0f\u5357\u95e8\u5185\u5341\u5b57(\u8001\u5170\u5bb6\u70e4\u8089\u5bf9\u9762)\u62a5\u6069\u5bfa\u88573\u53f7", "street_id": "22cf94a9069a6189932ca387", "telephone": "029-87624022", "detail": 1, "uid": "22cf94a9069a6189932ca387", "detail_info": {"tag": "\u7f8e\u98df;\u4e2d\u9910\u5385", "type": "cater", "detail_url": "http://api.map.baidu.com/place/detail?uid=22cf94a9069a6189932ca387&output=html&source=placeapi_v2", "price": "20.0", "overall_rating": "4.8", "comment_num": "957", "di_review_keyword": []}}, {"name": "\u7cca\u6d82\u8bb0(\u516b\u4f73\u8def\u5e97)", "location": {"lat": 34.262198, "lng": 108.927948}, "address": "\u73af\u57ce\u897f\u8def\u5357\u6bb578\u53f7\u4e1c\u5149\u5927\u53a613\u5c42", "street_id": "4d935f82dc551a434054d78c", "telephone": "(029)84068868", "detail": 1, "uid": "4d935f82dc551a434054d78c", "detail_info": {"tag": "\u7f8e\u98df;\u4e2d\u9910\u5385", "type": "cater", "detail_url": "http://api.map.baidu.com/place/detail?uid=4d935f82dc551a434054d78c&output=html&source=placeapi_v2", "price": "33.0", "overall_rating": "4", "comment_num": "666", "di_review_keyword": []}}, {"name": "\u5317\u4eac\u8001\u80e1\u540c\u70e4\u9e2d(\u6731\u96c0\u95e8\u5e97)", "location": {"lat": 34.260178, "lng": 108.94526}, "address": "\u5357\u5e7f\u6d4e\u885736\u53f7\u857e\u5fb7\u66fc\u9152\u5e97\u4e00\u697c", "street_id": "606289fd9727b954a2046477", "telephone": "(029)87616999", "detail": 1, "uid": "606289fd9727b954a2046477", "detail_info": {"tag": "\u7f8e\u98df;\u4e2d\u9910\u5385", "navi_location": {"lng": 108.94531396699, "lat": 34.260124033603}, "type": "cater", "detail_url": "http://api.map.baidu.com/place/detail?uid=606289fd9727b954a2046477&output=html&source=placeapi_v2", "price": "67.0", "overall_rating": "4.6", "groupon_num": "1", "comment_num": "100", "di_review_keyword": []}}, {"name": "\u6c49\u6c34\u80b4\u9655\u5357\u5c0f\u53a8", "location": {"lat": 34.263443, "lng": 108.953134}, "address": "\u5357\u5927\u885770\u53f7\uff08\u949f\u697c\u5f80\u535750\u7c73\u8def\u897f\uff09\u897f\u5b89\u57ce\u5e02\u9152\u5e97\u4e8c\u697c", "street_id": "8ac5052162b498f8990050a3", "telephone": "(029)87697188", "detail": 1, "uid": "8ac5052162b498f8990050a3", "detail_info": {"tag": "\u7f8e\u98df;\u4e2d\u9910\u5385", "type": "cater", "detail_url": "http://api.map.baidu.com/place/detail?uid=8ac5052162b498f8990050a3&output=html&source=placeapi_v2", "price": "50.0", "overall_rating": "4.7", "comment_num": "100", "di_review_keyword": []}}, {"name": "\u672a\u672b\u9ec4\u9152\u5c0f\u53a8", "location": {"lat": 34.26216, "lng": 108.951056}, "address": "\u7c89\u5df73\u53f7\u771f\u7231\u7c89\u5df7\u91cc(\u539f\u738b\u5b50\u5927\u53a6)8\u697c811\u5ba4(\u8fd1\u897f\u5b89\u5e02\u7b2c\u4e00\u4eba\u6c11\u533b\u9662)", "street_id": "153ff5771a47b54d28201a57", "telephone": "(029)86699998,(029)87280616", "detail": 1, "uid": "153ff5771a47b54d28201a57", "detail_info": {"tag": "\u7f8e\u98df;\u4e2d\u9910\u5385", "type": "cater", "detail_url": "http://api.map.baidu.com/place/detail?uid=153ff5771a47b54d28201a57&output=html&source=placeapi_v2", "price": "77.0", "overall_rating": "4.4", "comment_num": "98", "di_review_keyword": []}}, {"name": "\u7965\u798f\u76db\u725b\u7f8a\u8089\u6ce1\u998d", "location": {"lat": 34.258726, "lng": 108.948377}, "address": "\u5927\u8f66\u5bb6\u5df72\u53f7", "street_id": "fb0bf210eb852d9dd23ce32a", "detail": 1, "uid": "e6a58e6195500603841541f9", "detail_info": {"tag": "\u7f8e\u98df;\u4e2d\u9910\u5385", "navi_location": {"lng": 108.94845977988, "lat": 34.258765589961}, "type": "cater", "detail_url": "http://api.map.baidu.com/place/detail?uid=e6a58e6195500603841541f9&output=html&source=placeapi_v2", "price": "26.0", "overall_rating": "3.9", "groupon_num": "2", "comment_num": "40", "di_review_keyword": []}}, {"name": "\u6e05\u771f\u521a\u5b50\u70e7\u70e4", "location": {"lat": 34.267839, "lng": 108.945604}, "address": "\u9655\u897f\u7701\u897f\u5b89\u5e02\u83b2\u6e56\u533a\u5317\u9662\u95e8\u8857\u9053\u5317\u5e7f\u6d4e\u8857133\u53f7", "street_id": "c348cda04229cf8533621247", "telephone": "15991436386", "detail": 1, "uid": "c348cda04229cf8533621247", "detail_info": {"tag": "\u7f8e\u98df;\u5176\u4ed6", "navi_location": {"lng": 108.9454724694, "lat": 34.267919166741}, "type": "cater", "detail_url": "http://api.map.baidu.com/place/detail?uid=c348cda04229cf8533621247&output=html&source=placeapi_v2", "price": "24.0", "overall_rating": "3.8", "comment_num": "38", "di_review_keyword": []}}, {"name": "\u9605\u4f1a\u65b0\u6982\u5ff5\u6e2f\u5f0f\u79c1\u623f\u83dc", "location": {"lat": 34.260673, "lng": 108.953106}, "address": "\u897f\u5b89\u5e02\u7891\u6797\u533a\u5357\u5927\u885732\u53f7\u5929\u60a6\u9152\u5e972\u5c42(\u4e2d\u5927\u56fd\u9645\u5317\u90bb)", "street_id": "989d02ca3abf9d1ff03cba9a", "detail": 1, "uid": "989d02ca3abf9d1ff03cba9a", "detail_info": {"tag": "\u7f8e\u98df;\u4e2d\u9910\u5385", "type": "cater", "detail_url": "http://api.map.baidu.com/place/detail?uid=989d02ca3abf9d1ff03cba9a&output=html&source=placeapi_v2", "price": "52.0", "overall_rating": "4.6", "comment_num": "259", "di_review_keyword": []}}, {"name": "\u6731\u519b\u9c7c\u5e84\u542b\u5149\u95e8\u5e97", "location": {"lat": 34.26168, "lng": 108.939339}, "address": "\u897f\u5b89\u83b2\u6e56\u533a\u542b\u5149\u95e8\u91cc\u751c\u6c34\u4e95101\u53f7(\u751c\u6c34\u4e95\u5341\u5b57\u4e1c\u5357\u89d2)", "street_id": "550fd5f9704c9c60921fc9ba", "telephone": "(029)87621958", "detail": 1, "uid": "550fd5f9704c9c60921fc9ba", "detail_info": {"tag": "\u7f8e\u98df;\u4e2d\u9910\u5385", "navi_location": {"lng": 108.93897389378, "lat": 34.261787724359}, "type": "cater", "detail_url": "http://api.map.baidu.com/place/detail?uid=550fd5f9704c9c60921fc9ba&output=html&source=placeapi_v2", "price": "52.0", "overall_rating": "4.6", "comment_num": "100", "di_review_keyword": []}}, {"name": "\u6bd4\u683c\u6bd4\u8428(\u5317\u5927\u8857\u5e97)", "location": {"lat": 34.267879, "lng": 108.952983}, "address": "\u5317\u5927\u885728\u53f7\u6c11\u751f\u56fd\u9645\u516b\u697c", "street_id": "dcd4341561dfa3549d9d68ad", "telephone": "02963395500,02963395501", "detail": 1, "uid": "dcd4341561dfa3549d9d68ad", "detail_info": {"tag": "\u7f8e\u98df;\u5916\u56fd\u9910\u5385", "navi_location": {"lng": 108.95337404192, "lat": 34.267587930234}, "indoor_floor": "F8", "type": "cater", "detail_url": "http://api.map.baidu.com/place/detail?uid=dcd4341561dfa3549d9d68ad&output=html&source=placeapi_v2", "price": "55.0", "overall_rating": "4.2", "groupon_num": "1", "comment_num": "100", "di_review_keyword": []}}, {"name": "\u4e03\u79d2\u9c7c\u706b\u9505(\u5317\u5927\u8857\u6c11\u751f\u767e\u8d27\u5e97)", "location": {"lat": 34.268081, "lng": 108.952732}, "address": "\u5317\u5927\u885728\u53f7(\u6c11\u751f\u767e\u8d27\u949f\u697c\u5e978\u5c42)", "street_id": "a263238b361842bbab175afe", "telephone": "(029)63395472", "detail": 1, "uid": "a263238b361842bbab175afe", "detail_info": {"tag": "\u7f8e\u98df;\u4e2d\u9910\u5385", "navi_location": {"lng": 108.95337404192, "lat": 34.267587930234}, "indoor_floor": "F8", "type": "cater", "detail_url": "http://api.map.baidu.com/place/detail?uid=a263238b361842bbab175afe&output=html&source=placeapi_v2", "price": "49.0", "overall_rating": "4.0", "comment_num": "100", "di_review_keyword": []}}, {"name": "\u751f\u6c46\u4e38\u5b50\u4e09\u9c9c\u6c64(\u5927\u8f66\u5bb6\u5df7\u5e97)", "location": {"lat": 34.260369, "lng": 108.94841},