西安市机动车停放服务中心,108.93370512128705,34.25929255843607,a5d79673a1389ff4dbd8916f,"{'name': '西安市机动车停放服务中心', 'location': {'lat': 34.263836, 'lng': 108.944809}, 'address': '盐店街7号', 'street_id': 'a5d79673a1389ff4dbd8916f', 'detail': 0, 'uid': 'a5d79673a1389ff4dbd8916f', 'detail_info': {'tag': '汽车服务;汽车美容'}}"
"{'name': '西安市机动车停放服务中心', 'location': {'lat': 34.263836, 'lng': 108.944809}, 'address': '盐店街7号', 'street_id': 'a5d79673a1389ff4dbd8916f', 'detail': 0, 'uid': 'a5d79673a1389ff4dbd8916f', 'detail_info': {'tag': '汽车服务;汽车美容'}}"
一嗨租车(西安老市政府送车点),108.94156133573065,34.2662331760423,1557840508fd1d9341d63e1b,"{'name': '一嗨租车(西安老市政府送车点)', 'location': {'lat': 34.270898, 'lng': 108.952647}, 'address': '西华门大街与北大街交叉口西侧路北西安消防西侧', 'street_id': '1557840508fd1d9341d63e1b', 'detail': 1, 'uid': '1557840508fd1d9341d63e1b', 'detail_info': {'tag': '汽车服务;汽车租赁', 'type': 'life', 'detail_url': 'http://api.map.baidu.com/place/detail?uid=1557840508fd1d9341d63e1b&output=html&source=placeapi_v2', 'image_num': '1'}}"
"{'name': '一嗨租车(西安老市政府送车点)', 'location': {'lat': 34.270898, 'lng': 108.952647}, 'address': '西华门大街与北大街交叉口西侧路北西安消防西侧', 'street_id': '1557840508fd1d9341d63e1b', 'detail': 1, 'uid': '1557840508fd1d9341d63e1b', 'detail_info': {'tag': '汽车服务;汽车租赁', 'type': 'life', 'detail_url': 'http://api.map.baidu.com/place/detail?uid=1557840508fd1d9341d63e1b&output=html&source=placeapi_v2', 'image_num': '1'}}"
陕西教育汽车修理厂,108.92001660117414,34.25215415729165,9b6251cfeef62c392902e112,"{'name': '陕西教育汽车修理厂', 'location': {'lat': 34.256451, 'lng': 108.931168}, 'address': '环城西路南段34附近', 'street_id': '9b6251cfeef62c392902e112', 'detail': 1, 'uid': '9b6251cfeef62c392902e112', 'detail_info': {'tag': '汽车服务;汽车维修', 'type': 'life', 'detail_url': 'http://api.map.baidu.com/place/detail?uid=9b6251cfeef62c392902e112&output=html&source=placeapi_v2', 'image_num': '3'}}"
"{'name': '陕西教育汽车修理厂', 'location': {'lat': 34.256451, 'lng': 108.931168}, 'address': '环城西路南段34附近', 'street_id': '9b6251cfeef62c392902e112', 'detail': 1, 'uid': '9b6251cfeef62c392902e112', 'detail_info': {'tag': '汽车服务;汽车维修', 'type': 'life', 'detail_url': 'http://api.map.baidu.com/place/detail?uid=9b6251cfeef62c392902e112&output=html&source=placeapi_v2', 'image_num': '3'}}"
西安新丰泰红旗汽车销售服务有限公司,108.92586335254961,34.26078620920514,008daec04e3c979cf5c59ce8,"{'name': '西安新丰泰红旗汽车销售服务有限公司', 'location': {'lat': 34.265189, 'lng': 108.936988}, 'address': '西安市莲湖区西大街218号唐人街购物中心一层', 'street_id': '008daec04e3c979cf5c59ce8', 'telephone': '(029)87378800', 'detail': 1, 'uid': '008daec04e3c979cf5c59ce8', 'detail_info': {'tag': '汽车服务;汽车销售', 'navi_location': {'lng': 108.93700397717, 'lat': 34.265307908012}, 'type': 'life', 'detail_url': 'http://api.map.baidu.com/place/detail?uid=008daec04e3c979cf5c59ce8&output=html&source=placeapi_v2', 'image_num': '6'}}"
"{'name': '西安新丰泰红旗汽车销售服务有限公司', 'location': {'lat': 34.265189, 'lng': 108.936988}, 'address': '西安市莲湖区西大街218号唐人街购物中心一层', 'street_id': '008daec04e3c979cf5c59ce8', 'telephone': '(029)87378800', 'detail': 1, 'uid': '008daec04e3c979cf5c59ce8', 'detail_info': {'tag': '汽车服务;汽车销售', 'navi_location': {'lng': 108.93700397717, 'lat': 34.265307908012}, 'type': 'life', 'detail_url': 'http://api.map.baidu.com/place/detail?uid=008daec04e3c979cf5c59ce8&output=html&source=placeapi_v2', 'image_num': '6'}}"
小冯洗车行,108.93116895146741,34.24998867202941,092ff7a149c9cc559cf779ab,"{'name': '小冯洗车行', 'location': {'lat': 34.254487, 'lng': 108.942287}, 'address': '西安市碑林区红缨路96号', 'street_id': '092ff7a149c9cc559cf779ab', 'detail': 1, 'uid': '092ff7a149c9cc559cf779ab', 'detail_info': {'tag': '汽车服务;汽车美容', 'type': 'life', 'detail_url': 'http://api.map.baidu.com/place/detail?uid=092ff7a149c9cc559cf779ab&output=html&source=placeapi_v2', 'image_num': '4'}}"
"{'name': '小冯洗车行', 'location': {'lat': 34.254487, 'lng': 108.942287}, 'address': '西安市碑林区红缨路96号', 'street_id': '092ff7a149c9cc559cf779ab', 'detail': 1, 'uid': '092ff7a149c9cc559cf779ab', 'detail_info': {'tag': '汽车服务;汽车美容', 'type': 'life', 'detail_url': 'http://api.map.baidu.com/place/detail?uid=092ff7a149c9cc559cf779ab&output=html&source=placeapi_v2', 'image_num': '4'}}"
海峰补胎,108.92105305101347,34.26466001275552,a3773ba5b168f251d72ce28b,"{'name': '海峰补胎', 'location': {'lat': 34.268976, 'lng': 108.93219}, 'address': '西安市莲湖区北马道巷55', 'street_id': 'a3773ba5b168f251d72ce28b', 'detail': 1, 'uid': 'a3773ba5b168f251d72ce28b', 'detail_info': {'tag': '汽车服务;汽车美容', 'type': 'life', 'detail_url': 'http://api.map.baidu.com/place/detail?uid=a3773ba5b168f251d72ce28b&output=html&source=placeapi_v2', 'image_num': '4', 'comment_num': '0'}}"
"{'name': '海峰补胎', 'location': {'lat': 34.268976, 'lng': 108.93219}, 'address': '西安市莲湖区北马道巷55', 'street_id': 'a3773ba5b168f251d72ce28b', 'detail': 1, 'uid': 'a3773ba5b168f251d72ce28b', 'detail_info': {'tag': '汽车服务;汽车美容', 'type': 'life', 'detail_url': 'http://api.map.baidu.com/place/detail?uid=a3773ba5b168f251d72ce28b&output=html&source=placeapi_v2', 'image_num': '4', 'comment_num': '0'}}"
车来车往汽车装潢服务部,108.92209205975531,34.25755000203179,8fde79cc7aa6c5c295ca070f,"{'name': '车来车往汽车装潢服务部', 'location': {'lat': 34.261884, 'lng': 108.933232}, 'address': '西安市莲湖区西梆子市街125号', 'street_id': '8fde79cc7aa6c5c295ca070f', 'telephone': '(029)87626810', 'detail': 1, 'uid': '8fde79cc7aa6c5c295ca070f', 'detail_info': {'tag': '汽车服务;汽车美容', 'navi_location': {'lng': 108.93340541381, 'lat': 34.261877163917}, 'type': 'life', 'detail_url': 'http://api.map.baidu.com/place/detail?uid=8fde79cc7aa6c5c295ca070f&output=html&source=placeapi_v2', 'image_num': '6', 'comment_num': '0'}}"
"{'name': '车来车往汽车装潢服务部', 'location': {'lat': 34.261884, 'lng': 108.933232}, 'address': '西安市莲湖区西梆子市街125号', 'street_id': '8fde79cc7aa6c5c295ca070f', 'telephone': '(029)87626810', 'detail': 1, 'uid': '8fde79cc7aa6c5c295ca070f', 'detail_info': {'tag': '汽车服务;汽车美容', 'navi_location': {'lng': 108.93340541381, 'lat': 34.261877163917}, 'type': 'life', 'detail_url': 'http://api.map.baidu.com/place/detail?uid=8fde79cc7aa6c5c295ca070f&output=html&source=placeapi_v2', 'image_num': '6', 'comment_num': '0'}}"
修电车洗车,108.93116172885925,34.258149084953814,420313e0503b2e282ffaa7c5,"{'name': '修电车洗车', 'location': {'lat': 34.262648, 'lng': 108.942273}, 'address': '陕西省西安市碑林区人民银行家属院东南(四府街西)', 'street_id': '420313e0503b2e282ffaa7c5', 'detail': 0, 'uid': '420313e0503b2e282ffaa7c5', 'detail_info': {'tag': '汽车服务;汽车美容'}}"
"{'name': '修电车洗车', 'location': {'lat': 34.262648, 'lng': 108.942273}, 'address': '陕西省西安市碑林区人民银行家属院东南(四府街西)', 'street_id': '420313e0503b2e282ffaa7c5', 'detail': 0, 'uid': '420313e0503b2e282ffaa7c5', 'detail_info': {'tag': '汽车服务;汽车美容'}}"
西安车来车往汽修厂,108.9245211680734,34.266495361081525,5b84744e722264c2902ca354,"{'name': '西安车来车往汽修厂', 'location': {'lat': 34.270874, 'lng': 108.935645}, 'address': '早慈巷24', 'street_id': '5b84744e722264c2902ca354', 'detail': 1, 'uid': '5b84744e722264c2902ca354', 'detail_info': {'tag': '汽车服务;汽车维修', 'type': 'life', 'detail_url': 'http://api.map.baidu.com/place/detail?uid=5b84744e722264c2902ca354&output=html&source=placeapi_v2', 'image_num': '1'}}"
"{'name': '西安车来车往汽修厂', 'location': {'lat': 34.270874, 'lng': 108.935645}, 'address': '早慈巷24', 'street_id': '5b84744e722264c2902ca354', 'detail': 1, 'uid': '5b84744e722264c2902ca354', 'detail_info': {'tag': '汽车服务;汽车维修', 'type': 'life', 'detail_url': 'http://api.map.baidu.com/place/detail?uid=5b84744e722264c2902ca354&output=html&source=placeapi_v2', 'image_num': '1'}}"
秦龙汽车维修中心,108.92545555747623,34.25217934585117,a6f43547922f82a54151c0cd,"{'name': '秦龙汽车维修中心', 'location': {'lat': 34.256574, 'lng': 108.936589}, 'address': '环城南路西段154号D', 'street_id': 'a6f43547922f82a54151c0cd', 'telephone': '(029)88417390', 'detail': 1, 'uid': 'a6f43547922f82a54151c0cd', 'detail_info': {'tag': '汽车服务;汽车维修', 'type': 'life', 'detail_url': 'http://api.map.baidu.com/place/detail?uid=a6f43547922f82a54151c0cd&output=html&source=placeapi_v2', 'image_num': '2', 'comment_num': '0'}}"
"{'name': '秦龙汽车维修中心', 'location': {'lat': 34.256574, 'lng': 108.936589}, 'address': '环城南路西段154号D', 'street_id': 'a6f43547922f82a54151c0cd', 'telephone': '(029)88417390', 'detail': 1, 'uid': 'a6f43547922f82a54151c0cd', 'detail_info': {'tag': '汽车服务;汽车维修', 'type': 'life', 'detail_url': 'http://api.map.baidu.com/place/detail?uid=a6f43547922f82a54151c0cd&output=html&source=placeapi_v2', 'image_num': '2', 'comment_num': '0'}}"
万里行汽车美容,108.931152461203,34.25675534982663,fc30f6efde869222223bf27e,"{'name': '万里行汽车美容', 'location': {'lat': 34.261254, 'lng': 108.942265}, 'address': '陕西省西安市碑林区四府街79号附近', 'street_id': 'fc30f6efde869222223bf27e', 'detail': 1, 'uid': 'fc30f6efde869222223bf27e', 'detail_info': {'tag': '汽车服务;汽车美容', 'type': 'life', 'detail_url': 'http://api.map.baidu.com/place/detail?uid=fc30f6efde869222223bf27e&output=html&source=placeapi_v2', 'image_num': '3'}}"
"{'name': '万里行汽车美容', 'location': {'lat': 34.261254, 'lng': 108.942265}, 'address': '陕西省西安市碑林区四府街79号附近', 'street_id': 'fc30f6efde869222223bf27e', 'detail': 1, 'uid': 'fc30f6efde869222223bf27e', 'detail_info': {'tag': '汽车服务;汽车美容', 'type': 'life', 'detail_url': 'http://api.map.baidu.com/place/detail?uid=fc30f6efde869222223bf27e&output=html&source=placeapi_v2', 'image_num': '3'}}"
江林胜汽车服务,108.92108208775822,34.265709417584944,83c3c3eb884269f216c905cc,"{'name': '江林胜汽车服务', 'location': {'lat': 34.270026, 'lng': 108.932218}, 'address': '北马道巷57号', 'street_id': '83c3c3eb884269f216c905cc', 'detail': 1, 'uid': '83c3c3eb884269f216c905cc', 'detail_info': {'tag': '汽车服务;汽车销售', 'type': 'life', 'detail_url': 'http://api.map.baidu.com/place/detail?uid=83c3c3eb884269f216c905cc&output=html&source=placeapi_v2', 'image_num': '1'}}"
"{'name': '江林胜汽车服务', 'location': {'lat': 34.270026, 'lng': 108.932218}, 'address': '北马道巷57号', 'street_id': '83c3c3eb884269f216c905cc', 'detail': 1, 'uid': '83c3c3eb884269f216c905cc', 'detail_info': {'tag': '汽车服务;汽车销售', 'type': 'life', 'detail_url': 'http://api.map.baidu.com/place/detail?uid=83c3c3eb884269f216c905cc&output=html&source=placeapi_v2', 'image_num': '1'}}"
同义诚,108.93682561679378,34.26611951571611,2a3b8f36c12f31e7aeb22acf,"{'name': '同义诚', 'location': {'lat': 34.270715, 'lng': 108.947917}, 'address': '陕西省西安市莲湖区回民街大皮院58号', 'street_id': '65fd0d6c312d37a28a36ee11', 'detail': 0, 'uid': '2a3b8f36c12f31e7aeb22acf', 'detail_info': {'tag': '美食;中餐厅'}}"
"{'name': '同义诚', 'location': {'lat': 34.270715, 'lng': 108.947917}, 'address': '陕西省西安市莲湖区回民街大皮院58号', 'street_id': '65fd0d6c312d37a28a36ee11', 'detail': 0, 'uid': '2a3b8f36c12f31e7aeb22acf', 'detail_info': {'tag': '美食;中餐厅'}}"
中汇伟业汽车服务,108.93803226133677,34.25229379185021,b1a8727936dde61da8f0cd6c,"{'name': '中汇伟业汽车服务', 'location': {'lat': 34.256907, 'lng': 108.949134}, 'address': '陕西省西安市碑林区环城南路刘峰肉夹馍糊辣汤北', 'street_id': 'b1a8727936dde61da8f0cd6c', 'detail': 1, 'uid': 'b1a8727936dde61da8f0cd6c', 'detail_info': {'tag': '汽车服务;汽车销售', 'type': 'life', 'detail_url': 'http://api.map.baidu.com/place/detail?uid=b1a8727936dde61da8f0cd6c&output=html&source=placeapi_v2', 'image_num': '5'}}"
"{'name': '中汇伟业汽车服务', 'location': {'lat': 34.256907, 'lng': 108.949134}, 'address': '陕西省西安市碑林区环城南路刘峰肉夹馍糊辣汤北', 'street_id': 'b1a8727936dde61da8f0cd6c', 'detail': 1, 'uid': 'b1a8727936dde61da8f0cd6c', 'detail_info': {'tag': '汽车服务;汽车销售', 'type': 'life', 'detail_url': 'http://api.map.baidu.com/place/detail?uid=b1a8727936dde61da8f0cd6c&output=html&source=placeapi_v2', 'image_num': '5'}}"
西刚火补,108.92103327247104,34.2649793383554,29464c8525296b87d0ff2311,"{'name': '西刚火补', 'location': {'lat': 34.269295, 'lng': 108.93217}, 'address': '西安市莲湖区儿童医院西门50', 'street_id': '29464c8525296b87d0ff2311', 'telephone': '13080933782', 'detail': 1, 'uid': '29464c8525296b87d0ff2311', 'detail_info': {'tag': '汽车服务;汽车维修', 'type': 'life', 'detail_url': 'http://api.map.baidu.com/place/detail?uid=29464c8525296b87d0ff2311&output=html&source=placeapi_v2', 'overall_rating': '1.0', 'image_num': '4', 'comment_num': '1'}}"
"{'name': '西刚火补', 'location': {'lat': 34.269295, 'lng': 108.93217}, 'address': '西安市莲湖区儿童医院西门50', 'street_id': '29464c8525296b87d0ff2311', 'telephone': '13080933782', 'detail': 1, 'uid': '29464c8525296b87d0ff2311', 'detail_info': {'tag': '汽车服务;汽车维修', 'type': 'life', 'detail_url': 'http://api.map.baidu.com/place/detail?uid=29464c8525296b87d0ff2311&output=html&source=placeapi_v2', 'overall_rating': '1.0', 'image_num': '4', 'comment_num': '1'}}"
陆翼汽车养护,108.92969623774839,34.25178491144943,fd7bfaaec2c8d4761c389480,"{'name': '陆翼汽车养护', 'location': {'lat': 34.256257, 'lng': 108.940817}, 'address': '陕西省西安市碑林区大学东路61号', 'street_id': 'fd7bfaaec2c8d4761c389480', 'telephone': '18991939177', 'detail': 1, 'uid': 'fd7bfaaec2c8d4761c389480', 'detail_info': {'tag': '汽车服务;汽车美容', 'type': 'life', 'detail_url': 'http://api.map.baidu.com/place/detail?uid=fd7bfaaec2c8d4761c389480&output=html&source=placeapi_v2', 'image_num': '5', 'comment_num': '0'}}"
"{'name': '陆翼汽车养护', 'location': {'lat': 34.256257, 'lng': 108.940817}, 'address': '陕西省西安市碑林区大学东路61号', 'street_id': 'fd7bfaaec2c8d4761c389480', 'telephone': '18991939177', 'detail': 1, 'uid': 'fd7bfaaec2c8d4761c389480', 'detail_info': {'tag': '汽车服务;汽车美容', 'type': 'life', 'detail_url': 'http://api.map.baidu.com/place/detail?uid=fd7bfaaec2c8d4761c389480&output=html&source=placeapi_v2', 'image_num': '5', 'comment_num': '0'}}"
世通汽车驾驶员服务部(洒金桥),108.92780993116918,34.26572418094129,b9e506a99168ea4bc6effb71,"{'name': '世通汽车驾驶员服务部(洒金桥)', 'location': {'lat': 34.270163, 'lng': 108.938924}, 'address': '洒金桥34', 'street_id': 'b9e506a99168ea4bc6effb71', 'detail': 1, 'uid': 'b9e506a99168ea4bc6effb71', 'detail_info': {'tag': '汽车服务', 'type': 'life', 'detail_url': 'http://api.map.baidu.com/place/detail?uid=b9e506a99168ea4bc6effb71&output=html&source=placeapi_v2', 'image_num': '2', 'comment_num': '0'}}"
"{'name': '世通汽车驾驶员服务部(洒金桥)', 'location': {'lat': 34.270163, 'lng': 108.938924}, 'address': '洒金桥34', 'street_id': 'b9e506a99168ea4bc6effb71', 'detail': 1, 'uid': 'b9e506a99168ea4bc6effb71', 'detail_info': {'tag': '汽车服务', 'type': 'life', 'detail_url': 'http://api.map.baidu.com/place/detail?uid=b9e506a99168ea4bc6effb71&output=html&source=placeapi_v2', 'image_num': '2', 'comment_num': '0'}}"
八佳汽车美容店,108.91725843025914,34.25782646899962,dab2593732fe3ed8f942b2f6,"{'name': '八佳汽车美容店', 'location': {'lat': 34.262077, 'lng': 108.928414}, 'address': '陕西省西安市莲湖区西关解家村路华兰・佳园西门', 'street_id': 'dab2593732fe3ed8f942b2f6', 'detail': 1, 'uid': 'dab2593732fe3ed8f942b2f6', 'detail_info': {'tag': '汽车服务;汽车美容', 'navi_location': {'lng': 108.92810936205, 'lat': 34.262255635115}, 'type': 'life', 'detail_url': 'http://api.map.baidu.com/place/detail?uid=dab2593732fe3ed8f942b2f6&output=html&source=placeapi_v2', 'image_num': '4'}}"
"{'name': '八佳汽车美容店', 'location': {'lat': 34.262077, 'lng': 108.928414}, 'address': '陕西省西安市莲湖区西关解家村路华兰・佳园西门', 'street_id': 'dab2593732fe3ed8f942b2f6', 'detail': 1, 'uid': 'dab2593732fe3ed8f942b2f6', 'detail_info': {'tag': '汽车服务;汽车美容', 'navi_location': {'lng': 108.92810936205, 'lat': 34.262255635115}, 'type': 'life', 'detail_url': 'http://api.map.baidu.com/place/detail?uid=dab2593732fe3ed8f942b2f6&output=html&source=placeapi_v2', 'image_num': '4'}}"
洗刷刷汽车美容装潢,108.92314917535599,34.259338832160864,2b5296e1842fab4194ec843f,"{'name': '洗刷刷汽车美容装潢', 'location': {'lat': 34.263692, 'lng': 108.934284}, 'address': '菜坑岸48b附近', 'street_id': '2b5296e1842fab4194ec843f', 'detail': 1, 'uid': '2b5296e1842fab4194ec843f', 'detail_info': {'tag': '汽车服务;汽车美容', 'type': 'life', 'detail_url': 'http://api.map.baidu.com/place/detail?uid=2b5296e1842fab4194ec843f&output=html&source=placeapi_v2', 'image_num': '4'}}"
"{'name': '洗刷刷汽车美容装潢', 'location': {'lat': 34.263692, 'lng': 108.934284}, 'address': '菜坑岸48b附近', 'street_id': '2b5296e1842fab4194ec843f', 'detail': 1, 'uid': '2b5296e1842fab4194ec843f', 'detail_info': {'tag': '汽车服务;汽车美容', 'type': 'life', 'detail_url': 'http://api.map.baidu.com/place/detail?uid=2b5296e1842fab4194ec843f&output=html&source=placeapi_v2', 'image_num': '4'}}"
驰加汽车服务中心-汽车用品服务中心,108.91948782354768,34.252111330426025,ba815acf54d459416b49f3c6,"{'name': '驰加汽车服务中心-汽车用品服务中心', 'location': {'lat': 34.256399, 'lng': 108.930641}, 'address': '太白北路279号', 'street_id': 'ba815acf54d459416b49f3c6', 'detail': 1, 'uid': 'ba815acf54d459416b49f3c6', 'detail_info': {'tag': '汽车服务;汽车美容', 'type': 'life', 'detail_url': 'http://api.map.baidu.com/place/detail?uid=ba815acf54d459416b49f3c6&output=html&source=placeapi_v2', 'image_num': '2'}}"
"{'name': '驰加汽车服务中心-汽车用品服务中心', 'location': {'lat': 34.256399, 'lng': 108.930641}, 'address': '太白北路279号', 'street_id': 'ba815acf54d459416b49f3c6', 'detail': 1, 'uid': 'ba815acf54d459416b49f3c6', 'detail_info': {'tag': '汽车服务;汽车美容', 'type': 'life', 'detail_url': 'http://api.map.baidu.com/place/detail?uid=ba815acf54d459416b49f3c6&output=html&source=placeapi_v2', 'image_num': '2'}}"
老白汽车电器维修中心,108.92638522298651,34.263206473511374,80daa13cb414c40a81288a4d,"{'name': '老白汽车电器维修中心', 'location': {'lat': 34.267619, 'lng': 108.937506}, 'address': '陕西省西安市莲湖区东举院巷早慈巷15号院居民楼', 'street_id': '80daa13cb414c40a81288a4d', 'detail': 1, 'uid': '80daa13cb414c40a81288a4d', 'detail_info': {'tag': '汽车服务;汽车维修', 'type': 'life', 'detail_url': 'http://api.map.baidu.com/place/detail?uid=80daa13cb414c40a81288a4d&output=html&source=placeapi_v2', 'image_num': '1'}}"
"{'name': '老白汽车电器维修中心', 'location': {'lat': 34.267619, 'lng': 108.937506}, 'address': '陕西省西安市莲湖区东举院巷早慈巷15号院居民楼', 'street_id': '80daa13cb414c40a81288a4d', 'detail': 1, 'uid': '80daa13cb414c40a81288a4d', 'detail_info': {'tag': '汽车服务;汽车维修', 'type': 'life', 'detail_url': 'http://api.map.baidu.com/place/detail?uid=80daa13cb414c40a81288a4d&output=html&source=placeapi_v2', 'image_num': '1'}}"
回力轮胎,108.92116875927509,34.26501993665487,7c62f2d6bcf157e47f29bd5f,"{'name': '回力轮胎', 'location': {'lat': 34.269338, 'lng': 108.932305}, 'address': '北院门街道北马道巷', 'detail': 0, 'uid': '7c62f2d6bcf157e47f29bd5f', 'detail_info': {'tag': '汽车服务;汽车配件'}}"
"{'name': '回力轮胎', 'location': {'lat': 34.269338, 'lng': 108.932305}, 'address': '北院门街道北马道巷', 'detail': 0, 'uid': '7c62f2d6bcf157e47f29bd5f', 'detail_info': {'tag': '汽车服务;汽车配件'}}"
百姓洗车美容,108.92638467002992,34.26370044840244,96a52609ce503d15e81e97b0,"{'name': '百姓洗车美容', 'location': {'lat': 34.268113, 'lng': 108.937505}, 'address': '东举院巷72号附近', 'street_id': '96a52609ce503d15e81e97b0', 'detail': 1, 'uid': '96a52609ce503d15e81e97b0', 'detail_info': {'tag': '汽车服务;汽车美容', 'navi_location': {'lng': 108.93758461221, 'lat': 34.268112430761}, 'type': 'life', 'detail_url': 'http://api.map.baidu.com/place/detail?uid=96a52609ce503d15e81e97b0&output=html&source=placeapi_v2', 'image_num': '4'}}"
"{'name': '百姓洗车美容', 'location': {'lat': 34.268113, 'lng': 108.937505}, 'address': '东举院巷72号附近', 'street_id': '96a52609ce503d15e81e97b0', 'detail': 1, 'uid': '96a52609ce503d15e81e97b0', 'detail_info': {'tag': '汽车服务;汽车美容', 'navi_location': {'lng': 108.93758461221, 'lat': 34.268112430761}, 'type': 'life', 'detail_url': 'http://api.map.baidu.com/place/detail?uid=96a52609ce503d15e81e97b0&output=html&source=placeapi_v2', 'image_num': '4'}}"
爱尚汽车俱乐部,108.92548462827769,34.26022918811687,0054b56144af0070774ff1d6,"{'name': '爱尚汽车俱乐部', 'location': {'lat': 34.264625, 'lng': 108.936611}, 'address': '陕西省西安市莲湖区唐人街地下停车场B区', 'street_id': '0054b56144af0070774ff1d6', 'detail': 0, 'uid': '0054b56144af0070774ff1d6', 'detail_info': {'tag': '丽人;美容'}}"
"{'name': '爱尚汽车俱乐部', 'location': {'lat': 34.264625, 'lng': 108.936611}, 'address': '陕西省西安市莲湖区唐人街地下停车场B区', 'street_id': '0054b56144af0070774ff1d6', 'detail': 0, 'uid': '0054b56144af0070774ff1d6', 'detail_info': {'tag': '丽人;美容'}}"
军诚火补,108.92103213301593,34.264828370033655,7b94f2853f820210bd48424d,"{'name': '军诚火补', 'location': {'lat': 34.269144, 'lng': 108.932169}, 'address': '西门里北马道巷中段', 'street_id': '7b94f2853f820210bd48424d', 'telephone': '13909245289', 'detail': 1, 'uid': '7b94f2853f820210bd48424d', 'detail_info': {'tag': '美食;中餐厅', 'type': 'life', 'detail_url': 'http://api.map.baidu.com/place/detail?uid=7b94f2853f820210bd48424d&output=html&source=placeapi_v2', 'image_num': '3'}}"
"{'name': '军诚火补', 'location': {'lat': 34.269144, 'lng': 108.932169}, 'address': '西门里北马道巷中段', 'street_id': '7b94f2853f820210bd48424d', 'telephone': '13909245289', 'detail': 1, 'uid': '7b94f2853f820210bd48424d', 'detail_info': {'tag': '美食;中餐厅', 'type': 'life', 'detail_url': 'http://api.map.baidu.com/place/detail?uid=7b94f2853f820210bd48424d&output=html&source=placeapi_v2', 'image_num': '3'}}"
车翼驰汽车服务中心,108.92108146587617,34.26613739399084,f48b4572af7f30b636b06c8c,"{'name': '车翼驰汽车服务中心', 'location': {'lat': 34.270454, 'lng': 108.932217}, 'address': '北马道巷与香米园西巷交叉口南150米', 'street_id': 'f48b4572af7f30b636b06c8c', 'detail': 1, 'uid': 'f48b4572af7f30b636b06c8c', 'detail_info': {'tag': '汽车服务;汽车美容', 'type': 'life', 'detail_url': 'http://api.map.baidu.com/place/detail?uid=f48b4572af7f30b636b06c8c&output=html&source=placeapi_v2', 'image_num': '2'}}"
"{'name': '车翼驰汽车服务中心', 'location': {'lat': 34.270454, 'lng': 108.932217}, 'address': '北马道巷与香米园西巷交叉口南150米', 'street_id': 'f48b4572af7f30b636b06c8c', 'detail': 1, 'uid': 'f48b4572af7f30b636b06c8c', 'detail_info': {'tag': '汽车服务;汽车美容', 'type': 'life', 'detail_url': 'http://api.map.baidu.com/place/detail?uid=f48b4572af7f30b636b06c8c&output=html&source=placeapi_v2', 'image_num': '2'}}"
裕金源,108.93473433821866,34.25470948294294,d81feef481560b15b13c81d5,"{'name': '裕金源', 'location': {'lat': 34.25927, 'lng': 108.94584}, 'address': '陕西省西安市碑林区威哥香港美食大酒楼朱雀门(大家好店)', 'street_id': 'd81feef481560b15b13c81d5', 'detail': 1, 'uid': 'd81feef481560b15b13c81d5', 'detail_info': {'tag': '汽车服务;汽车配件', 'type': 'life', 'detail_url': 'http://api.map.baidu.com/place/detail?uid=d81feef481560b15b13c81d5&output=html&source=placeapi_v2', 'image_num': '1'}}"
"{'name': '裕金源', 'location': {'lat': 34.25927, 'lng': 108.94584}, 'address': '陕西省西安市碑林区威哥香港美食大酒楼朱雀门(大家好店)', 'street_id': 'd81feef481560b15b13c81d5', 'detail': 1, 'uid': 'd81feef481560b15b13c81d5', 'detail_info': {'tag': '汽车服务;汽车配件', 'type': 'life', 'detail_url': 'http://api.map.baidu.com/place/detail?uid=d81feef481560b15b13c81d5&output=html&source=placeapi_v2', 'image_num': '1'}}"
风帆电瓶,108.92783469396743,34.2517467878452,c53ea8b1184c182d6fc02ca2,"{'name': '风帆电瓶', 'location': {'lat': 34.256185, 'lng': 108.938961}, 'address': '含光路中段175号附近', 'telephone': '88411744', 'detail': 0, 'uid': 'c53ea8b1184c182d6fc02ca2', 'detail_info': {'tag': '汽车服务;汽车配件'}}"
"{'name': '风帆电瓶', 'location': {'lat': 34.256185, 'lng': 108.938961}, 'address': '含光路中段175号附近', 'telephone': '88411744', 'detail': 0, 'uid': 'c53ea8b1184c182d6fc02ca2', 'detail_info': {'tag': '汽车服务;汽车配件'}}"
钣金制作,108.92115835251701,34.26460615248374,461a725c43ba61e6260bd0eb,"{'name': '钣金制作', 'location': {'lat': 34.268924, 'lng': 108.932295}, 'address': '北马道巷东50米', 'street_id': '461a725c43ba61e6260bd0eb', 'detail': 0, 'uid': '461a725c43ba61e6260bd0eb'}"
"{'name': '钣金制作', 'location': {'lat': 34.268924, 'lng': 108.932295}, 'address': '北马道巷东50米', 'street_id': '461a725c43ba61e6260bd0eb', 'detail': 0, 'uid': '461a725c43ba61e6260bd0eb'}"
欣达昌汽车服务有限公司,108.92555487727286,34.25217952593901,d0b8923f22d2f69fb5f42fc9,"{'name': '欣达昌汽车服务有限公司', 'location': {'lat': 34.256576, 'lng': 108.936688}, 'address': '陕西省西安市碑林区环城南路西段154号C', 'street_id': 'd0b8923f22d2f69fb5f42fc9', 'telephone': '(029)88416917', 'detail': 1, 'uid': 'd0b8923f22d2f69fb5f42fc9', 'detail_info': {'tag': '汽车服务;汽车销售', 'type': 'life', 'detail_url': 'http://api.map.baidu.com/place/detail?uid=d0b8923f22d2f69fb5f42fc9&output=html&source=placeapi_v2', 'image_num': '1', 'comment_num': '0'}}"
"{'name': '欣达昌汽车服务有限公司', 'location': {'lat': 34.256576, 'lng': 108.936688}, 'address': '陕西省西安市碑林区环城南路西段154号C', 'street_id': 'd0b8923f22d2f69fb5f42fc9', 'telephone': '(029)88416917', 'detail': 1, 'uid': 'd0b8923f22d2f69fb5f42fc9', 'detail_info': {'tag': '汽车服务;汽车销售', 'type': 'life', 'detail_url': 'http://api.map.baidu.com/place/detail?uid=d0b8923f22d2f69fb5f42fc9&output=html&source=placeapi_v2', 'image_num': '1', 'comment_num': '0'}}"
团险销售管理室银保销售管理室,108.94304795245789,34.265099244992435,3bf441ab4b75321fb35c6a90,"{'name': '团险销售管理室银保销售管理室', 'location': {'lat': 34.269783, 'lng': 108.954134}, 'address': '北大街55号新时代广场10层', 'street_id': '3bf441ab4b75321fb35c6a90', 'detail': 0, 'uid': '3bf441ab4b75321fb35c6a90'}"
"{'name': '团险销售管理室银保销售管理室', 'location': {'lat': 34.269783, 'lng': 108.954134}, 'address': '北大街55号新时代广场10层', 'street_id': '3bf441ab4b75321fb35c6a90', 'detail': 0, 'uid': '3bf441ab4b75321fb35c6a90'}"
停车洗车P,108.91709624133077,34.260405951183614,44f3d2bb1d1cc136cac3dbb1,"{'name': '停车洗车P', 'location': {'lat': 34.264654, 'lng': 108.92825}, 'address': '环城西路北段82号附近', 'street_id': '44f3d2bb1d1cc136cac3dbb1', 'detail': 0, 'uid': '44f3d2bb1d1cc136cac3dbb1', 'detail_info': {'tag': '交通设施;停车场'}}"
"{'name': '停车洗车P', 'location': {'lat': 34.264654, 'lng': 108.92825}, 'address': '环城西路北段82号附近', 'street_id': '44f3d2bb1d1cc136cac3dbb1', 'detail': 0, 'uid': '44f3d2bb1d1cc136cac3dbb1', 'detail_info': {'tag': '交通设施;停车场'}}"
秦宝路汽租,108.91759951563255,34.26443336985909,e00e05637c3f6597931fc97d,"{'name': '秦宝路汽租', 'location': {'lat': 34.26869, 'lng': 108.928748}, 'address': '环城西路北段218号融合大厦6层', 'street_id': 'e00e05637c3f6597931fc97d', 'detail': 1, 'uid': 'e00e05637c3f6597931fc97d', 'detail_info': {'tag': '汽车服务;汽车租赁', 'type': 'life', 'detail_url': 'http://api.map.baidu.com/place/detail?uid=e00e05637c3f6597931fc97d&output=html&source=placeapi_v2', 'image_num': '1'}}"
"{'name': '秦宝路汽租', 'location': {'lat': 34.26869, 'lng': 108.928748}, 'address': '环城西路北段218号融合大厦6层', 'street_id': 'e00e05637c3f6597931fc97d', 'detail': 1, 'uid': 'e00e05637c3f6597931fc97d', 'detail_info': {'tag': '汽车服务;汽车租赁', 'type': 'life', 'detail_url': 'http://api.map.baidu.com/place/detail?uid=e00e05637c3f6597931fc97d&output=html&source=placeapi_v2', 'image_num': '1'}}"
陕西行者汽车用品服务有限公司太白北路分店,108.91972657196398,34.25206320582244,d4034eb344f2f9f5c03644dc,"{'name': '陕西行者汽车用品服务有限公司太白北路分店', 'location': {'lat': 34.256355, 'lng': 108.930879}, 'address': '陕西省西安市碑林区太白北路297号水司十字东南角(近西北大学北门)', 'street_id': 'd4034eb344f2f9f5c03644dc', 'telephone': '(029)88305566', 'detail': 1, 'uid': 'd4034eb344f2f9f5c03644dc', 'detail_info': {'tag': '汽车服务;汽车美容', 'type': 'enterprise', 'detail_url': 'http://api.map.baidu.com/place/detail?uid=d4034eb344f2f9f5c03644dc&output=html&source=placeapi_v2'}}"
"{'name': '陕西行者汽车用品服务有限公司太白北路分店', 'location': {'lat': 34.256355, 'lng': 108.930879}, 'address': '陕西省西安市碑林区太白北路297号水司十字东南角(近西北大学北门)', 'street_id': 'd4034eb344f2f9f5c03644dc', 'telephone': '(029)88305566', 'detail': 1, 'uid': 'd4034eb344f2f9f5c03644dc', 'detail_info': {'tag': '汽车服务;汽车美容', 'type': 'enterprise', 'detail_url': 'http://api.map.baidu.com/place/detail?uid=d4034eb344f2f9f5c03644dc&output=html&source=placeapi_v2'}}"
通盛汽车租赁有限公司,108.91763990623421,34.26472267772231,daa437a5e6047761c92915d6,"{'name': '通盛汽车租赁有限公司', 'location': {'lat': 34.26898, 'lng': 108.928788}, 'address': '环城西路北段218号融合大厦A座4层A-409', 'street_id': 'daa437a5e6047761c92915d6', 'detail': 1, 'uid': 'daa437a5e6047761c92915d6', 'detail_info': {'tag': '汽车服务;汽车租赁', 'type': 'enterprise', 'detail_url': 'http://api.map.baidu.com/place/detail?uid=daa437a5e6047761c92915d6&output=html&source=placeapi_v2'}}"
"{'name': '通盛汽车租赁有限公司', 'location': {'lat': 34.26898, 'lng': 108.928788}, 'address': '环城西路北段218号融合大厦A座4层A-409', 'street_id': 'daa437a5e6047761c92915d6', 'detail': 1, 'uid': 'daa437a5e6047761c92915d6', 'detail_info': {'tag': '汽车服务;汽车租赁', 'type': 'enterprise', 'detail_url': 'http://api.map.baidu.com/place/detail?uid=daa437a5e6047761c92915d6&output=html&source=placeapi_v2'}}"
陕西小松零配件销售有限责任公司,108.92815909036173,34.252265808323,d05a64159459aa4a03ff2dd3,"{'name': '陕西小松零配件销售有限责任公司', 'location': {'lat': 34.25671, 'lng': 108.939284}, 'address': '环城南路140号含光商务大厦808', 'street_id': 'd05a64159459aa4a03ff2dd3', 'telephone': '(029)88428416', 'detail': 1, 'uid': 'd05a64159459aa4a03ff2dd3', 'detail_info': {'tag': '汽车服务;汽车销售', 'type': 'enterprise', 'detail_url': 'http://api.map.baidu.com/place/detail?uid=d05a64159459aa4a03ff2dd3&output=html&source=placeapi_v2'}}"
"{'name': '陕西小松零配件销售有限责任公司', 'location': {'lat': 34.25671, 'lng': 108.939284}, 'address': '环城南路140号含光商务大厦808', 'street_id': 'd05a64159459aa4a03ff2dd3', 'telephone': '(029)88428416', 'detail': 1, 'uid': 'd05a64159459aa4a03ff2dd3', 'detail_info': {'tag': '汽车服务;汽车销售', 'type': 'enterprise', 'detail_url': 'http://api.map.baidu.com/place/detail?uid=d05a64159459aa4a03ff2dd3&output=html&source=placeapi_v2'}}"
文智汽车修理,108.93604629608065,34.266209009821395,85513470c10b9359b34c4994,"{'name': '文智汽车修理', 'location': {'lat': 34.270792, 'lng': 108.947139}, 'address': '陕西省西安市莲湖区大皮院清真寺北二门附近(定家小酥肉东)', 'street_id': '85513470c10b9359b34c4994', 'detail': 0, 'uid': '85513470c10b9359b34c4994', 'detail_info': {'tag': '汽车服务;汽车维修'}}"
"{'name': '文智汽车修理', 'location': {'lat': 34.270792, 'lng': 108.947139}, 'address': '陕西省西安市莲湖区大皮院清真寺北二门附近(定家小酥肉东)', 'street_id': '85513470c10b9359b34c4994', 'detail': 0, 'uid': '85513470c10b9359b34c4994', 'detail_info': {'tag': '汽车服务;汽车维修'}}"
爱玛电动车(大麦市街),108.92788834339078,34.26369290110488,80a49c2d2537661417b54b10,"{'name': '爱玛电动车(大麦市街)', 'location': {'lat': 34.268133, 'lng': 108.939004}, 'address': '大麦市街78号', 'street_id': '80a49c2d2537661417b54b10', 'detail': 0, 'uid': '80a49c2d2537661417b54b10', 'detail_info': {'tag': '购物;商铺'}}"
"{'name': '爱玛电动车(大麦市街)', 'location': {'lat': 34.268133, 'lng': 108.939004}, 'address': '大麦市街78号', 'street_id': '80a49c2d2537661417b54b10', 'detail': 0, 'uid': '80a49c2d2537661417b54b10', 'detail_info': {'tag': '购物;商铺'}}"
新秋意汽车维修中心,108.92560913285512,34.252281521724505,09d6533c107aef371ce99994,"{'name': '新秋意汽车维修中心', 'location': {'lat': 34.256679, 'lng': 108.936742}, 'address': '环城南路西段154号B', 'street_id': '09d6533c107aef371ce99994', 'detail': 1, 'uid': '09d6533c107aef371ce99994', 'detail_info': {'tag': '汽车服务;汽车维修', 'navi_location': {'lng': 108.93680724198, 'lat': 34.256788949455}, 'type': 'life', 'detail_url': 'http://api.map.baidu.com/place/detail?uid=09d6533c107aef371ce99994&output=html&source=placeapi_v2', 'overall_rating': '5', 'image_num': '5', 'comment_num': '2'}}"
"{'name': '新秋意汽车维修中心', 'location': {'lat': 34.256679, 'lng': 108.936742}, 'address': '环城南路西段154号B', 'street_id': '09d6533c107aef371ce99994', 'detail': 1, 'uid': '09d6533c107aef371ce99994', 'detail_info': {'tag': '汽车服务;汽车维修', 'navi_location': {'lng': 108.93680724198, 'lat': 34.256788949455}, 'type': 'life', 'detail_url': 'http://api.map.baidu.com/place/detail?uid=09d6533c107aef371ce99994&output=html&source=placeapi_v2', 'overall_rating': '5', 'image_num': '5', 'comment_num': '2'}}"
宽途汽车(鑫之翼汽车服务店店),108.93116906899319,34.259608853749924,503287898b01b0ecb23c8186,"{'name': '宽途汽车(鑫之翼汽车服务店店)', 'location': {'lat': 34.264108, 'lng': 108.942279}, 'address': '琉璃街鑫海大厦1层', 'street_id': '503287898b01b0ecb23c8186', 'telephone': '4009986908', 'detail': 1, 'uid': '503287898b01b0ecb23c8186', 'detail_info': {'tag': '汽车服务;汽车美容', 'type': 'life', 'detail_url': 'http://api.map.baidu.com/place/detail?uid=503287898b01b0ecb23c8186&output=html&source=placeapi_v2', 'overall_rating': '4.5', 'image_num': '13', 'comment_num': '9'}}"
"{'name': '宽途汽车(鑫之翼汽车服务店店)', 'location': {'lat': 34.264108, 'lng': 108.942279}, 'address': '琉璃街鑫海大厦1层', 'street_id': '503287898b01b0ecb23c8186', 'telephone': '4009986908', 'detail': 1, 'uid': '503287898b01b0ecb23c8186', 'detail_info': {'tag': '汽车服务;汽车美容', 'type': 'life', 'detail_url': 'http://api.map.baidu.com/place/detail?uid=503287898b01b0ecb23c8186&output=html&source=placeapi_v2', 'overall_rating': '4.5', 'image_num': '13', 'comment_num': '9'}}"
西安大飞汽车服务有限公司陕车中继台,108.92115835251701,34.26460615248374,705a1fd4f4f8d344badf8fe6,"{'name': '西安大飞汽车服务有限公司陕车中继台', 'location': {'lat': 34.268924, 'lng': 108.932295}, 'address': '陕西省西安市莲湖区西安市儿童医院', 'telephone': '87332252', 'detail': 1, 'uid': '705a1fd4f4f8d344badf8fe6', 'detail_info': {'tag': '公司企业', 'type': 'life', 'detail_url': 'http://api.map.baidu.com/place/detail?uid=705a1fd4f4f8d344badf8fe6&output=html&source=placeapi_v2', 'image_num': '1'}}"
"{'name': '西安大飞汽车服务有限公司陕车中继台', 'location': {'lat': 34.268924, 'lng': 108.932295}, 'address': '陕西省西安市莲湖区西安市儿童医院', 'telephone': '87332252', 'detail': 1, 'uid': '705a1fd4f4f8d344badf8fe6', 'detail_info': {'tag': '公司企业', 'type': 'life', 'detail_url': 'http://api.map.baidu.com/place/detail?uid=705a1fd4f4f8d344badf8fe6&output=html&source=placeapi_v2', 'image_num': '1'}}"
陕西百得利汽车服务有限公司,108.92638467002992,34.26370044840244,5f6a86fac5692228364aae91,"{'name': '陕西百得利汽车服务有限公司', 'location': {'lat': 34.268113, 'lng': 108.937505}, 'address': '北院门街道东举院巷82号', 'street_id': '5f6a86fac5692228364aae91', 'detail': 1, 'uid': '5f6a86fac5692228364aae91', 'detail_info': {'tag': '汽车服务;汽车销售', 'type': 'life', 'detail_url': 'http://api.map.baidu.com/place/detail?uid=5f6a86fac5692228364aae91&output=html&source=placeapi_v2', 'image_num': '4'}}"
"{'name': '陕西百得利汽车服务有限公司', 'location': {'lat': 34.268113, 'lng': 108.937505}, 'address': '北院门街道东举院巷82号', 'street_id': '5f6a86fac5692228364aae91', 'detail': 1, 'uid': '5f6a86fac5692228364aae91', 'detail_info': {'tag': '汽车服务;汽车销售', 'type': 'life', 'detail_url': 'http://api.map.baidu.com/place/detail?uid=5f6a86fac5692228364aae91&output=html&source=placeapi_v2', 'image_num': '4'}}"
西安马清和汽车服务有限公司,108.9175153650331,34.25330059366754,6f33eaa600fc21c6eddfca8e,"{'name': '西安马清和汽车服务有限公司', 'location': {'lat': 34.257555, 'lng': 108.928674}, 'address': '西安市莲湖区', 'street_id': '6f33eaa600fc21c6eddfca8e', 'detail': 1, 'uid': '6f33eaa600fc21c6eddfca8e', 'detail_info': {'tag': '汽车服务;汽车销售', 'type': 'life', 'detail_url': 'http://api.map.baidu.com/place/detail?uid=6f33eaa600fc21c6eddfca8e&output=html&source=placeapi_v2', 'image_num': '1'}}"
"{'name': '西安马清和汽车服务有限公司', 'location': {'lat': 34.257555, 'lng': 108.928674}, 'address': '西安市莲湖区', 'street_id': '6f33eaa600fc21c6eddfca8e', 'detail': 1, 'uid': '6f33eaa600fc21c6eddfca8e', 'detail_info': {'tag': '汽车服务;汽车销售', 'type': 'life', 'detail_url': 'http://api.map.baidu.com/place/detail?uid=6f33eaa600fc21c6eddfca8e&output=html&source=placeapi_v2', 'image_num': '1'}}"
西安市君展汽车租赁有限公司,108.91807869251991,34.260732639667076,7ff7d690ad81ab0479b55c0b,"{'name': '西安市君展汽车租赁有限公司', 'location': {'lat': 34.264997, 'lng': 108.929229}, 'address': '环城西路南段78号东光大厦9层', 'street_id': '7ff7d690ad81ab0479b55c0b', 'detail': 1, 'uid': '7ff7d690ad81ab0479b55c0b', 'detail_info': {'tag': '汽车服务;汽车租赁', 'type': 'life', 'detail_url': 'http://api.map.baidu.com/place/detail?uid=7ff7d690ad81ab0479b55c0b&output=html&source=placeapi_v2', 'overall_rating': '0', 'image_num': '1'}}"
"{'name': '西安市君展汽车租赁有限公司', 'location': {'lat': 34.264997, 'lng': 108.929229}, 'address': '环城西路南段78号东光大厦9层', 'street_id': '7ff7d690ad81ab0479b55c0b', 'detail': 1, 'uid': '7ff7d690ad81ab0479b55c0b', 'detail_info': {'tag': '汽车服务;汽车租赁', 'type': 'life', 'detail_url': 'http://api.map.baidu.com/place/detail?uid=7ff7d690ad81ab0479b55c0b&output=html&source=placeapi_v2', 'overall_rating': '0', 'image_num': '1'}}"
云良汽车维修,108.92560913285512,34.252281521724505,87de96808147980bbe48422e,"{'name': '云良汽车维修', 'location': {'lat': 34.256679, 'lng': 108.936742}, 'address': '环城南路西段154号C', 'street_id': '87de96808147980bbe48422e', 'detail': 0, 'uid': '87de96808147980bbe48422e', 'detail_info': {'tag': '汽车服务;汽车维修'}}"
"{'name': '云良汽车维修', 'location': {'lat': 34.256679, 'lng': 108.936742}, 'address': '环城南路西段154号C', 'street_id': '87de96808147980bbe48422e', 'detail': 0, 'uid': '87de96808147980bbe48422e', 'detail_info': {'tag': '汽车服务;汽车维修'}}"
马伟洗车美容中心,108.92661129877149,34.26250537660314,3684cc1a4552dfbd8bdb739a,"{'name': '马伟洗车美容中心', 'location': {'lat': 34.266922, 'lng': 108.937732}, 'address': '北院门街道东举院巷7号', 'street_id': '3684cc1a4552dfbd8bdb739a', 'detail': 0, 'uid': '3684cc1a4552dfbd8bdb739a', 'detail_info': {'tag': '汽车服务;汽车美容'}}"
"{'name': '马伟洗车美容中心', 'location': {'lat': 34.266922, 'lng': 108.937732}, 'address': '北院门街道东举院巷7号', 'street_id': '3684cc1a4552dfbd8bdb739a', 'detail': 0, 'uid': '3684cc1a4552dfbd8bdb739a', 'detail_info': {'tag': '汽车服务;汽车美容'}}"
云薇,108.92863197099005,34.25750875324272,ef773a0f8d33594a22022000,"{'name': '云薇', 'location': {'lat': 34.261962, 'lng': 108.939751}, 'address': '五星街17号', 'street_id': 'ef773a0f8d33594a22022000', 'detail': 1, 'uid': 'ef773a0f8d33594a22022000', 'detail_info': {'tag': '购物;商铺', 'navi_location': {'lng': 108.93965624934, 'lat': 34.261792336147}, 'type': 'shopping', 'detail_url': 'http://api.map.baidu.com/place/detail?uid=ef773a0f8d33594a22022000&output=html&source=placeapi_v2', 'comment_num': '0'}}"
"{'name': '云薇', 'location': {'lat': 34.261962, 'lng': 108.939751}, 'address': '五星街17号', 'street_id': 'ef773a0f8d33594a22022000', 'detail': 1, 'uid': 'ef773a0f8d33594a22022000', 'detail_info': {'tag': '购物;商铺', 'navi_location': {'lng': 108.93965624934, 'lat': 34.261792336147}, 'type': 'shopping', 'detail_url': 'http://api.map.baidu.com/place/detail?uid=ef773a0f8d33594a22022000&output=html&source=placeapi_v2', 'comment_num': '0'}}"
海纳汽配城,108.91703490936358,34.27586336601751,3c0ea7c529482e85fbf0cb10,"{'name': '海纳汽配城', 'location': {'lat': 34.280112, 'lng': 108.928176}, 'address': '环城西路北段376号', 'street_id': '3c0ea7c529482e85fbf0cb10', 'detail': 1, 'uid': '3c0ea7c529482e85fbf0cb10', 'detail_info': {'tag': '汽车服务;汽车配件', 'navi_location': {'lng': 108.92880643724, 'lat': 34.280196402629}, 'type': 'life', 'detail_url': 'http://api.map.baidu.com/place/detail?uid=3c0ea7c529482e85fbf0cb10&output=html&source=placeapi_v2', 'overall_rating': '3', 'image_num': '15', 'comment_num': '4'}}"
"{'name': '海纳汽配城', 'location': {'lat': 34.280112, 'lng': 108.928176}, 'address': '环城西路北段376号', 'street_id': '3c0ea7c529482e85fbf0cb10', 'detail': 1, 'uid': '3c0ea7c529482e85fbf0cb10', 'detail_info': {'tag': '汽车服务;汽车配件', 'navi_location': {'lng': 108.92880643724, 'lat': 34.280196402629}, 'type': 'life', 'detail_url': 'http://api.map.baidu.com/place/detail?uid=3c0ea7c529482e85fbf0cb10&output=html&source=placeapi_v2', 'overall_rating': '3', 'image_num': '15', 'comment_num': '4'}}"
西安汽车配件市场,108.9153690133391,34.27481116646158,a1418eb43039b07febe58208,"{'name': '西安汽车配件市场', 'location': {'lat': 34.279033, 'lng': 108.926516}, 'address': '西安市莲湖区西站街10号', 'street_id': 'a1418eb43039b07febe58208', 'detail': 1, 'uid': 'a1418eb43039b07febe58208', 'detail_info': {'tag': '汽车服务;汽车配件', 'navi_location': {'lng': 108.92650879902, 'lat': 34.279221378675}, 'type': 'life', 'detail_url': 'http://api.map.baidu.com/place/detail?uid=a1418eb43039b07febe58208&output=html&source=placeapi_v2', 'overall_rating': '3.7', 'image_num': '4', 'comment_num': '2'}}"
"{'name': '西安汽车配件市场', 'location': {'lat': 34.279033, 'lng': 108.926516}, 'address': '西安市莲湖区西站街10号', 'street_id': 'a1418eb43039b07febe58208', 'detail': 1, 'uid': 'a1418eb43039b07febe58208', 'detail_info': {'tag': '汽车服务;汽车配件', 'navi_location': {'lng': 108.92650879902, 'lat': 34.279221378675}, 'type': 'life', 'detail_url': 'http://api.map.baidu.com/place/detail?uid=a1418eb43039b07febe58208&output=html&source=placeapi_v2', 'overall_rating': '3.7', 'image_num': '4', 'comment_num': '2'}}"
海纳汽配城-中区,108.91713088901041,34.27393110087619,24bb7ef53766a525b64f54d6,"{'name': '海纳汽配城-中区', 'location': {'lat': 34.278181, 'lng': 108.928273}, 'address': '环城西路北段368号', 'street_id': '24bb7ef53766a525b64f54d6', 'detail': 1, 'uid': '24bb7ef53766a525b64f54d6', 'detail_info': {'tag': '汽车服务;汽车配件', 'navi_location': {'lng': 108.92879382054, 'lat': 34.278215356533}, 'type': 'life', 'detail_url': 'http://api.map.baidu.com/place/detail?uid=24bb7ef53766a525b64f54d6&output=html&source=placeapi_v2', 'image_num': '2'}}"
"{'name': '海纳汽配城-中区', 'location': {'lat': 34.278181, 'lng': 108.928273}, 'address': '环城西路北段368号', 'street_id': '24bb7ef53766a525b64f54d6', 'detail': 1, 'uid': '24bb7ef53766a525b64f54d6', 'detail_info': {'tag': '汽车服务;汽车配件', 'navi_location': {'lng': 108.92879382054, 'lat': 34.278215356533}, 'type': 'life', 'detail_url': 'http://api.map.baidu.com/place/detail?uid=24bb7ef53766a525b64f54d6&output=html&source=placeapi_v2', 'image_num': '2'}}"
海纳汽配城北区,108.91729870005449,34.27578905033864,d3c90d725bb45fb597ec8473,"{'name': '海纳汽配城北区', 'location': {'lat': 34.280042, 'lng': 108.928439}, 'address': '陕西省西安市莲湖区建华路10号', 'street_id': 'd3c90d725bb45fb597ec8473', 'detail': 1, 'uid': 'd3c90d725bb45fb597ec8473', 'detail_info': {'tag': '汽车服务;汽车配件', 'navi_location': {'lng': 108.92869117207, 'lat': 34.279974631329}, 'type': 'life', 'detail_url': 'http://api.map.baidu.com/place/detail?uid=d3c90d725bb45fb597ec8473&output=html&source=placeapi_v2', 'image_num': '1'}}"
"{'name': '海纳汽配城北区', 'location': {'lat': 34.280042, 'lng': 108.928439}, 'address': '陕西省西安市莲湖区建华路10号', 'street_id': 'd3c90d725bb45fb597ec8473', 'detail': 1, 'uid': 'd3c90d725bb45fb597ec8473', 'detail_info': {'tag': '汽车服务;汽车配件', 'navi_location': {'lng': 108.92869117207, 'lat': 34.279974631329}, 'type': 'life', 'detail_url': 'http://api.map.baidu.com/place/detail?uid=d3c90d725bb45fb597ec8473&output=html&source=placeapi_v2', 'image_num': '1'}}"
精典汽车服务,108.92974341180584,34.277064570861036,51f32c928714e5cc9322e0be,"{'name': '精典汽车服务', 'location': {'lat': 34.28154, 'lng': 108.940843}, 'address': '顺城北路西段45-5号附近', 'street_id': '51f32c928714e5cc9322e0be', 'detail': 1, 'uid': '51f32c928714e5cc9322e0be', 'detail_info': {'tag': '汽车服务;汽车维修', 'type': 'life', 'detail_url': 'http://api.map.baidu.com/place/detail?uid=51f32c928714e5cc9322e0be&output=html&source=placeapi_v2', 'image_num': '6'}}"
"{'name': '精典汽车服务', 'location': {'lat': 34.28154, 'lng': 108.940843}, 'address': '顺城北路西段45-5号附近', 'street_id': '51f32c928714e5cc9322e0be', 'detail': 1, 'uid': '51f32c928714e5cc9322e0be', 'detail_info': {'tag': '汽车服务;汽车维修', 'type': 'life', 'detail_url': 'http://api.map.baidu.com/place/detail?uid=51f32c928714e5cc9322e0be&output=html&source=placeapi_v2', 'image_num': '6'}}"
车来车往汽车服务有限公司,108.92104801017368,34.26921370579221,8f9793317221bb32f90cad4b,"{'name': '车来车往汽车服务有限公司', 'location': {'lat': 34.27353, 'lng': 108.932181}, 'address': '北马道巷95号', 'street_id': '8f9793317221bb32f90cad4b', 'detail': 1, 'uid': '8f9793317221bb32f90cad4b', 'detail_info': {'tag': '汽车服务;汽车美容', 'navi_location': {'lng': 108.93202056447, 'lat': 34.27354347965}, 'type': 'life', 'detail_url': 'http://api.map.baidu.com/place/detail?uid=8f9793317221bb32f90cad4b&output=html&source=placeapi_v2', 'price': '15.0', 'overall_rating': '1.0', 'image_num': '66', 'comment_num': '10'}}"
"{'name': '车来车往汽车服务有限公司', 'location': {'lat': 34.27353, 'lng': 108.932181}, 'address': '北马道巷95号', 'street_id': '8f9793317221bb32f90cad4b', 'detail': 1, 'uid': '8f9793317221bb32f90cad4b', 'detail_info': {'tag': '汽车服务;汽车美容', 'navi_location': {'lng': 108.93202056447, 'lat': 34.27354347965}, 'type': 'life', 'detail_url': 'http://api.map.baidu.com/place/detail?uid=8f9793317221bb32f90cad4b&output=html&source=placeapi_v2', 'price': '15.0', 'overall_rating': '1.0', 'image_num': '66', 'comment_num': '10'}}"
东风汽配一条街,108.9159792309012,34.2753114796951,f0799fc07e3a6cce93114c10,"{'name': '东风汽配一条街', 'location': {'lat': 34.279543, 'lng': 108.927124}, 'address': '西安市莲湖区建华路14号', 'street_id': 'f0799fc07e3a6cce93114c10', 'detail': 1, 'uid': 'f0799fc07e3a6cce93114c10', 'detail_info': {'tag': '汽车服务;汽车配件', 'navi_location': {'lng': 108.92720975399, 'lat': 34.279464806534}, 'type': 'life', 'detail_url': 'http://api.map.baidu.com/place/detail?uid=f0799fc07e3a6cce93114c10&output=html&source=placeapi_v2', 'image_num': '5', 'comment_num': '0'}}"
"{'name': '东风汽配一条街', 'location': {'lat': 34.279543, 'lng': 108.927124}, 'address': '西安市莲湖区建华路14号', 'street_id': 'f0799fc07e3a6cce93114c10', 'detail': 1, 'uid': 'f0799fc07e3a6cce93114c10', 'detail_info': {'tag': '汽车服务;汽车配件', 'navi_location': {'lng': 108.92720975399, 'lat': 34.279464806534}, 'type': 'life', 'detail_url': 'http://api.map.baidu.com/place/detail?uid=f0799fc07e3a6cce93114c10&output=html&source=placeapi_v2', 'image_num': '5', 'comment_num': '0'}}"
一路阳光洗车行,108.92485386472818,34.282088803213654,da3ae6c0904a89e0a11de915,"{'name': '一路阳光洗车行', 'location': {'lat': 34.286476, 'lng': 108.935966}, 'address': '自强西路245号', 'street_id': 'da3ae6c0904a89e0a11de915', 'telephone': '15229019075', 'detail': 1, 'uid': 'da3ae6c0904a89e0a11de915', 'detail_info': {'tag': '汽车服务;汽车美容', 'navi_location': {'lng': 108.93598205584, 'lat': 34.286292011411}, 'type': 'life', 'detail_url': 'http://api.map.baidu.com/place/detail?uid=da3ae6c0904a89e0a11de915&output=html&source=placeapi_v2', 'image_num': '7'}}"
"{'name': '一路阳光洗车行', 'location': {'lat': 34.286476, 'lng': 108.935966}, 'address': '自强西路245号', 'street_id': 'da3ae6c0904a89e0a11de915', 'telephone': '15229019075', 'detail': 1, 'uid': 'da3ae6c0904a89e0a11de915', 'detail_info': {'tag': '汽车服务;汽车美容', 'navi_location': {'lng': 108.93598205584, 'lat': 34.286292011411}, 'type': 'life', 'detail_url': 'http://api.map.baidu.com/place/detail?uid=da3ae6c0904a89e0a11de915&output=html&source=placeapi_v2', 'image_num': '7'}}"
西安市机动车停放服务中心,108.92120615491565,34.269960827016824,2f3b841e70b006fd932ca37e,"{'name': '西安市机动车停放服务中心', 'location': {'lat': 34.27428, 'lng': 108.932338}, 'address': '北马道巷117号附近', 'street_id': '2f3b841e70b006fd932ca37e', 'detail': 1, 'uid': '2f3b841e70b006fd932ca37e', 'detail_info': {'tag': '汽车服务;汽车美容', 'navi_location': {'lng': 108.9324885529, 'lat': 34.274141168447}, 'type': 'life', 'detail_url': 'http://api.map.baidu.com/place/detail?uid=2f3b841e70b006fd932ca37e&output=html&source=placeapi_v2', 'image_num': '1'}}"
"{'name': '西安市机动车停放服务中心', 'location': {'lat': 34.27428, 'lng': 108.932338}, 'address': '北马道巷117号附近', 'street_id': '2f3b841e70b006fd932ca37e', 'detail': 1, 'uid': '2f3b841e70b006fd932ca37e', 'detail_info': {'tag': '汽车服务;汽车美容', 'navi_location': {'lng': 108.9324885529, 'lat': 34.274141168447}, 'type': 'life', 'detail_url': 'http://api.map.baidu.com/place/detail?uid=2f3b841e70b006fd932ca37e&output=html&source=placeapi_v2', 'image_num': '1'}}"
老锁匠汽车钥匙,108.91753042650879,34.27576722833944,d3c5d4263e0a2131b5f42f4d,"{'name': '老锁匠汽车钥匙', 'location': {'lat': 34.280024, 'lng': 108.92867}, 'address': '陕西省西安市莲湖区建华路12号', 'street_id': 'd3c5d4263e0a2131b5f42f4d', 'detail': 0, 'uid': 'd3c5d4263e0a2131b5f42f4d'}"
"{'name': '老锁匠汽车钥匙', 'location': {'lat': 34.280024, 'lng': 108.92867}, 'address': '陕西省西安市莲湖区建华路12号', 'street_id': 'd3c5d4263e0a2131b5f42f4d', 'detail': 0, 'uid': 'd3c5d4263e0a2131b5f42f4d'}"
每天美车-汽车服务终端体验店,108.9377825976435,34.27716209277786,30b8a6daf7763911bb17e7b9,"{'name': '每天美车-汽车服务终端体验店', 'location': {'lat': 34.281774, 'lng': 108.948864}, 'address': '顺城北路西段', 'street_id': '30b8a6daf7763911bb17e7b9', 'detail': 1, 'uid': '30b8a6daf7763911bb17e7b9', 'detail_info': {'tag': '生活服务;维修点', 'type': 'life', 'detail_url': 'http://api.map.baidu.com/place/detail?uid=30b8a6daf7763911bb17e7b9&output=html&source=placeapi_v2', 'image_num': '1'}}"
"{'name': '每天美车-汽车服务终端体验店', 'location': {'lat': 34.281774, 'lng': 108.948864}, 'address': '顺城北路西段', 'street_id': '30b8a6daf7763911bb17e7b9', 'detail': 1, 'uid': '30b8a6daf7763911bb17e7b9', 'detail_info': {'tag': '生活服务;维修点', 'type': 'life', 'detail_url': 'http://api.map.baidu.com/place/detail?uid=30b8a6daf7763911bb17e7b9&output=html&source=placeapi_v2', 'image_num': '1'}}"
西安海纳汽配城南区汽车配件用品城招商部,108.91732155012802,34.27400595672704,a5a5adee032fa102f4e73b51,"{'name': '西安海纳汽配城南区汽车配件用品城招商部', 'location': {'lat': 34.278259, 'lng': 108.928463}, 'address': '陕西省西安市莲湖区环城西路北段368', 'street_id': 'a5a5adee032fa102f4e73b51', 'detail': 1, 'uid': 'a5a5adee032fa102f4e73b51', 'detail_info': {'tag': '汽车服务;汽车配件', 'navi_location': {'lng': 108.92879492635, 'lat': 34.278325647751}, 'type': 'life', 'detail_url': 'http://api.map.baidu.com/place/detail?uid=a5a5adee032fa102f4e73b51&output=html&source=placeapi_v2', 'image_num': '1'}}"
"{'name': '西安海纳汽配城南区汽车配件用品城招商部', 'location': {'lat': 34.278259, 'lng': 108.928463}, 'address': '陕西省西安市莲湖区环城西路北段368', 'street_id': 'a5a5adee032fa102f4e73b51', 'detail': 1, 'uid': 'a5a5adee032fa102f4e73b51', 'detail_info': {'tag': '汽车服务;汽车配件', 'navi_location': {'lng': 108.92879492635, 'lat': 34.278325647751}, 'type': 'life', 'detail_url': 'http://api.map.baidu.com/place/detail?uid=a5a5adee032fa102f4e73b51&output=html&source=placeapi_v2', 'image_num': '1'}}"
众联汽配连锁,108.91571029425734,34.27515476078152,6365c70de4b1d34b40afe65c,"{'name': '众联汽配连锁', 'location': {'lat': 34.279382, 'lng': 108.926856}, 'address': '海纳汽配城中区负一层D4-2号', 'street_id': '6365c70de4b1d34b40afe65c', 'telephone': '(029)83139582', 'detail': 1, 'uid': '6365c70de4b1d34b40afe65c', 'detail_info': {'tag': '汽车服务;汽车配件', 'type': 'life', 'detail_url': 'http://api.map.baidu.com/place/detail?uid=6365c70de4b1d34b40afe65c&output=html&source=placeapi_v2', 'image_num': '2'}}"
"{'name': '众联汽配连锁', 'location': {'lat': 34.279382, 'lng': 108.926856}, 'address': '海纳汽配城中区负一层D4-2号', 'street_id': '6365c70de4b1d34b40afe65c', 'telephone': '(029)83139582', 'detail': 1, 'uid': '6365c70de4b1d34b40afe65c', 'detail_info': {'tag': '汽车服务;汽车配件', 'type': 'life', 'detail_url': 'http://api.map.baidu.com/place/detail?uid=6365c70de4b1d34b40afe65c&output=html&source=placeapi_v2', 'image_num': '2'}}"
海纳汽配城中一街,108.91745922618546,34.27433863522661,c5e5707159644627364aae91,"{'name': '海纳汽配城中一街', 'location': {'lat': 34.278594, 'lng': 108.9286}, 'address': '陕西省西安市莲湖区环城西路海纳观景园二期', 'street_id': 'c5e5707159644627364aae91', 'detail': 1, 'uid': 'c5e5707159644627364aae91', 'detail_info': {'tag': '汽车服务;汽车配件', 'type': 'life', 'detail_url': 'http://api.map.baidu.com/place/detail?uid=c5e5707159644627364aae91&output=html&source=placeapi_v2', 'image_num': '1'}}"
"{'name': '海纳汽配城中一街', 'location': {'lat': 34.278594, 'lng': 108.9286}, 'address': '陕西省西安市莲湖区环城西路海纳观景园二期', 'street_id': 'c5e5707159644627364aae91', 'detail': 1, 'uid': 'c5e5707159644627364aae91', 'detail_info': {'tag': '汽车服务;汽车配件', 'type': 'life', 'detail_url': 'http://api.map.baidu.com/place/detail?uid=c5e5707159644627364aae91&output=html&source=placeapi_v2', 'image_num': '1'}}"
秦潮车马店,108.92104226375284,34.27336730897178,9cf8850e3f3be455601809db,"{'name': '秦潮车马店', 'location': {'lat': 34.277684, 'lng': 108.932172}, 'address': '西安市莲湖区联盟巷2号', 'street_id': '9cf8850e3f3be455601809db', 'telephone': '(029)87349461', 'detail': 1, 'uid': '9cf8850e3f3be455601809db', 'detail_info': {'tag': '汽车服务;汽车美容', 'type': 'life', 'detail_url': 'http://api.map.baidu.com/place/detail?uid=9cf8850e3f3be455601809db&output=html&source=placeapi_v2', 'overall_rating': '0.0', 'image_num': '2'}}"
"{'name': '秦潮车马店', 'location': {'lat': 34.277684, 'lng': 108.932172}, 'address': '西安市莲湖区联盟巷2号', 'street_id': '9cf8850e3f3be455601809db', 'telephone': '(029)87349461', 'detail': 1, 'uid': '9cf8850e3f3be455601809db', 'detail_info': {'tag': '汽车服务;汽车美容', 'type': 'life', 'detail_url': 'http://api.map.baidu.com/place/detail?uid=9cf8850e3f3be455601809db&output=html&source=placeapi_v2', 'overall_rating': '0.0', 'image_num': '2'}}"
陕西车友汽车服务小北门分店,108.9281857117886,34.27687392448911,56772bd35e894338badf8f0e,"{'name': '陕西车友汽车服务小北门分店', 'location': {'lat': 34.281321, 'lng': 108.93929}, 'address': '顺城北路西段', 'street_id': '56772bd35e894338badf8f0e', 'telephone': '(029)87322012', 'detail': 1, 'uid': '56772bd35e894338badf8f0e', 'detail_info': {'tag': '汽车服务;汽车销售', 'navi_location': {'lng': 108.93941320919, 'lat': 34.281312913456}, 'type': 'life', 'detail_url': 'http://api.map.baidu.com/place/detail?uid=56772bd35e894338badf8f0e&output=html&source=placeapi_v2', 'overall_rating': '5', 'image_num': '8', 'comment_num': '4'}}"
"{'name': '陕西车友汽车服务小北门分店', 'location': {'lat': 34.281321, 'lng': 108.93929}, 'address': '顺城北路西段', 'street_id': '56772bd35e894338badf8f0e', 'telephone': '(029)87322012', 'detail': 1, 'uid': '56772bd35e894338badf8f0e', 'detail_info': {'tag': '汽车服务;汽车销售', 'navi_location': {'lng': 108.93941320919, 'lat': 34.281312913456}, 'type': 'life', 'detail_url': 'http://api.map.baidu.com/place/detail?uid=56772bd35e894338badf8f0e&output=html&source=placeapi_v2', 'overall_rating': '5', 'image_num': '8', 'comment_num': '4'}}"
车臣汽车服务,108.9292953365611,34.27162752444119,8b13764b9b74e6fb4207c14b,"{'name': '车臣汽车服务', 'location': {'lat': 34.276094, 'lng': 108.9404}, 'address': '陕西省西安市莲湖区莲湖路121号', 'street_id': '8b13764b9b74e6fb4207c14b', 'telephone': '15029886722', 'detail': 1, 'uid': '8b13764b9b74e6fb4207c14b', 'detail_info': {'tag': '汽车服务;汽车销售', 'type': 'life', 'detail_url': 'http://api.map.baidu.com/place/detail?uid=8b13764b9b74e6fb4207c14b&output=html&source=placeapi_v2', 'image_num': '5', 'comment_num': '7'}}"
"{'name': '车臣汽车服务', 'location': {'lat': 34.276094, 'lng': 108.9404}, 'address': '陕西省西安市莲湖区莲湖路121号', 'street_id': '8b13764b9b74e6fb4207c14b', 'telephone': '15029886722', 'detail': 1, 'uid': '8b13764b9b74e6fb4207c14b', 'detail_info': {'tag': '汽车服务;汽车销售', 'type': 'life', 'detail_url': 'http://api.map.baidu.com/place/detail?uid=8b13764b9b74e6fb4207c14b&output=html&source=placeapi_v2', 'image_num': '5', 'comment_num': '7'}}"
西安上通汽车服务有限公司,108.92174089224606,34.27848301365971,23116913c7715efd734b8752,"{'name': '西安上通汽车服务有限公司', 'location': {'lat': 34.282813, 'lng': 108.932865}, 'address': '西安市西安市环城北路西段付125号', 'street_id': '23116913c7715efd734b8752', 'telephone': '15399441369', 'detail': 1, 'uid': '23116913c7715efd734b8752', 'detail_info': {'tag': '汽车服务;汽车销售', 'type': 'life', 'detail_url': 'http://api.map.baidu.com/place/detail?uid=23116913c7715efd734b8752&output=html&source=placeapi_v2', 'image_num': '2'}}"
"{'name': '西安上通汽车服务有限公司', 'location': {'lat': 34.282813, 'lng': 108.932865}, 'address': '西安市西安市环城北路西段付125号', 'street_id': '23116913c7715efd734b8752', 'telephone': '15399441369', 'detail': 1, 'uid': '23116913c7715efd734b8752', 'detail_info': {'tag': '汽车服务;汽车销售', 'type': 'life', 'detail_url': 'http://api.map.baidu.com/place/detail?uid=23116913c7715efd734b8752&output=html&source=placeapi_v2', 'image_num': '2'}}"
汉博雷汽车终端服务商,108.91640443254492,34.27236111518635,9e7e9deed762fa70c7f025ce,"{'name': '汉博雷汽车终端服务商', 'location': {'lat': 34.276599, 'lng': 108.92755}, 'address': '陕西省西安市莲湖区大庆路3号蔚蓝国际B座18层', 'street_id': '9e7e9deed762fa70c7f025ce', 'detail': 1, 'uid': '9e7e9deed762fa70c7f025ce', 'detail_info': {'tag': '生活服务;维修点', 'detail_url': 'http://api.map.baidu.com/place/detail?uid=9e7e9deed762fa70c7f025ce&output=html&source=placeapi_v2'}}"
"{'name': '汉博雷汽车终端服务商', 'location': {'lat': 34.276599, 'lng': 108.92755}, 'address': '陕西省西安市莲湖区大庆路3号蔚蓝国际B座18层', 'street_id': '9e7e9deed762fa70c7f025ce', 'detail': 1, 'uid': '9e7e9deed762fa70c7f025ce', 'detail_info': {'tag': '生活服务;维修点', 'detail_url': 'http://api.map.baidu.com/place/detail?uid=9e7e9deed762fa70c7f025ce&output=html&source=placeapi_v2'}}"
车友人合车(小北门店),108.92814758781556,34.276859623491376,96f383bcc64c64d9da2f2830,"{'name': '车友人合车(小北门店)', 'location': {'lat': 34.281306, 'lng': 108.939252}, 'address': '陕西省西安市莲湖区西北三路128号', 'street_id': '96f383bcc64c64d9da2f2830', 'telephone': '(029)87322012', 'detail': 1, 'uid': '96f383bcc64c64d9da2f2830', 'detail_info': {'tag': '汽车服务;汽车美容', 'type': 'life', 'detail_url': 'http://api.map.baidu.com/place/detail?uid=96f383bcc64c64d9da2f2830&output=html&source=placeapi_v2', 'overall_rating': '0', 'image_num': '1'}}"
"{'name': '车友人合车(小北门店)', 'location': {'lat': 34.281306, 'lng': 108.939252}, 'address': '陕西省西安市莲湖区西北三路128号', 'street_id': '96f383bcc64c64d9da2f2830', 'telephone': '(029)87322012', 'detail': 1, 'uid': '96f383bcc64c64d9da2f2830', 'detail_info': {'tag': '汽车服务;汽车美容', 'type': 'life', 'detail_url': 'http://api.map.baidu.com/place/detail?uid=96f383bcc64c64d9da2f2830&output=html&source=placeapi_v2', 'overall_rating': '0', 'image_num': '1'}}"
车轮站高端汽车养护会所,108.92137309232642,34.27042981283288,2c49d1849e913d6103ec012e,"{'name': '车轮站高端汽车养护会所', 'location': {'lat': 34.274752, 'lng': 108.932504}, 'address': '北马道巷206号(玉祥门里顺城墙南行20米院内)', 'street_id': '2c49d1849e913d6103ec012e', 'detail': 1, 'uid': '2c49d1849e913d6103ec012e', 'detail_info': {'tag': '汽车服务;汽车美容', 'navi_location': {'lng': 108.93199357938, 'lat': 34.274569369836}, 'type': 'life', 'detail_url': 'http://api.map.baidu.com/place/detail?uid=2c49d1849e913d6103ec012e&output=html&source=placeapi_v2', 'overall_rating': '3.9', 'image_num': '127', 'comment_num': '1'}}"
"{'name': '车轮站高端汽车养护会所', 'location': {'lat': 34.274752, 'lng': 108.932504}, 'address': '北马道巷206号(玉祥门里顺城墙南行20米院内)', 'street_id': '2c49d1849e913d6103ec012e', 'detail': 1, 'uid': '2c49d1849e913d6103ec012e', 'detail_info': {'tag': '汽车服务;汽车美容', 'navi_location': {'lng': 108.93199357938, 'lat': 34.274569369836}, 'type': 'life', 'detail_url': 'http://api.map.baidu.com/place/detail?uid=2c49d1849e913d6103ec012e&output=html&source=placeapi_v2', 'overall_rating': '3.9', 'image_num': '127', 'comment_num': '1'}}"
汉博雷车服,108.91640443254492,34.27236111518635,b58c9ab24306fb78081cc7c8,"{'name': '汉博雷车服', 'location': {'lat': 34.276599, 'lng': 108.92755}, 'address': '西安市莲湖区大庆路3号', 'street_id': 'b58c9ab24306fb78081cc7c8', 'detail': 1, 'uid': 'b58c9ab24306fb78081cc7c8', 'detail_info': {'tag': '汽车服务', 'type': 'life', 'detail_url': 'http://api.map.baidu.com/place/detail?uid=b58c9ab24306fb78081cc7c8&output=html&source=placeapi_v2', 'overall_rating': '4.4', 'image_num': '141', 'comment_num': '75'}}"
"{'name': '汉博雷车服', 'location': {'lat': 34.276599, 'lng': 108.92755}, 'address': '西安市莲湖区大庆路3号', 'street_id': 'b58c9ab24306fb78081cc7c8', 'detail': 1, 'uid': 'b58c9ab24306fb78081cc7c8', 'detail_info': {'tag': '汽车服务', 'type': 'life', 'detail_url': 'http://api.map.baidu.com/place/detail?uid=b58c9ab24306fb78081cc7c8&output=html&source=placeapi_v2', 'overall_rating': '4.4', 'image_num': '141', 'comment_num': '75'}}"
西安中合叉车设备有限公司,108.91738717409173,34.27608354178026,c648ceeac0e3e4869ee3212c,"{'name': '西安中合叉车设备有限公司', 'location': {'lat': 34.280338, 'lng': 108.928527}, 'address': '陕西省西安市星火立交桥西南角海纳北区临街L26号', 'street_id': 'c648ceeac0e3e4869ee3212c', 'detail': 1, 'uid': 'c648ceeac0e3e4869ee3212c', 'detail_info': {'tag': '公司企业;公司', 'type': 'life', 'detail_url': 'http://api.map.baidu.com/place/detail?uid=c648ceeac0e3e4869ee3212c&output=html&source=placeapi_v2', 'overall_rating': '3', 'image_num': '4'}}"
"{'name': '西安中合叉车设备有限公司', 'location': {'lat': 34.280338, 'lng': 108.928527}, 'address': '陕西省西安市星火立交桥西南角海纳北区临街L26号', 'street_id': 'c648ceeac0e3e4869ee3212c', 'detail': 1, 'uid': 'c648ceeac0e3e4869ee3212c', 'detail_info': {'tag': '公司企业;公司', 'type': 'life', 'detail_url': 'http://api.map.baidu.com/place/detail?uid=c648ceeac0e3e4869ee3212c&output=html&source=placeapi_v2', 'overall_rating': '3', 'image_num': '4'}}"
西安市莲湖区瑞立汽配经销部,108.91546234835955,34.274883697215536,64b6f019b61285116e3e1b22,"{'name': '西安市莲湖区瑞立汽配经销部', 'location': {'lat': 34.279107, 'lng': 108.926609}, 'address': '西站路10号', 'street_id': '64b6f019b61285116e3e1b22', 'detail': 1, 'uid': '64b6f019b61285116e3e1b22', 'detail_info': {'tag': '汽车服务;汽车配件', 'type': 'life', 'detail_url': 'http://api.map.baidu.com/place/detail?uid=64b6f019b61285116e3e1b22&output=html&source=placeapi_v2', 'image_num': '4'}}"
"{'name': '西安市莲湖区瑞立汽配经销部', 'location': {'lat': 34.279107, 'lng': 108.926609}, 'address': '西站路10号', 'street_id': '64b6f019b61285116e3e1b22', 'detail': 1, 'uid': '64b6f019b61285116e3e1b22', 'detail_info': {'tag': '汽车服务;汽车配件', 'type': 'life', 'detail_url': 'http://api.map.baidu.com/place/detail?uid=64b6f019b61285116e3e1b22&output=html&source=placeapi_v2', 'image_num': '4'}}"
诺亚汽车租赁(自强西路分公司),108.93739341231793,34.282052010384824,0dc3d82dd23e4b7575e5b613,"{'name': '诺亚汽车租赁(自强西路分公司)', 'location': {'lat': 34.286659, 'lng': 108.948473}, 'address': '自强西路91号1层1号', 'street_id': '0dc3d82dd23e4b7575e5b613', 'telephone': '86280995', 'detail': 1, 'uid': '0dc3d82dd23e4b7575e5b613', 'detail_info': {'tag': '汽车服务;汽车租赁', 'navi_location': {'lng': 108.94847267685, 'lat': 34.286462581712}, 'type': 'life', 'detail_url': 'http://api.map.baidu.com/place/detail?uid=0dc3d82dd23e4b7575e5b613&output=html&source=placeapi_v2', 'image_num': '3', 'comment_num': '0'}}"
"{'name': '诺亚汽车租赁(自强西路分公司)', 'location': {'lat': 34.286659, 'lng': 108.948473}, 'address': '自强西路91号1层1号', 'street_id': '0dc3d82dd23e4b7575e5b613', 'telephone': '86280995', 'detail': 1, 'uid': '0dc3d82dd23e4b7575e5b613', 'detail_info': {'tag': '汽车服务;汽车租赁', 'navi_location': {'lng': 108.94847267685, 'lat': 34.286462581712}, 'type': 'life', 'detail_url': 'http://api.map.baidu.com/place/detail?uid=0dc3d82dd23e4b7575e5b613&output=html&source=placeapi_v2', 'image_num': '3', 'comment_num': '0'}}"
德国马牌,108.91668454241587,34.27703486099787,c16d188e37e79749d12dd6e4,"{'name': '德国马牌', 'location': {'lat': 34.281278, 'lng': 108.927826}, 'address': '环城西路北段368号海纳汽配城32号', 'street_id': 'c16d188e37e79749d12dd6e4', 'detail': 1, 'uid': 'c16d188e37e79749d12dd6e4', 'detail_info': {'tag': '汽车服务;汽车配件', 'navi_location': {'lng': 108.92792778486, 'lat': 34.2814783333}, 'type': 'life', 'detail_url': 'http://api.map.baidu.com/place/detail?uid=c16d188e37e79749d12dd6e4&output=html&source=placeapi_v2', 'price': '18', 'image_num': '5'}}"
"{'name': '德国马牌', 'location': {'lat': 34.281278, 'lng': 108.927826}, 'address': '环城西路北段368号海纳汽配城32号', 'street_id': 'c16d188e37e79749d12dd6e4', 'detail': 1, 'uid': 'c16d188e37e79749d12dd6e4', 'detail_info': {'tag': '汽车服务;汽车配件', 'navi_location': {'lng': 108.92792778486, 'lat': 34.2814783333}, 'type': 'life', 'detail_url': 'http://api.map.baidu.com/place/detail?uid=c16d188e37e79749d12dd6e4&output=html&source=placeapi_v2', 'price': '18', 'image_num': '5'}}"
邓禄普轮胎(超羽汽车配件经销部),108.92466289887686,34.27737236031447,9ab8dbec0f56e52014b54b0b,"{'name': '邓禄普轮胎(超羽汽车配件经销部)', 'location': {'lat': 34.281755, 'lng': 108.935778}, 'address': '陕西省西安市莲湖区环城北路317号', 'street_id': '9ab8dbec0f56e52014b54b0b', 'detail': 1, 'uid': '9ab8dbec0f56e52014b54b0b', 'detail_info': {'tag': '汽车服务;汽车配件', 'type': 'life', 'detail_url': 'http://api.map.baidu.com/place/detail?uid=9ab8dbec0f56e52014b54b0b&output=html&source=placeapi_v2', 'image_num': '1'}}"
"{'name': '邓禄普轮胎(超羽汽车配件经销部)', 'location': {'lat': 34.281755, 'lng': 108.935778}, 'address': '陕西省西安市莲湖区环城北路317号', 'street_id': '9ab8dbec0f56e52014b54b0b', 'detail': 1, 'uid': '9ab8dbec0f56e52014b54b0b', 'detail_info': {'tag': '汽车服务;汽车配件', 'type': 'life', 'detail_url': 'http://api.map.baidu.com/place/detail?uid=9ab8dbec0f56e52014b54b0b&output=html&source=placeapi_v2', 'image_num': '1'}}"
广本东本专营,108.91720502453451,34.275222684642856,c279025e693f446e82288ac9,"{'name': '广本东本专营', 'location': {'lat': 34.279474, 'lng': 108.928346}, 'address': '莲湖区西站路3号', 'street_id': 'c279025e693f446e82288ac9', 'detail': 1, 'uid': 'c279025e693f446e82288ac9', 'detail_info': {'tag': '汽车服务;汽车配件', 'type': 'life', 'detail_url': 'http://api.map.baidu.com/place/detail?uid=c279025e693f446e82288ac9&output=html&source=placeapi_v2', 'overall_rating': '3', 'image_num': '7', 'comment_num': '1'}}"
"{'name': '广本东本专营', 'location': {'lat': 34.279474, 'lng': 108.928346}, 'address': '莲湖区西站路3号', 'street_id': 'c279025e693f446e82288ac9', 'detail': 1, 'uid': 'c279025e693f446e82288ac9', 'detail_info': {'tag': '汽车服务;汽车配件', 'type': 'life', 'detail_url': 'http://api.map.baidu.com/place/detail?uid=c279025e693f446e82288ac9&output=html&source=placeapi_v2', 'overall_rating': '3', 'image_num': '7', 'comment_num': '1'}}"
长城哈弗,108.91678163898953,34.27669534795807,388d2cfd9224c04a3fe231ff,"{'name': '长城哈弗', 'location': {'lat': 34.28094, 'lng': 108.927923}, 'address': '陕西省西安市莲湖区海纳汽配城北区临街L-36', 'street_id': '388d2cfd9224c04a3fe231ff', 'telephone': '029-88637255;13991814888', 'detail': 0, 'uid': '388d2cfd9224c04a3fe231ff', 'detail_info': {'tag': '汽车服务'}}"
"{'name': '长城哈弗', 'location': {'lat': 34.28094, 'lng': 108.927923}, 'address': '陕西省西安市莲湖区海纳汽配城北区临街L-36', 'street_id': '388d2cfd9224c04a3fe231ff', 'telephone': '029-88637255;13991814888', 'detail': 0, 'uid': '388d2cfd9224c04a3fe231ff', 'detail_info': {'tag': '汽车服务'}}"
大通汽修猎豹维修站,108.92200680960698,34.27854524699152,db605a837e4022bfb020a8dd,"{'name': '大通汽修猎豹维修站', 'location': {'lat': 34.28288, 'lng': 108.93313}, 'address': '环城北路西段付125号附近', 'street_id': 'db605a837e4022bfb020a8dd', 'telephone': '029-81610300;89119269', 'detail': 1, 'uid': 'db605a837e4022bfb020a8dd', 'detail_info': {'tag': '汽车服务;汽车销售', 'type': 'life', 'detail_url': 'http://api.map.baidu.com/place/detail?uid=db605a837e4022bfb020a8dd&output=html&source=placeapi_v2', 'image_num': '1'}}"
"{'name': '大通汽修猎豹维修站', 'location': {'lat': 34.28288, 'lng': 108.93313}, 'address': '环城北路西段付125号附近', 'street_id': 'db605a837e4022bfb020a8dd', 'telephone': '029-81610300;89119269', 'detail': 1, 'uid': 'db605a837e4022bfb020a8dd', 'detail_info': {'tag': '汽车服务;汽车销售', 'type': 'life', 'detail_url': 'http://api.map.baidu.com/place/detail?uid=db605a837e4022bfb020a8dd&output=html&source=placeapi_v2', 'image_num': '1'}}"
东风标致东风雪铁龙比亚迪,108.91715085813107,34.27523157222552,b0584fbfb6225ec78f1a89ee,"{'name': '东风标致东风雪铁龙比亚迪', 'location': {'lat': 34.279482, 'lng': 108.928292}, 'address': '陕西省西安市莲湖区西站路海纳观景园', 'street_id': 'b0584fbfb6225ec78f1a89ee', 'detail': 1, 'uid': 'b0584fbfb6225ec78f1a89ee', 'detail_info': {'tag': '汽车服务', 'type': 'life', 'detail_url': 'http://api.map.baidu.com/place/detail?uid=b0584fbfb6225ec78f1a89ee&output=html&source=placeapi_v2', 'image_num': '1'}}"
"{'name': '东风标致东风雪铁龙比亚迪', 'location': {'lat': 34.279482, 'lng': 108.928292}, 'address': '陕西省西安市莲湖区西站路海纳观景园', 'street_id': 'b0584fbfb6225ec78f1a89ee', 'detail': 1, 'uid': 'b0584fbfb6225ec78f1a89ee', 'detail_info': {'tag': '汽车服务', 'type': 'life', 'detail_url': 'http://api.map.baidu.com/place/detail?uid=b0584fbfb6225ec78f1a89ee&output=html&source=placeapi_v2', 'image_num': '1'}}"
潍柴动力扬州柴油机有限责任公司扬柴陕西整机配件直销中心,108.91561948329377,34.27438531090553,403af4cb7e373522e7073826,"{'name': '潍柴动力扬州柴油机有限责任公司扬柴陕西整机配件直销中心', 'location': {'lat': 34.278611, 'lng': 108.926766}, 'address': '建中巷22号附近', 'street_id': '403af4cb7e373522e7073826', 'detail': 1, 'uid': '403af4cb7e373522e7073826', 'detail_info': {'tag': '汽车服务;汽车配件', 'type': 'life', 'detail_url': 'http://api.map.baidu.com/place/detail?uid=403af4cb7e373522e7073826&output=html&source=placeapi_v2', 'image_num': '1'}}"
"{'name': '潍柴动力扬州柴油机有限责任公司扬柴陕西整机配件直销中心', 'location': {'lat': 34.278611, 'lng': 108.926766}, 'address': '建中巷22号附近', 'street_id': '403af4cb7e373522e7073826', 'detail': 1, 'uid': '403af4cb7e373522e7073826', 'detail_info': {'tag': '汽车服务;汽车配件', 'type': 'life', 'detail_url': 'http://api.map.baidu.com/place/detail?uid=403af4cb7e373522e7073826&output=html&source=placeapi_v2', 'image_num': '1'}}"
北京现代,108.91753856420529,34.27593806451078,79e35b7ab17a2fac770269b3,"{'name': '北京现代', 'location': {'lat': 34.280195, 'lng': 108.928678}, 'address': '环城西路北段376-付31号附近', 'street_id': '79e35b7ab17a2fac770269b3', 'detail': 0, 'uid': '79e35b7ab17a2fac770269b3'}"
"{'name': '北京现代', 'location': {'lat': 34.280195, 'lng': 108.928678}, 'address': '环城西路北段376-付31号附近', 'street_id': '79e35b7ab17a2fac770269b3', 'detail': 0, 'uid': '79e35b7ab17a2fac770269b3'}"
风帆蓄电池陕西总代理,108.91726042072348,34.2740979492253,d811e233a2bc5a4d82a12e0d,"{'name': '风帆蓄电池陕西总代理', 'location': {'lat': 34.27835, 'lng': 108.928402}, 'address': '陕西省西安市莲湖区海纳二期中区1层南街', 'street_id': 'd811e233a2bc5a4d82a12e0d', 'detail': 0, 'uid': 'd811e233a2bc5a4d82a12e0d', 'detail_info': {'tag': '购物;商铺'}}"
"{'name': '风帆蓄电池陕西总代理', 'location': {'lat': 34.27835, 'lng': 108.928402}, 'address': '陕西省西安市莲湖区海纳二期中区1层南街', 'street_id': 'd811e233a2bc5a4d82a12e0d', 'detail': 0, 'uid': 'd811e233a2bc5a4d82a12e0d', 'detail_info': {'tag': '购物;商铺'}}"
奔驰宝马路虎捷豹沃尔沃,108.91754259395266,34.27448223403931,fc6a2700ddd8bedaca291584,"{'name': '奔驰宝马路虎捷豹沃尔沃', 'location': {'lat': 34.278739, 'lng': 108.928683}, 'address': '环城西路北段与西站路交叉口南100米', 'street_id': 'fc6a2700ddd8bedaca291584', 'detail': 0, 'uid': 'fc6a2700ddd8bedaca291584', 'detail_info': {'tag': '汽车服务'}}"
"{'name': '奔驰宝马路虎捷豹沃尔沃', 'location': {'lat': 34.278739, 'lng': 108.928683}, 'address': '环城西路北段与西站路交叉口南100米', 'street_id': 'fc6a2700ddd8bedaca291584', 'detail': 0, 'uid': 'fc6a2700ddd8bedaca291584', 'detail_info': {'tag': '汽车服务'}}"
海纳西安汽配市场南区,108.91751930612305,34.27280986036808,e85e252773865a5395f08c08,"{'name': '海纳西安汽配市场南区', 'location': {'lat': 34.277066, 'lng': 108.928661}, 'address': '西站街56号', 'street_id': 'e85e252773865a5395f08c08', 'telephone': '(029)88611866', 'detail': 1, 'uid': 'e85e252773865a5395f08c08', 'detail_info': {'tag': '汽车服务;汽车配件', 'type': 'life', 'detail_url': 'http://api.map.baidu.com/place/detail?uid=e85e252773865a5395f08c08&output=html&source=placeapi_v2', 'image_num': '3', 'comment_num': '0'}}"
"{'name': '海纳西安汽配市场南区', 'location': {'lat': 34.277066, 'lng': 108.928661}, 'address': '西站街56号', 'street_id': 'e85e252773865a5395f08c08', 'telephone': '(029)88611866', 'detail': 1, 'uid': 'e85e252773865a5395f08c08', 'detail_info': {'tag': '汽车服务;汽车配件', 'type': 'life', 'detail_url': 'http://api.map.baidu.com/place/detail?uid=e85e252773865a5395f08c08&output=html&source=placeapi_v2', 'image_num': '3', 'comment_num': '0'}}"
新洋气动液压,108.91582203999145,34.2716104983912,1558023e17a7c248fbdc85e5,"{'name': '新洋气动液压', 'location': {'lat': 34.275839, 'lng': 108.92697}, 'address': '天朗蔚蓝机电广场1B051', 'street_id': '1558023e17a7c248fbdc85e5', 'telephone': '13619220019', 'detail': 1, 'uid': '1558023e17a7c248fbdc85e5', 'detail_info': {'tag': '公司企业;公司', 'navi_location': {'lng': 108.92714180437, 'lat': 34.275836817426}, 'type': 'life', 'detail_url': 'http://api.map.baidu.com/place/detail?uid=1558023e17a7c248fbdc85e5&output=html&source=placeapi_v2', 'image_num': '8'}}"
"{'name': '新洋气动液压', 'location': {'lat': 34.275839, 'lng': 108.92697}, 'address': '天朗蔚蓝机电广场1B051', 'street_id': '1558023e17a7c248fbdc85e5', 'telephone': '13619220019', 'detail': 1, 'uid': '1558023e17a7c248fbdc85e5', 'detail_info': {'tag': '公司企业;公司', 'navi_location': {'lng': 108.92714180437, 'lat': 34.275836817426}, 'type': 'life', 'detail_url': 'http://api.map.baidu.com/place/detail?uid=1558023e17a7c248fbdc85e5&output=html&source=placeapi_v2', 'image_num': '8'}}"
顺达汽车保养维修,108.92359698968453,34.27839158446549,827b4bab660c000995ca070c,"{'name': '顺达汽车保养维修', 'location': {'lat': 34.282755, 'lng': 108.934715}, 'address': '环城北路西段312号', 'street_id': '827b4bab660c000995ca070c', 'detail': 1, 'uid': '827b4bab660c000995ca070c', 'detail_info': {'tag': '汽车服务;汽车维修', 'type': 'life', 'detail_url': 'http://api.map.baidu.com/place/detail?uid=827b4bab660c000995ca070c&output=html&source=placeapi_v2', 'image_num': '1'}}"
"{'name': '顺达汽车保养维修', 'location': {'lat': 34.282755, 'lng': 108.934715}, 'address': '环城北路西段312号', 'street_id': '827b4bab660c000995ca070c', 'detail': 1, 'uid': '827b4bab660c000995ca070c', 'detail_info': {'tag': '汽车服务;汽车维修', 'type': 'life', 'detail_url': 'http://api.map.baidu.com/place/detail?uid=827b4bab660c000995ca070c&output=html&source=placeapi_v2', 'image_num': '1'}}"
诺恒别克诺恒雪佛兰,108.91726499454852,34.276412496843456,d4873f372a4ec1843ce23124,"{'name': '诺恒别克诺恒雪佛兰', 'location': {'lat': 34.280665, 'lng': 108.928405}, 'address': '星火立交与环城西路北段交叉口西南50米', 'street_id': 'd4873f372a4ec1843ce23124', 'detail': 0, 'uid': 'd4873f372a4ec1843ce23124'}"
"{'name': '诺恒别克诺恒雪佛兰', 'location': {'lat': 34.280665, 'lng': 108.928405}, 'address': '星火立交与环城西路北段交叉口西南50米', 'street_id': 'd4873f372a4ec1843ce23124', 'detail': 0, 'uid': 'd4873f372a4ec1843ce23124'}"
陕西鑫港汽车贸易有限公司,108.93196829435497,34.27112472812731,6fddd7fda3b93f7c3517dc74,"{'name': '陕西鑫港汽车贸易有限公司', 'location': {'lat': 34.275639, 'lng': 108.943066}, 'address': '莲湖路118号', 'street_id': '6fddd7fda3b93f7c3517dc74', 'telephone': '(029)87311389', 'detail': 1, 'uid': '6fddd7fda3b93f7c3517dc74', 'detail_info': {'tag': '汽车服务;汽车销售', 'navi_location': {'lng': 108.94298608461, 'lat': 34.275769792631}, 'type': 'life', 'detail_url': 'http://api.map.baidu.com/place/detail?uid=6fddd7fda3b93f7c3517dc74&output=html&source=placeapi_v2', 'overall_rating': '3.0', 'image_num': '8', 'comment_num': '0'}}"
"{'name': '陕西鑫港汽车贸易有限公司', 'location': {'lat': 34.275639, 'lng': 108.943066}, 'address': '莲湖路118号', 'street_id': '6fddd7fda3b93f7c3517dc74', 'telephone': '(029)87311389', 'detail': 1, 'uid': '6fddd7fda3b93f7c3517dc74', 'detail_info': {'tag': '汽车服务;汽车销售', 'navi_location': {'lng': 108.94298608461, 'lat': 34.275769792631}, 'type': 'life', 'detail_url': 'http://api.map.baidu.com/place/detail?uid=6fddd7fda3b93f7c3517dc74&output=html&source=placeapi_v2', 'overall_rating': '3.0', 'image_num': '8', 'comment_num': '0'}}"
新朋景汽配经销部,108.91747528331553,34.27581813206181,429c14dbb4a18eee3f9a5e9a,"{'name': '新朋景汽配经销部', 'location': {'lat': 34.280074, 'lng': 108.928615}, 'address': '环城西路海纳汽配城中区负2层', 'street_id': '429c14dbb4a18eee3f9a5e9a', 'detail': 1, 'uid': '429c14dbb4a18eee3f9a5e9a', 'detail_info': {'tag': '汽车服务;汽车配件', 'type': 'life', 'detail_url': 'http://api.map.baidu.com/place/detail?uid=429c14dbb4a18eee3f9a5e9a&output=html&source=placeapi_v2', 'image_num': '14', 'comment_num': '5'}}"
"{'name': '新朋景汽配经销部', 'location': {'lat': 34.280074, 'lng': 108.928615}, 'address': '环城西路海纳汽配城中区负2层', 'street_id': '429c14dbb4a18eee3f9a5e9a', 'detail': 1, 'uid': '429c14dbb4a18eee3f9a5e9a', 'detail_info': {'tag': '汽车服务;汽车配件', 'type': 'life', 'detail_url': 'http://api.map.baidu.com/place/detail?uid=429c14dbb4a18eee3f9a5e9a&output=html&source=placeapi_v2', 'image_num': '14', 'comment_num': '5'}}"
修方向机,108.91594089827237,34.27358035368014,9679721b5de20875ad31e5df,"{'name': '修方向机', 'location': {'lat': 34.277811, 'lng': 108.927087}, 'address': '建中巷14号附近', 'street_id': '9679721b5de20875ad31e5df', 'telephone': '13619205379', 'detail': 0, 'uid': '9679721b5de20875ad31e5df', 'detail_info': {'navi_location': {'lng': 108.92708667536, 'lat': 34.277811307632}}}"
"{'name': '修方向机', 'location': {'lat': 34.277811, 'lng': 108.927087}, 'address': '建中巷14号附近', 'street_id': '9679721b5de20875ad31e5df', 'telephone': '13619205379', 'detail': 0, 'uid': '9679721b5de20875ad31e5df', 'detail_info': {'navi_location': {'lng': 108.92708667536, 'lat': 34.277811307632}}}"
海马配件马自达配件,108.91726499454852,34.276412496843456,7ebf3100c60a48ff5d0d02d6,"{'name': '海马配件马自达配件', 'location': {'lat': 34.280665, 'lng': 108.928405}, 'address': '星火立交与环城西路北段交叉口西南50米', 'street_id': '7ebf3100c60a48ff5d0d02d6', 'detail': 0, 'uid': '7ebf3100c60a48ff5d0d02d6'}"
"{'name': '海马配件马自达配件', 'location': {'lat': 34.280665, 'lng': 108.928405}, 'address': '星火立交与环城西路北段交叉口西南50米', 'street_id': '7ebf3100c60a48ff5d0d02d6', 'detail': 0, 'uid': '7ebf3100c60a48ff5d0d02d6'}"
车友汽车服务连锁,108.92816767272993,34.27689924927121,f25dd7ebfff35bddc7f50dbb,"{'name': '车友汽车服务连锁', 'location': {'lat': 34.281346, 'lng': 108.939272}, 'address': '西安市莲湖区', 'street_id': 'f25dd7ebfff35bddc7f50dbb', 'detail': 0, 'uid': 'f25dd7ebfff35bddc7f50dbb', 'detail_info': {'tag': '汽车服务'}}"
"{'name': '车友汽车服务连锁', 'location': {'lat': 34.281346, 'lng': 108.939272}, 'address': '西安市莲湖区', 'street_id': 'f25dd7ebfff35bddc7f50dbb', 'detail': 0, 'uid': 'f25dd7ebfff35bddc7f50dbb', 'detail_info': {'tag': '汽车服务'}}"
挖掘机装载机,108.91753042650879,34.27576722833944,8a3f6b0c7026474d2d473382,"{'name': '挖掘机装载机', 'location': {'lat': 34.280024, 'lng': 108.92867}, 'address': '环城西路北段376-付31号附近', 'street_id': '8a3f6b0c7026474d2d473382', 'detail': 1, 'uid': '8a3f6b0c7026474d2d473382', 'detail_info': {'tag': '汽车服务;汽车配件', 'navi_location': {'lng': 108.92852674892, 'lat': 34.280337980724}, 'type': 'life', 'detail_url': 'http://api.map.baidu.com/place/detail?uid=8a3f6b0c7026474d2d473382&output=html&source=placeapi_v2', 'image_num': '1'}}"
"{'name': '挖掘机装载机', 'location': {'lat': 34.280024, 'lng': 108.92867}, 'address': '环城西路北段376-付31号附近', 'street_id': '8a3f6b0c7026474d2d473382', 'detail': 1, 'uid': '8a3f6b0c7026474d2d473382', 'detail_info': {'tag': '汽车服务;汽车配件', 'navi_location': {'lng': 108.92852674892, 'lat': 34.280337980724}, 'type': 'life', 'detail_url': 'http://api.map.baidu.com/place/detail?uid=8a3f6b0c7026474d2d473382&output=html&source=placeapi_v2', 'image_num': '1'}}"
五一油漆,108.9174883714488,34.275888903576906,df377fda54dda96d871541e1,"{'name': '五一油漆', 'location': {'lat': 34.280145, 'lng': 108.928628}, 'address': '陕西省西安市莲湖区环城西路北段376号海纳汽配城北区1楼C-04号', 'street_id': 'df377fda54dda96d871541e1', 'detail': 1, 'uid': 'df377fda54dda96d871541e1', 'detail_info': {'tag': '汽车服务', 'type': 'life', 'detail_url': 'http://api.map.baidu.com/place/detail?uid=df377fda54dda96d871541e1&output=html&source=placeapi_v2', 'overall_rating': '0', 'image_num': '1'}}"
"{'name': '五一油漆', 'location': {'lat': 34.280145, 'lng': 108.928628}, 'address': '陕西省西安市莲湖区环城西路北段376号海纳汽配城北区1楼C-04号', 'street_id': 'df377fda54dda96d871541e1', 'detail': 1, 'uid': 'df377fda54dda96d871541e1', 'detail_info': {'tag': '汽车服务', 'type': 'life', 'detail_url': 'http://api.map.baidu.com/place/detail?uid=df377fda54dda96d871541e1&output=html&source=placeapi_v2', 'overall_rating': '0', 'image_num': '1'}}"
华汽零部件,108.91746416997029,34.2742365689445,9da1b6216bbc03d714c8f68b,"{'name': '华汽零部件', 'location': {'lat': 34.278492, 'lng': 108.928605}, 'address': '玉祥门海纳汽配城', 'street_id': '9da1b6216bbc03d714c8f68b', 'detail': 0, 'uid': '9da1b6216bbc03d714c8f68b', 'detail_info': {'tag': '公司企业;公司'}}"
"{'name': '华汽零部件', 'location': {'lat': 34.278492, 'lng': 108.928605}, 'address': '玉祥门海纳汽配城', 'street_id': '9da1b6216bbc03d714c8f68b', 'detail': 0, 'uid': '9da1b6216bbc03d714c8f68b', 'detail_info': {'tag': '公司企业;公司'}}"
酷卡车匙馆,108.91710551252457,34.27493536314282,22f20706ed591595eb12e447,"{'name': '酷卡车匙馆', 'location': {'lat': 34.279185, 'lng': 108.928247}, 'address': '西安市莲湖区环城西路北段368号', 'street_id': '22f20706ed591595eb12e447', 'detail': 0, 'uid': '22f20706ed591595eb12e447'}"
"{'name': '酷卡车匙馆', 'location': {'lat': 34.279185, 'lng': 108.928247}, 'address': '西安市莲湖区环城西路北段368号', 'street_id': '22f20706ed591595eb12e447', 'detail': 0, 'uid': '22f20706ed591595eb12e447'}"
轮毂体验馆,108.91668454241587,34.27703486099787,e20f814432fad7c59c9d68b0,"{'name': '轮毂体验馆', 'location': {'lat': 34.281278, 'lng': 108.927826}, 'address': '建中巷与星火立交交叉口西南50米', 'street_id': 'e20f814432fad7c59c9d68b0', 'detail': 0, 'uid': 'e20f814432fad7c59c9d68b0', 'detail_info': {'tag': '购物;家电数码'}}"
"{'name': '轮毂体验馆', 'location': {'lat': 34.281278, 'lng': 108.927826}, 'address': '建中巷与星火立交交叉口西南50米', 'street_id': 'e20f814432fad7c59c9d68b0', 'detail': 0, 'uid': 'e20f814432fad7c59c9d68b0', 'detail_info': {'tag': '购物;家电数码'}}"
行者驿站・汽车服务(顺城北巷店),108.93697132102862,34.27719675238643,2768362c071643738b2fb59b,"{'name': '行者驿站・汽车服务(顺城北巷店)', 'location': {'lat': 34.281796, 'lng': 108.948054}, 'address': '顺城北路西段16号附近', 'street_id': '2768362c071643738b2fb59b', 'detail': 1, 'uid': '2768362c071643738b2fb59b', 'detail_info': {'tag': '汽车服务;汽车销售', 'type': 'life', 'detail_url': 'http://api.map.baidu.com/place/detail?uid=2768362c071643738b2fb59b&output=html&source=placeapi_v2', 'image_num': '4'}}"
"{'name': '行者驿站・汽车服务(顺城北巷店)', 'location': {'lat': 34.281796, 'lng': 108.948054}, 'address': '顺城北路西段16号附近', 'street_id': '2768362c071643738b2fb59b', 'detail': 1, 'uid': '2768362c071643738b2fb59b', 'detail_info': {'tag': '汽车服务;汽车销售', 'type': 'life', 'detail_url': 'http://api.map.baidu.com/place/detail?uid=2768362c071643738b2fb59b&output=html&source=placeapi_v2', 'image_num': '4'}}"
宏峰专业钣金喷漆,108.92352075521877,34.27842196269816,78a9fd92f427cebdc42ba1a2,"{'name': '宏峰专业钣金喷漆', 'location': {'lat': 34.282784, 'lng': 108.934639}, 'address': '陕西省西安市莲湖区环城北路西段312号附近', 'street_id': '78a9fd92f427cebdc42ba1a2', 'detail': 1, 'uid': '78a9fd92f427cebdc42ba1a2', 'detail_info': {'tag': '汽车服务', 'type': 'life', 'detail_url': 'http://api.map.baidu.com/place/detail?uid=78a9fd92f427cebdc42ba1a2&output=html&source=placeapi_v2', 'image_num': '1'}}"
"{'name': '宏峰专业钣金喷漆', 'location': {'lat': 34.282784, 'lng': 108.934639}, 'address': '陕西省西安市莲湖区环城北路西段312号附近', 'street_id': '78a9fd92f427cebdc42ba1a2', 'detail': 1, 'uid': '78a9fd92f427cebdc42ba1a2', 'detail_info': {'tag': '汽车服务', 'type': 'life', 'detail_url': 'http://api.map.baidu.com/place/detail?uid=78a9fd92f427cebdc42ba1a2&output=html&source=placeapi_v2', 'image_num': '1'}}"
杰乐汽保,108.91738717409173,34.27608354178026,6b77ce0df35f7c85f4eafc1f,"{'name': '杰乐汽保', 'location': {'lat': 34.280338, 'lng': 108.928527}, 'address': '西安市莲湖区海纳汽配城北区l21号', 'street_id': '6b77ce0df35f7c85f4eafc1f', 'detail': 1, 'uid': '6b77ce0df35f7c85f4eafc1f', 'detail_info': {'tag': '汽车服务', 'type': 'life', 'detail_url': 'http://api.map.baidu.com/place/detail?uid=6b77ce0df35f7c85f4eafc1f&output=html&source=placeapi_v2', 'image_num': '4'}}"
"{'name': '杰乐汽保', 'location': {'lat': 34.280338, 'lng': 108.928527}, 'address': '西安市莲湖区海纳汽配城北区l21号', 'street_id': '6b77ce0df35f7c85f4eafc1f', 'detail': 1, 'uid': '6b77ce0df35f7c85f4eafc1f', 'detail_info': {'tag': '汽车服务', 'type': 'life', 'detail_url': 'http://api.map.baidu.com/place/detail?uid=6b77ce0df35f7c85f4eafc1f&output=html&source=placeapi_v2', 'image_num': '4'}}"
老妈乐会员服务中心,108.9295006765679,34.277001974868696,2fee8dfd29b96a1649fc8d46,"{'name': '老妈乐会员服务中心', 'location': {'lat': 34.281473, 'lng': 108.940601}, 'address': '西北三路顺城北巷46号', 'street_id': '2fee8dfd29b96a1649fc8d46', 'detail': 0, 'uid': '2fee8dfd29b96a1649fc8d46', 'detail_info': {'tag': '汽车服务;汽车美容'}}"
"{'name': '老妈乐会员服务中心', 'location': {'lat': 34.281473, 'lng': 108.940601}, 'address': '西北三路顺城北巷46号', 'street_id': '2fee8dfd29b96a1649fc8d46', 'detail': 0, 'uid': '2fee8dfd29b96a1649fc8d46', 'detail_info': {'tag': '汽车服务;汽车美容'}}"
兄弟专业贴膜,108.91738717409173,34.27608354178026,79346b1a787ee0314d554724,"{'name': '兄弟专业贴膜', 'location': {'lat': 34.280338, 'lng': 108.928527}, 'address': '陕西省西安市莲湖区海纳汽配城北区临街L-22', 'street_id': '79346b1a787ee0314d554724', 'detail': 0, 'uid': '79346b1a787ee0314d554724'}"
"{'name': '兄弟专业贴膜', 'location': {'lat': 34.280338, 'lng': 108.928527}, 'address': '陕西省西安市莲湖区海纳汽配城北区临街L-22', 'street_id': '79346b1a787ee0314d554724', 'detail': 0, 'uid': '79346b1a787ee0314d554724'}"
汽车陪练,108.9359952246305,34.27505977697903,1602effc83250fa86fa3cc15,"{'name': '汽车陪练', 'location': {'lat': 34.279643, 'lng': 108.947081}, 'address': '西安市莲湖区', 'street_id': '1602effc83250fa86fa3cc15', 'detail': 0, 'uid': '1602effc83250fa86fa3cc15'}"
"{'name': '汽车陪练', 'location': {'lat': 34.279643, 'lng': 108.947081}, 'address': '西安市莲湖区', 'street_id': '1602effc83250fa86fa3cc15', 'detail': 0, 'uid': '1602effc83250fa86fa3cc15'}"
汽保工具,108.91635210992897,34.27489659081375,0745106f5f2ec340306212a5,"{'name': '汽保工具', 'location': {'lat': 34.279134, 'lng': 108.927496}, 'address': '海纳汽配城中区临街27号', 'street_id': '0745106f5f2ec340306212a5', 'telephone': '(029)88623732', 'detail': 1, 'uid': '0745106f5f2ec340306212a5', 'detail_info': {'tag': '汽车服务;汽车配件', 'type': 'life', 'detail_url': 'http://api.map.baidu.com/place/detail?uid=0745106f5f2ec340306212a5&output=html&source=placeapi_v2', 'image_num': '6'}}"
"{'name': '汽保工具', 'location': {'lat': 34.279134, 'lng': 108.927496}, 'address': '海纳汽配城中区临街27号', 'street_id': '0745106f5f2ec340306212a5', 'telephone': '(029)88623732', 'detail': 1, 'uid': '0745106f5f2ec340306212a5', 'detail_info': {'tag': '汽车服务;汽车配件', 'type': 'life', 'detail_url': 'http://api.map.baidu.com/place/detail?uid=0745106f5f2ec340306212a5&output=html&source=placeapi_v2', 'image_num': '6'}}"
丰田汽车零件经销部,108.91634088206692,34.27610856992529,e181ff4dcd008fee6e20b9f5,"{'name': '丰田汽车零件经销部', 'location': {'lat': 34.280346, 'lng': 108.927484}, 'address': '建华路14号海纳汽配城2层c2-5', 'street_id': 'e181ff4dcd008fee6e20b9f5', 'detail': 1, 'uid': 'e181ff4dcd008fee6e20b9f5', 'detail_info': {'tag': '汽车服务;汽车配件', 'type': 'life', 'detail_url': 'http://api.map.baidu.com/place/detail?uid=e181ff4dcd008fee6e20b9f5&output=html&source=placeapi_v2', 'image_num': '1'}}"
"{'name': '丰田汽车零件经销部', 'location': {'lat': 34.280346, 'lng': 108.927484}, 'address': '建华路14号海纳汽配城2层c2-5', 'street_id': 'e181ff4dcd008fee6e20b9f5', 'detail': 1, 'uid': 'e181ff4dcd008fee6e20b9f5', 'detail_info': {'tag': '汽车服务;汽车配件', 'type': 'life', 'detail_url': 'http://api.map.baidu.com/place/detail?uid=e181ff4dcd008fee6e20b9f5&output=html&source=placeapi_v2', 'image_num': '1'}}"
西安众和汽配陕汽重汽,108.91723889516489,34.27638693053826,1f5458e27c73acc97dc87680,"{'name': '西安众和汽配陕汽重汽', 'location': {'lat': 34.280639, 'lng': 108.928379}, 'address': '海纳汽配城临街L-24号', 'street_id': '1f5458e27c73acc97dc87680', 'telephone': '(029)88631658', 'detail': 1, 'uid': '1f5458e27c73acc97dc87680', 'detail_info': {'tag': '汽车服务;汽车配件', 'type': 'life', 'detail_url': 'http://api.map.baidu.com/place/detail?uid=1f5458e27c73acc97dc87680&output=html&source=placeapi_v2', 'image_num': '2'}}"
"{'name': '西安众和汽配陕汽重汽', 'location': {'lat': 34.280639, 'lng': 108.928379}, 'address': '海纳汽配城临街L-24号', 'street_id': '1f5458e27c73acc97dc87680', 'telephone': '(029)88631658', 'detail': 1, 'uid': '1f5458e27c73acc97dc87680', 'detail_info': {'tag': '汽车服务;汽车配件', 'type': 'life', 'detail_url': 'http://api.map.baidu.com/place/detail?uid=1f5458e27c73acc97dc87680&output=html&source=placeapi_v2', 'image_num': '2'}}"
自动变速箱,108.91675029459014,34.27480017736354,7dd91239c906924707fef545,"{'name': '自动变速箱', 'location': {'lat': 34.279044, 'lng': 108.927893}, 'address': '海纳北区L-1号', 'street_id': '7dd91239c906924707fef545', 'detail': 0, 'uid': '7dd91239c906924707fef545'}"
"{'name': '自动变速箱', 'location': {'lat': 34.279044, 'lng': 108.927893}, 'address': '海纳北区L-1号', 'street_id': '7dd91239c906924707fef545', 'detail': 0, 'uid': '7dd91239c906924707fef545'}"
西安市莲湖区车舟汽配商行,108.9152815674167,34.274552568761926,3b8010a080d432278f55ec75,"{'name': '西安市莲湖区车舟汽配商行', 'location': {'lat': 34.278773, 'lng': 108.926429}, 'address': '公交汽配城2-5号', 'detail': 1, 'uid': '3b8010a080d432278f55ec75', 'detail_info': {'tag': '汽车服务;汽车配件', 'type': 'life', 'detail_url': 'http://api.map.baidu.com/place/detail?uid=3b8010a080d432278f55ec75&output=html&source=placeapi_v2', 'image_num': '1'}}"
"{'name': '西安市莲湖区车舟汽配商行', 'location': {'lat': 34.278773, 'lng': 108.926429}, 'address': '公交汽配城2-5号', 'detail': 1, 'uid': '3b8010a080d432278f55ec75', 'detail_info': {'tag': '汽车服务;汽车配件', 'type': 'life', 'detail_url': 'http://api.map.baidu.com/place/detail?uid=3b8010a080d432278f55ec75&output=html&source=placeapi_v2', 'image_num': '1'}}"
老叔车友汇,108.93437827729416,34.27717818636968,4df3415dc2a9e2899de321d5,"{'name': '老叔车友汇', 'location': {'lat': 34.281735, 'lng': 108.945466}, 'address': '陕西省西安市莲湖区顺城北路西段28', 'street_id': '4df3415dc2a9e2899de321d5', 'detail': 0, 'uid': '4df3415dc2a9e2899de321d5'}"
"{'name': '老叔车友汇', 'location': {'lat': 34.281735, 'lng': 108.945466}, 'address': '陕西省西安市莲湖区顺城北路西段28', 'street_id': '4df3415dc2a9e2899de321d5', 'detail': 0, 'uid': '4df3415dc2a9e2899de321d5'}"
老任液压配件泵阀大全装载机挖掘机吊车叉车,108.91664390195649,34.27785336252315,9b026b065246d77b2cb96d93,"{'name': '老任液压配件泵阀大全装载机挖掘机吊车叉车', 'location': {'lat': 34.282096, 'lng': 108.927785}, 'address': '西安市莲湖区', 'street_id': '9b026b065246d77b2cb96d93', 'detail': 0, 'uid': '9b026b065246d77b2cb96d93'}"
"{'name': '老任液压配件泵阀大全装载机挖掘机吊车叉车', 'location': {'lat': 34.282096, 'lng': 108.927785}, 'address': '西安市莲湖区', 'street_id': '9b026b065246d77b2cb96d93', 'detail': 0, 'uid': '9b026b065246d77b2cb96d93'}"
西安东日升工程机械配件,108.92578670043017,34.28166282741146,f58801fbe8d2df29f03cbafa,"{'name': '西安东日升工程机械配件', 'location': {'lat': 34.286067, 'lng': 108.936896}, 'address': '自强西路190号', 'street_id': 'f58801fbe8d2df29f03cbafa', 'detail': 0, 'uid': 'f58801fbe8d2df29f03cbafa', 'detail_info': {'tag': '公司企业;公司'}}"
"{'name': '西安东日升工程机械配件', 'location': {'lat': 34.286067, 'lng': 108.936896}, 'address': '自强西路190号', 'street_id': 'f58801fbe8d2df29f03cbafa', 'detail': 0, 'uid': 'f58801fbe8d2df29f03cbafa', 'detail_info': {'tag': '公司企业;公司'}}"
厦门金龙,108.9226447813761,34.27100598270559,4bff3f0fb198bc6530169bc5,"{'name': '厦门金龙', 'location': {'lat': 34.275351, 'lng': 108.933771}, 'address': '青年路街道莲湖路204号', 'street_id': '4bff3f0fb198bc6530169bc5', 'telephone': '(029)87316955', 'detail': 1, 'uid': '4bff3f0fb198bc6530169bc5', 'detail_info': {'tag': '汽车服务', 'type': 'life', 'detail_url': 'http://api.map.baidu.com/place/detail?uid=4bff3f0fb198bc6530169bc5&output=html&source=placeapi_v2', 'overall_rating': '3', 'image_num': '4'}}"
"{'name': '厦门金龙', 'location': {'lat': 34.275351, 'lng': 108.933771}, 'address': '青年路街道莲湖路204号', 'street_id': '4bff3f0fb198bc6530169bc5', 'telephone': '(029)87316955', 'detail': 1, 'uid': '4bff3f0fb198bc6530169bc5', 'detail_info': {'tag': '汽车服务', 'type': 'life', 'detail_url': 'http://api.map.baidu.com/place/detail?uid=4bff3f0fb198bc6530169bc5&output=html&source=placeapi_v2', 'overall_rating': '3', 'image_num': '4'}}"
西安凯威汽配,108.91647274826416,34.27527958891132,716dfe326004f2ae3310af21,"{'name': '西安凯威汽配', 'location': {'lat': 34.279519, 'lng': 108.927616}, 'address': '玉祥门海纳汽配城北区地下室F-156', 'street_id': '716dfe326004f2ae3310af21', 'detail': 1, 'uid': '716dfe326004f2ae3310af21', 'detail_info': {'tag': '汽车服务;汽车配件', 'type': 'life', 'detail_url': 'http://api.map.baidu.com/place/detail?uid=716dfe326004f2ae3310af21&output=html&source=placeapi_v2', 'image_num': '1'}}"
"{'name': '西安凯威汽配', 'location': {'lat': 34.279519, 'lng': 108.927616}, 'address': '玉祥门海纳汽配城北区地下室F-156', 'street_id': '716dfe326004f2ae3310af21', 'detail': 1, 'uid': '716dfe326004f2ae3310af21', 'detail_info': {'tag': '汽车服务;汽车配件', 'type': 'life', 'detail_url': 'http://api.map.baidu.com/place/detail?uid=716dfe326004f2ae3310af21&output=html&source=placeapi_v2', 'image_num': '1'}}"
陕西重汽二汽底盘件,108.91561948329377,34.27438531090553,cd5cf9f7471ad01303294fb9,"{'name': '陕西重汽二汽底盘件', 'location': {'lat': 34.278611, 'lng': 108.926766}, 'address': '建中巷22号附近', 'street_id': 'cd5cf9f7471ad01303294fb9', 'detail': 0, 'uid': 'cd5cf9f7471ad01303294fb9', 'detail_info': {'tag': '公司企业;厂矿'}}"
"{'name': '陕西重汽二汽底盘件', 'location': {'lat': 34.278611, 'lng': 108.926766}, 'address': '建中巷22号附近', 'street_id': 'cd5cf9f7471ad01303294fb9', 'detail': 0, 'uid': 'cd5cf9f7471ad01303294fb9', 'detail_info': {'tag': '公司企业;厂矿'}}"
宝鸿汽配广本东本,108.91753042650879,34.27576722833944,5359547ba816e916b44f5464,"{'name': '宝鸿汽配广本东本', 'location': {'lat': 34.280024, 'lng': 108.92867}, 'address': '西安市莲湖区', 'street_id': '5359547ba816e916b44f5464', 'detail': 0, 'uid': '5359547ba816e916b44f5464', 'detail_info': {'tag': '汽车服务'}}"
"{'name': '宝鸿汽配广本东本', 'location': {'lat': 34.280024, 'lng': 108.92867}, 'address': '西安市莲湖区', 'street_id': '5359547ba816e916b44f5464', 'detail': 0, 'uid': '5359547ba816e916b44f5464', 'detail_info': {'tag': '汽车服务'}}"
宁宁汽车美容服务中心NO.945,108.93015256638624,34.27705519019808,1bf85b2530ceb9d9a1a93417,"{'name': '宁宁汽车美容服务中心NO.945', 'location': {'lat': 34.281538, 'lng': 108.941251}, 'address': '顺城北路小北门里向东150米', 'street_id': '1bf85b2530ceb9d9a1a93417', 'telephone': '(029)87311621', 'detail': 1, 'uid': '1bf85b2530ceb9d9a1a93417', 'detail_info': {'tag': '汽车服务;汽车美容', 'type': 'life', 'detail_url': 'http://api.map.baidu.com/place/detail?uid=1bf85b2530ceb9d9a1a93417&output=html&source=placeapi_v2', 'image_num': '4'}}"
"{'name': '宁宁汽车美容服务中心NO.945', 'location': {'lat': 34.281538, 'lng': 108.941251}, 'address': '顺城北路小北门里向东150米', 'street_id': '1bf85b2530ceb9d9a1a93417', 'telephone': '(029)87311621', 'detail': 1, 'uid': '1bf85b2530ceb9d9a1a93417', 'detail_info': {'tag': '汽车服务;汽车美容', 'type': 'life', 'detail_url': 'http://api.map.baidu.com/place/detail?uid=1bf85b2530ceb9d9a1a93417&output=html&source=placeapi_v2', 'image_num': '4'}}"
吉吉租车,108.91744136898728,34.267085773048,90ba4316fa2b0295028972fe,"{'name': '吉吉租车', 'location': {'lat': 34.27134, 'lng': 108.928588}, 'address': '西安市莲湖区环城西路1', 'street_id': '90ba4316fa2b0295028972fe', 'detail': 1, 'uid': '90ba4316fa2b0295028972fe', 'detail_info': {'tag': '汽车服务;汽车租赁', 'type': 'life', 'detail_url': 'http://api.map.baidu.com/place/detail?uid=90ba4316fa2b0295028972fe&output=html&source=placeapi_v2', 'image_num': '2'}}"
"{'name': '吉吉租车', 'location': {'lat': 34.27134, 'lng': 108.928588}, 'address': '西安市莲湖区环城西路1', 'street_id': '90ba4316fa2b0295028972fe', 'detail': 1, 'uid': '90ba4316fa2b0295028972fe', 'detail_info': {'tag': '汽车服务;汽车租赁', 'type': 'life', 'detail_url': 'http://api.map.baidu.com/place/detail?uid=90ba4316fa2b0295028972fe&output=html&source=placeapi_v2', 'image_num': '2'}}"
乐途,108.93553266382958,34.27715596004396,140b7aca4de61ddd4c3a59be,"{'name': '乐途', 'location': {'lat': 34.281732, 'lng': 108.946618}, 'address': '顺城北路西段16号附近', 'street_id': '140b7aca4de61ddd4c3a59be', 'detail': 1, 'uid': '140b7aca4de61ddd4c3a59be', 'detail_info': {'tag': '汽车服务;汽车美容', 'type': 'life', 'detail_url': 'http://api.map.baidu.com/place/detail?uid=140b7aca4de61ddd4c3a59be&output=html&source=placeapi_v2', 'image_num': '4', 'comment_num': '0'}}"
"{'name': '乐途', 'location': {'lat': 34.281732, 'lng': 108.946618}, 'address': '顺城北路西段16号附近', 'street_id': '140b7aca4de61ddd4c3a59be', 'detail': 1, 'uid': '140b7aca4de61ddd4c3a59be', 'detail_info': {'tag': '汽车服务;汽车美容', 'type': 'life', 'detail_url': 'http://api.map.baidu.com/place/detail?uid=140b7aca4de61ddd4c3a59be&output=html&source=placeapi_v2', 'image_num': '4', 'comment_num': '0'}}"
东北小高出租车维修行,108.92352075521877,34.27842196269816,1a388e57f2e5db148c55ec25,"{'name': '东北小高出租车维修行', 'location': {'lat': 34.282784, 'lng': 108.934639}, 'address': '陕西省西安市莲湖区环城北路西段312附近', 'street_id': '1a388e57f2e5db148c55ec25', 'telephone': '13096933633', 'detail': 1, 'uid': '1a388e57f2e5db148c55ec25', 'detail_info': {'tag': '汽车服务;汽车租赁', 'type': 'life', 'detail_url': 'http://api.map.baidu.com/place/detail?uid=1a388e57f2e5db148c55ec25&output=html&source=placeapi_v2', 'image_num': '1'}}"
"{'name': '东北小高出租车维修行', 'location': {'lat': 34.282784, 'lng': 108.934639}, 'address': '陕西省西安市莲湖区环城北路西段312附近', 'street_id': '1a388e57f2e5db148c55ec25', 'telephone': '13096933633', 'detail': 1, 'uid': '1a388e57f2e5db148c55ec25', 'detail_info': {'tag': '汽车服务;汽车租赁', 'type': 'life', 'detail_url': 'http://api.map.baidu.com/place/detail?uid=1a388e57f2e5db148c55ec25&output=html&source=placeapi_v2', 'image_num': '1'}}"
西安迅敏汽车配件东风风神标致雪铁龙,108.91732978578827,34.27576854186407,5749f631679f7cfc100daa03,"{'name': '西安迅敏汽车配件东风风神标致雪铁龙', 'location': {'lat': 34.280022, 'lng': 108.92847}, 'address': '海纳汽配城北区2楼C-02号', 'street_id': '5749f631679f7cfc100daa03', 'detail': 1, 'uid': '5749f631679f7cfc100daa03', 'detail_info': {'tag': '汽车服务', 'type': 'life', 'detail_url': 'http://api.map.baidu.com/place/detail?uid=5749f631679f7cfc100daa03&output=html&source=placeapi_v2', 'image_num': '1'}}"
"{'name': '西安迅敏汽车配件东风风神标致雪铁龙', 'location': {'lat': 34.280022, 'lng': 108.92847}, 'address': '海纳汽配城北区2楼C-02号', 'street_id': '5749f631679f7cfc100daa03', 'detail': 1, 'uid': '5749f631679f7cfc100daa03', 'detail_info': {'tag': '汽车服务', 'type': 'life', 'detail_url': 'http://api.map.baidu.com/place/detail?uid=5749f631679f7cfc100daa03&output=html&source=placeapi_v2', 'image_num': '1'}}"
西安速腾工程机械配件,108.91625909631598,34.27530401677955,0dfa5e084d07203579dbd2c6,"{'name': '西安速腾工程机械配件', 'location': {'lat': 34.27954, 'lng': 108.927403}, 'address': '西站街东风汽配一条街西1楼2号', 'street_id': '0dfa5e084d07203579dbd2c6', 'telephone': '13689280001', 'detail': 0, 'uid': '0dfa5e084d07203579dbd2c6', 'detail_info': {'navi_location': {'lng': 108.92742264162, 'lat': 34.279546996065}}}"
"{'name': '西安速腾工程机械配件', 'location': {'lat': 34.27954, 'lng': 108.927403}, 'address': '西站街东风汽配一条街西1楼2号', 'street_id': '0dfa5e084d07203579dbd2c6', 'telephone': '13689280001', 'detail': 0, 'uid': '0dfa5e084d07203579dbd2c6', 'detail_info': {'navi_location': {'lng': 108.92742264162, 'lat': 34.279546996065}}}"
西安驾跃汽配,108.91654919716903,34.27716702538421,d2462d04599a64bd2ce67b15,"{'name': '西安驾跃汽配', 'location': {'lat': 34.281408, 'lng': 108.927691}, 'address': '陕西省西安市莲湖区玉祥门东风一条街北2号', 'detail': 1, 'uid': 'd2462d04599a64bd2ce67b15', 'detail_info': {'tag': '汽车服务;汽车配件', 'type': 'life', 'detail_url': 'http://api.map.baidu.com/place/detail?uid=d2462d04599a64bd2ce67b15&output=html&source=placeapi_v2', 'image_num': '2'}}"
"{'name': '西安驾跃汽配', 'location': {'lat': 34.281408, 'lng': 108.927691}, 'address': '陕西省西安市莲湖区玉祥门东风一条街北2号', 'detail': 1, 'uid': 'd2462d04599a64bd2ce67b15', 'detail_info': {'tag': '汽车服务;汽车配件', 'type': 'life', 'detail_url': 'http://api.map.baidu.com/place/detail?uid=d2462d04599a64bd2ce67b15&output=html&source=placeapi_v2', 'image_num': '2'}}"
吊车配件,108.9174204632551,34.279892233395756,e393cf58669d75b89122e06e,"{'name': '吊车配件', 'location': {'lat': 34.284148, 'lng': 108.928558}, 'address': '星火路6号附近', 'street_id': 'e393cf58669d75b89122e06e', 'detail': 1, 'uid': 'e393cf58669d75b89122e06e', 'detail_info': {'tag': '汽车服务;汽车配件', 'type': 'life', 'detail_url': 'http://api.map.baidu.com/place/detail?uid=e393cf58669d75b89122e06e&output=html&source=placeapi_v2', 'image_num': '2'}}"
"{'name': '吊车配件', 'location': {'lat': 34.284148, 'lng': 108.928558}, 'address': '星火路6号附近', 'street_id': 'e393cf58669d75b89122e06e', 'detail': 1, 'uid': 'e393cf58669d75b89122e06e', 'detail_info': {'tag': '汽车服务;汽车配件', 'type': 'life', 'detail_url': 'http://api.map.baidu.com/place/detail?uid=e393cf58669d75b89122e06e&output=html&source=placeapi_v2', 'image_num': '2'}}"
江铃全顺陆风庆铃,108.91623419474868,34.27411460135139,256a96d2126979304c6d463d,"{'name': '江铃全顺陆风庆铃', 'location': {'lat': 34.27835, 'lng': 108.927379}, 'address': '陕西省西安市莲湖区建中巷海纳观景园二期', 'street_id': '256a96d2126979304c6d463d', 'detail': 0, 'uid': '256a96d2126979304c6d463d', 'detail_info': {'tag': '汽车服务;汽车销售'}}"
"{'name': '江铃全顺陆风庆铃', 'location': {'lat': 34.27835, 'lng': 108.927379}, 'address': '陕西省西安市莲湖区建中巷海纳观景园二期', 'street_id': '256a96d2126979304c6d463d', 'detail': 0, 'uid': '256a96d2126979304c6d463d', 'detail_info': {'tag': '汽车服务;汽车销售'}}"
富康比亚迪,108.9191729817412,34.27063824398825,d00ea802973cee37c256ac53,"{'name': '富康比亚迪', 'location': {'lat': 34.274922, 'lng': 108.930311}, 'address': '莲湖路外婆味道土菜鱼馆西', 'street_id': 'd00ea802973cee37c256ac53', 'detail': 1, 'uid': 'd00ea802973cee37c256ac53', 'detail_info': {'tag': '汽车服务', 'type': 'life', 'detail_url': 'http://api.map.baidu.com/place/detail?uid=d00ea802973cee37c256ac53&output=html&source=placeapi_v2', 'overall_rating': '0', 'image_num': '2'}}"
"{'name': '富康比亚迪', 'location': {'lat': 34.274922, 'lng': 108.930311}, 'address': '莲湖路外婆味道土菜鱼馆西', 'street_id': 'd00ea802973cee37c256ac53', 'detail': 1, 'uid': 'd00ea802973cee37c256ac53', 'detail_info': {'tag': '汽车服务', 'type': 'life', 'detail_url': 'http://api.map.baidu.com/place/detail?uid=d00ea802973cee37c256ac53&output=html&source=placeapi_v2', 'overall_rating': '0', 'image_num': '2'}}"
西安凯越汽配,108.91693904807381,34.27655381098708,e05110c0d3ec52b20c0a70d2,"{'name': '西安凯越汽配', 'location': {'lat': 34.280801, 'lng': 108.92808}, 'address': '海纳汽配城临街L-30', 'street_id': 'e05110c0d3ec52b20c0a70d2', 'detail': 1, 'uid': 'e05110c0d3ec52b20c0a70d2', 'detail_info': {'tag': '汽车服务;汽车配件', 'type': 'life', 'detail_url': 'http://api.map.baidu.com/place/detail?uid=e05110c0d3ec52b20c0a70d2&output=html&source=placeapi_v2', 'image_num': '3'}}"
"{'name': '西安凯越汽配', 'location': {'lat': 34.280801, 'lng': 108.92808}, 'address': '海纳汽配城临街L-30', 'street_id': 'e05110c0d3ec52b20c0a70d2', 'detail': 1, 'uid': 'e05110c0d3ec52b20c0a70d2', 'detail_info': {'tag': '汽车服务;汽车配件', 'type': 'life', 'detail_url': 'http://api.map.baidu.com/place/detail?uid=e05110c0d3ec52b20c0a70d2&output=html&source=placeapi_v2', 'image_num': '3'}}"
930汽车服务,108.92402913240156,34.28198788655788,31ab81c9c1e90c95f942b23a,"{'name': '930汽车服务', 'location': {'lat': 34.28636, 'lng': 108.935144}, 'address': '陕西省西安市莲湖区陕西交通职业技术学院(自强路校区)', 'street_id': '31ab81c9c1e90c95f942b23a', 'detail': 1, 'uid': '31ab81c9c1e90c95f942b23a', 'detail_info': {'tag': '汽车服务;汽车销售', 'type': 'life', 'detail_url': 'http://api.map.baidu.com/place/detail?uid=31ab81c9c1e90c95f942b23a&output=html&source=placeapi_v2', 'image_num': '1'}}"
"{'name': '930汽车服务', 'location': {'lat': 34.28636, 'lng': 108.935144}, 'address': '陕西省西安市莲湖区陕西交通职业技术学院(自强路校区)', 'street_id': '31ab81c9c1e90c95f942b23a', 'detail': 1, 'uid': '31ab81c9c1e90c95f942b23a', 'detail_info': {'tag': '汽车服务;汽车销售', 'type': 'life', 'detail_url': 'http://api.map.baidu.com/place/detail?uid=31ab81c9c1e90c95f942b23a&output=html&source=placeapi_v2', 'image_num': '1'}}"
优耐特液压气动,108.91581540186436,34.27210254166038,8e4eedb316514405c9fa5f9b,"{'name': '优耐特液压气动', 'location': {'lat': 34.276331, 'lng': 108.926963}, 'address': '西安市莲湖区大庆路5号', 'street_id': '8e4eedb316514405c9fa5f9b', 'detail': 1, 'uid': '8e4eedb316514405c9fa5f9b', 'detail_info': {'tag': '公司企业;公司', 'type': 'life', 'detail_url': 'http://api.map.baidu.com/place/detail?uid=8e4eedb316514405c9fa5f9b&output=html&source=placeapi_v2', 'image_num': '4'}}"
"{'name': '优耐特液压气动', 'location': {'lat': 34.276331, 'lng': 108.926963},