魔方KTV(南广济街店),108.93412457448035,34.25984537716698,c8e8f6333a968e75ab0dd8fc,"{'name': '魔方KTV(南广济街店)', 'location': {'lat': 34.264396, 'lng': 108.945227}, 'address': '碑林区南广济街94号荣民国际大厦3楼', 'street_id': 'c8e8f6333a968e75ab0dd8fc', 'telephone': '029-87627979', 'detail': 1, 'uid': 'c8e8f6333a968e75ab0dd8fc', 'detail_info': {'tag': '休闲娱乐;ktv', 'navi_location': {'lng': 108.94533455615, 'lat': 34.264509068613}, 'type': 'life', 'detail_url': 'http://api.map.baidu.com/place/detail?uid=c8e8f6333a968e75ab0dd8fc&output=html&source=placeapi_v2', 'price': '71', 'overall_rating': '4', 'image_num': '180', 'comment_num': '1220'}}"
"{'name': '魔方KTV(南广济街店)', 'location': {'lat': 34.264396, 'lng': 108.945227}, 'address': '碑林区南广济街94号荣民国际大厦3楼', 'street_id': 'c8e8f6333a968e75ab0dd8fc', 'telephone': '029-87627979', 'detail': 1, 'uid': 'c8e8f6333a968e75ab0dd8fc', 'detail_info': {'tag': '休闲娱乐;ktv', 'navi_location': {'lng': 108.94533455615, 'lat': 34.264509068613}, 'type': 'life', 'detail_url': 'http://api.map.baidu.com/place/detail?uid=c8e8f6333a968e75ab0dd8fc&output=html&source=placeapi_v2', 'price': '71', 'overall_rating': '4', 'image_num': '180', 'comment_num': '1220'}}"
万紫千红大舞厅,108.91840837407041,34.25920419518529,2c0bd6c54862a4b343ab9ac5,"{'name': '万紫千红大舞厅', 'location': {'lat': 34.263474, 'lng': 108.929559}, 'address': '陕西省西安市莲湖区环城西路南段72号', 'street_id': '2c0bd6c54862a4b343ab9ac5', 'detail': 1, 'uid': '2c0bd6c54862a4b343ab9ac5', 'detail_info': {'tag': '休闲娱乐;歌舞厅', 'type': 'life', 'detail_url': 'http://api.map.baidu.com/place/detail?uid=2c0bd6c54862a4b343ab9ac5&output=html&source=placeapi_v2', 'price': '53', 'overall_rating': '3.0', 'image_num': '8', 'comment_num': '22'}}"
"{'name': '万紫千红大舞厅', 'location': {'lat': 34.263474, 'lng': 108.929559}, 'address': '陕西省西安市莲湖区环城西路南段72号', 'street_id': '2c0bd6c54862a4b343ab9ac5', 'detail': 1, 'uid': '2c0bd6c54862a4b343ab9ac5', 'detail_info': {'tag': '休闲娱乐;歌舞厅', 'type': 'life', 'detail_url': 'http://api.map.baidu.com/place/detail?uid=2c0bd6c54862a4b343ab9ac5&output=html&source=placeapi_v2', 'price': '53', 'overall_rating': '3.0', 'image_num': '8', 'comment_num': '22'}}"
快乐迪KTV,108.92887521236779,34.26139305973852,ecb46c5771e19c9bab059d54,"{'name': '快乐迪KTV', 'location': {'lat': 34.265851, 'lng': 108.93999}, 'address': '西大街同方商城3层', 'street_id': 'ecb46c5771e19c9bab059d54', 'detail': 1, 'uid': 'ecb46c5771e19c9bab059d54', 'detail_info': {'tag': '休闲娱乐;ktv', 'navi_location': {'lng': 108.93993687998, 'lat': 34.265686944943}, 'type': 'life', 'detail_url': 'http://api.map.baidu.com/place/detail?uid=ecb46c5771e19c9bab059d54&output=html&source=placeapi_v2', 'price': '78', 'overall_rating': '4.5', 'image_num': '141', 'comment_num': '680'}}"
"{'name': '快乐迪KTV', 'location': {'lat': 34.265851, 'lng': 108.93999}, 'address': '西大街同方商城3层', 'street_id': 'ecb46c5771e19c9bab059d54', 'detail': 1, 'uid': 'ecb46c5771e19c9bab059d54', 'detail_info': {'tag': '休闲娱乐;ktv', 'navi_location': {'lng': 108.93993687998, 'lat': 34.265686944943}, 'type': 'life', 'detail_url': 'http://api.map.baidu.com/place/detail?uid=ecb46c5771e19c9bab059d54&output=html&source=placeapi_v2', 'price': '78', 'overall_rating': '4.5', 'image_num': '141', 'comment_num': '680'}}"
滚石新天地KTV(南大街店),108.94283584280457,34.257345458857095,881a28e7a6f68f5ef842b2f1,"{'name': '滚石新天地KTV(南大街店)', 'location': {'lat': 34.262026, 'lng': 108.953929}, 'address': '陕西省西安市碑林区南大街113号西安百货大厦(近东木头市)', 'street_id': '881a28e7a6f68f5ef842b2f1', 'detail': 1, 'uid': '881a28e7a6f68f5ef842b2f1', 'detail_info': {'tag': '休闲娱乐;ktv', 'navi_location': {'lng': 108.95389248367, 'lat': 34.262311251327}, 'type': 'life', 'detail_url': 'http://api.map.baidu.com/place/detail?uid=881a28e7a6f68f5ef842b2f1&output=html&source=placeapi_v2', 'price': '52', 'overall_rating': '4.3', 'image_num': '441', 'comment_num': '2535'}}"
"{'name': '滚石新天地KTV(南大街店)', 'location': {'lat': 34.262026, 'lng': 108.953929}, 'address': '陕西省西安市碑林区南大街113号西安百货大厦(近东木头市)', 'street_id': '881a28e7a6f68f5ef842b2f1', 'detail': 1, 'uid': '881a28e7a6f68f5ef842b2f1', 'detail_info': {'tag': '休闲娱乐;ktv', 'navi_location': {'lng': 108.95389248367, 'lat': 34.262311251327}, 'type': 'life', 'detail_url': 'http://api.map.baidu.com/place/detail?uid=881a28e7a6f68f5ef842b2f1&output=html&source=placeapi_v2', 'price': '52', 'overall_rating': '4.3', 'image_num': '441', 'comment_num': '2535'}}"
雅图(连锁)数字影院,108.93868239078617,34.26055631079213,abfaf23f7304861f03ff2dc3,"{'name': '雅图(连锁)数字影院', 'location': {'lat': 34.26518, 'lng': 108.949776}, 'address': '西安市碑林区西大街中环广场7F', 'street_id': 'abfaf23f7304861f03ff2dc3', 'telephone': '(029)87216226', 'detail': 1, 'uid': 'abfaf23f7304861f03ff2dc3', 'detail_info': {'tag': '休闲娱乐;电影院', 'navi_location': {'lng': 108.94982135053, 'lat': 34.264577315456}, 'type': 'life', 'detail_url': 'http://api.map.baidu.com/place/detail?uid=abfaf23f7304861f03ff2dc3&output=html&source=placeapi_v2', 'price': '28', 'overall_rating': '3.7', 'service_rating': '0', 'environment_rating': '0', 'comment_num': '844'}}"
"{'name': '雅图(连锁)数字影院', 'location': {'lat': 34.26518, 'lng': 108.949776}, 'address': '西安市碑林区西大街中环广场7F', 'street_id': 'abfaf23f7304861f03ff2dc3', 'telephone': '(029)87216226', 'detail': 1, 'uid': 'abfaf23f7304861f03ff2dc3', 'detail_info': {'tag': '休闲娱乐;电影院', 'navi_location': {'lng': 108.94982135053, 'lat': 34.264577315456}, 'type': 'life', 'detail_url': 'http://api.map.baidu.com/place/detail?uid=abfaf23f7304861f03ff2dc3&output=html&source=placeapi_v2', 'price': '28', 'overall_rating': '3.7', 'service_rating': '0', 'environment_rating': '0', 'comment_num': '844'}}"
布达拉养生会所,108.93418878528055,34.251833928770495,28e700f16e374018095cb32c,"{'name': '布达拉养生会所', 'location': {'lat': 34.256385, 'lng': 108.945298}, 'address': '朱雀门外西南角朱雀大街180号布达拉(近朱雀门)', 'street_id': '28e700f16e374018095cb32c', 'detail': 1, 'uid': '28e700f16e374018095cb32c', 'detail_info': {'tag': '休闲娱乐;洗浴按摩', 'navi_location': {'lng': 108.94549169493, 'lat': 34.256218826672}, 'type': 'life', 'detail_url': 'http://api.map.baidu.com/place/detail?uid=28e700f16e374018095cb32c&output=html&source=placeapi_v2', 'price': '87', 'overall_rating': '4.2', 'image_num': '360', 'comment_num': '283'}}"
"{'name': '布达拉养生会所', 'location': {'lat': 34.256385, 'lng': 108.945298}, 'address': '朱雀门外西南角朱雀大街180号布达拉(近朱雀门)', 'street_id': '28e700f16e374018095cb32c', 'detail': 1, 'uid': '28e700f16e374018095cb32c', 'detail_info': {'tag': '休闲娱乐;洗浴按摩', 'navi_location': {'lng': 108.94549169493, 'lat': 34.256218826672}, 'type': 'life', 'detail_url': 'http://api.map.baidu.com/place/detail?uid=28e700f16e374018095cb32c&output=html&source=placeapi_v2', 'price': '87', 'overall_rating': '4.2', 'image_num': '360', 'comment_num': '283'}}"
城池网咖,108.93271274087806,34.26037261112139,454cdcb82057e2532bd7abc9,"{'name': '城池网咖', 'location': {'lat': 34.264899, 'lng': 108.943818}, 'address': '陕西省西安市碑林区西大街与广济街十字荣民国际饭店负一层（西大街百盛斜对面）', 'street_id': '454cdcb82057e2532bd7abc9', 'detail': 1, 'uid': '454cdcb82057e2532bd7abc9', 'detail_info': {'tag': '休闲娱乐;网吧', 'navi_location': {'lng': 108.94411954944, 'lat': 34.265456816708}, 'type': 'life', 'detail_url': 'http://api.map.baidu.com/place/detail?uid=454cdcb82057e2532bd7abc9&output=html&source=placeapi_v2', 'price': '22', 'overall_rating': '4.0', 'image_num': '74', 'comment_num': '44'}}"
"{'name': '城池网咖', 'location': {'lat': 34.264899, 'lng': 108.943818}, 'address': '陕西省西安市碑林区西大街与广济街十字荣民国际饭店负一层（西大街百盛斜对面）', 'street_id': '454cdcb82057e2532bd7abc9', 'detail': 1, 'uid': '454cdcb82057e2532bd7abc9', 'detail_info': {'tag': '休闲娱乐;网吧', 'navi_location': {'lng': 108.94411954944, 'lat': 34.265456816708}, 'type': 'life', 'detail_url': 'http://api.map.baidu.com/place/detail?uid=454cdcb82057e2532bd7abc9&output=html&source=placeapi_v2', 'price': '22', 'overall_rating': '4.0', 'image_num': '74', 'comment_num': '44'}}"
Home+Nature,108.9410461561384,34.25174326299294,a635888d5fd2df8b38e4a675,"{'name': 'Home+Nature', 'location': {'lat': 34.2564, 'lng': 108.952145}, 'address': '南门城墙南侧松园B1层17号', 'street_id': 'a635888d5fd2df8b38e4a675', 'detail': 1, 'uid': 'a635888d5fd2df8b38e4a675', 'detail_info': {'tag': '美食;酒吧', 'type': 'life', 'detail_url': 'http://api.map.baidu.com/place/detail?uid=a635888d5fd2df8b38e4a675&output=html&source=placeapi_v2', 'price': '50', 'overall_rating': '4.5', 'image_num': '10', 'comment_num': '176'}}"
"{'name': 'Home+Nature', 'location': {'lat': 34.2564, 'lng': 108.952145}, 'address': '南门城墙南侧松园B1层17号', 'street_id': 'a635888d5fd2df8b38e4a675', 'detail': 1, 'uid': 'a635888d5fd2df8b38e4a675', 'detail_info': {'tag': '美食;酒吧', 'type': 'life', 'detail_url': 'http://api.map.baidu.com/place/detail?uid=a635888d5fd2df8b38e4a675&output=html&source=placeapi_v2', 'price': '50', 'overall_rating': '4.5', 'image_num': '10', 'comment_num': '176'}}"
采吉足浴,108.9355600560517,34.258153533493946,dfc496b619e81ab68836eeba,"{'name': '采吉足浴', 'location': {'lat': 34.262728, 'lng': 108.946661}, 'address': '碑林区南院门院门巷1号', 'street_id': 'dfc496b619e81ab68836eeba', 'detail': 1, 'uid': 'dfc496b619e81ab68836eeba', 'detail_info': {'tag': '休闲娱乐;洗浴按摩', 'type': 'life', 'detail_url': 'http://api.map.baidu.com/place/detail?uid=dfc496b619e81ab68836eeba&output=html&source=placeapi_v2', 'price': '68', 'overall_rating': '4.8', 'image_num': '34', 'comment_num': '32'}}"
"{'name': '采吉足浴', 'location': {'lat': 34.262728, 'lng': 108.946661}, 'address': '碑林区南院门院门巷1号', 'street_id': 'dfc496b619e81ab68836eeba', 'detail': 1, 'uid': 'dfc496b619e81ab68836eeba', 'detail_info': {'tag': '休闲娱乐;洗浴按摩', 'type': 'life', 'detail_url': 'http://api.map.baidu.com/place/detail?uid=dfc496b619e81ab68836eeba&output=html&source=placeapi_v2', 'price': '68', 'overall_rating': '4.8', 'image_num': '34', 'comment_num': '32'}}"
金石,108.94201210893598,34.25688197130394,befdb29200ca0ff88715415b,"{'name': '金石', 'location': {'lat': 34.261552, 'lng': 108.953106}, 'address': '碑林区南大街46号福康大厦4楼', 'street_id': 'befdb29200ca0ff88715415b', 'detail': 1, 'uid': 'befdb29200ca0ff88715415b', 'detail_info': {'tag': '休闲娱乐;洗浴按摩', 'type': 'life', 'detail_url': 'http://api.map.baidu.com/place/detail?uid=befdb29200ca0ff88715415b&output=html&source=placeapi_v2', 'price': '55', 'overall_rating': '4.8', 'image_num': '31', 'comment_num': '18'}}"
"{'name': '金石', 'location': {'lat': 34.261552, 'lng': 108.953106}, 'address': '碑林区南大街46号福康大厦4楼', 'street_id': 'befdb29200ca0ff88715415b', 'detail': 1, 'uid': 'befdb29200ca0ff88715415b', 'detail_info': {'tag': '休闲娱乐;洗浴按摩', 'type': 'life', 'detail_url': 'http://api.map.baidu.com/place/detail?uid=befdb29200ca0ff88715415b&output=html&source=placeapi_v2', 'price': '55', 'overall_rating': '4.8', 'image_num': '31', 'comment_num': '18'}}"
雅正推拿,108.94095521598102,34.25774998405309,7e9a4bd0c5cece4088b98833,"{'name': '雅正推拿', 'location': {'lat': 34.262406, 'lng': 108.952049}, 'address': '南院门街道南大街西木头市南方酒店对面公安局家属院35号1层', 'street_id': '7e9a4bd0c5cece4088b98833', 'detail': 1, 'uid': '7e9a4bd0c5cece4088b98833', 'detail_info': {'tag': '休闲娱乐;洗浴按摩', 'type': 'life', 'detail_url': 'http://api.map.baidu.com/place/detail?uid=7e9a4bd0c5cece4088b98833&output=html&source=placeapi_v2', 'price': '58', 'overall_rating': '4.9', 'image_num': '71', 'comment_num': '56'}}"
"{'name': '雅正推拿', 'location': {'lat': 34.262406, 'lng': 108.952049}, 'address': '南院门街道南大街西木头市南方酒店对面公安局家属院35号1层', 'street_id': '7e9a4bd0c5cece4088b98833', 'detail': 1, 'uid': '7e9a4bd0c5cece4088b98833', 'detail_info': {'tag': '休闲娱乐;洗浴按摩', 'type': 'life', 'detail_url': 'http://api.map.baidu.com/place/detail?uid=7e9a4bd0c5cece4088b98833&output=html&source=placeapi_v2', 'price': '58', 'overall_rating': '4.9', 'image_num': '71', 'comment_num': '56'}}"
凤邸足道,108.92925490688245,34.25416968495228,de8138e1ad026643912ca347,"{'name': '凤邸足道', 'location': {'lat': 34.258634, 'lng': 108.940375}, 'address': '陕西省西安市莲湖区含光门里报恩寺街23号(近M餐厅)', 'street_id': 'de8138e1ad026643912ca347', 'detail': 1, 'uid': 'de8138e1ad026643912ca347', 'detail_info': {'tag': '休闲娱乐;洗浴按摩', 'type': 'life', 'detail_url': 'http://api.map.baidu.com/place/detail?uid=de8138e1ad026643912ca347&output=html&source=placeapi_v2', 'price': '104', 'overall_rating': '4.1', 'image_num': '89', 'comment_num': '367'}}"
"{'name': '凤邸足道', 'location': {'lat': 34.258634, 'lng': 108.940375}, 'address': '陕西省西安市莲湖区含光门里报恩寺街23号(近M餐厅)', 'street_id': 'de8138e1ad026643912ca347', 'detail': 1, 'uid': 'de8138e1ad026643912ca347', 'detail_info': {'tag': '休闲娱乐;洗浴按摩', 'type': 'life', 'detail_url': 'http://api.map.baidu.com/place/detail?uid=de8138e1ad026643912ca347&output=html&source=placeapi_v2', 'price': '104', 'overall_rating': '4.1', 'image_num': '89', 'comment_num': '367'}}"
光脚板足浴休闲会所,108.91908750409014,34.252105214600526,6fddd7fda3193f7c3517dcd4,"{'name': '光脚板足浴休闲会所', 'location': {'lat': 34.256386, 'lng': 108.930242}, 'address': '西安市碑林区太白北路279号', 'street_id': '6fddd7fda3193f7c3517dcd4', 'detail': 1, 'uid': '6fddd7fda3193f7c3517dcd4', 'detail_info': {'tag': '休闲娱乐;洗浴按摩', 'type': 'life', 'detail_url': 'http://api.map.baidu.com/place/detail?uid=6fddd7fda3193f7c3517dcd4&output=html&source=placeapi_v2', 'price': '114.5', 'overall_rating': '3.1', 'image_num': '59', 'comment_num': '179'}}"
"{'name': '光脚板足浴休闲会所', 'location': {'lat': 34.256386, 'lng': 108.930242}, 'address': '西安市碑林区太白北路279号', 'street_id': '6fddd7fda3193f7c3517dcd4', 'detail': 1, 'uid': '6fddd7fda3193f7c3517dcd4', 'detail_info': {'tag': '休闲娱乐;洗浴按摩', 'type': 'life', 'detail_url': 'http://api.map.baidu.com/place/detail?uid=6fddd7fda3193f7c3517dcd4&output=html&source=placeapi_v2', 'price': '114.5', 'overall_rating': '3.1', 'image_num': '59', 'comment_num': '179'}}"
荷风阁足道(西关正街),108.91645196108914,34.261235360293256,3acefb94497210f1b2077dc5,"{'name': '荷风阁足道(西关正街)', 'location': {'lat': 34.265473, 'lng': 108.927607}, 'address': '莲湖区西关正街49号万景酒店2楼', 'street_id': '3acefb94497210f1b2077dc5', 'detail': 1, 'uid': '3acefb94497210f1b2077dc5', 'detail_info': {'tag': '休闲娱乐;洗浴按摩', 'navi_location': {'lng': 108.92760715357, 'lat': 34.26534296805}, 'type': 'life', 'detail_url': 'http://api.map.baidu.com/place/detail?uid=3acefb94497210f1b2077dc5&output=html&source=placeapi_v2', 'price': '99', 'overall_rating': '4.5', 'image_num': '16', 'comment_num': '43'}}"
"{'name': '荷风阁足道(西关正街)', 'location': {'lat': 34.265473, 'lng': 108.927607}, 'address': '莲湖区西关正街49号万景酒店2楼', 'street_id': '3acefb94497210f1b2077dc5', 'detail': 1, 'uid': '3acefb94497210f1b2077dc5', 'detail_info': {'tag': '休闲娱乐;洗浴按摩', 'navi_location': {'lng': 108.92760715357, 'lat': 34.26534296805}, 'type': 'life', 'detail_url': 'http://api.map.baidu.com/place/detail?uid=3acefb94497210f1b2077dc5&output=html&source=placeapi_v2', 'price': '99', 'overall_rating': '4.5', 'image_num': '16', 'comment_num': '43'}}"
康乐盲人按摩,108.93175736214344,34.26260721493758,b852736a6fd16dc180a00cdd,"{'name': '康乐盲人按摩', 'location': {'lat': 34.267117, 'lng': 108.942863}, 'address': '陕西省西安市莲湖区大学习巷27', 'street_id': 'b852736a6fd16dc180a00cdd', 'detail': 1, 'uid': 'b852736a6fd16dc180a00cdd', 'detail_info': {'tag': '休闲娱乐;洗浴按摩', 'type': 'life', 'detail_url': 'http://api.map.baidu.com/place/detail?uid=b852736a6fd16dc180a00cdd&output=html&source=placeapi_v2', 'price': '113', 'overall_rating': '4.3', 'image_num': '31', 'comment_num': '23'}}"
"{'name': '康乐盲人按摩', 'location': {'lat': 34.267117, 'lng': 108.942863}, 'address': '陕西省西安市莲湖区大学习巷27', 'street_id': 'b852736a6fd16dc180a00cdd', 'detail': 1, 'uid': 'b852736a6fd16dc180a00cdd', 'detail_info': {'tag': '休闲娱乐;洗浴按摩', 'type': 'life', 'detail_url': 'http://api.map.baidu.com/place/detail?uid=b852736a6fd16dc180a00cdd&output=html&source=placeapi_v2', 'price': '113', 'overall_rating': '4.3', 'image_num': '31', 'comment_num': '23'}}"
g时代网盟,108.9314323744904,34.26136605461233,530da1f56739e375364aae40,"{'name': 'g时代网盟', 'location': {'lat': 34.26587, 'lng': 108.94254}, 'address': '西大街朱雀大厦3,4楼', 'street_id': '530da1f56739e375364aae40', 'telephone': '13572264008', 'detail': 1, 'uid': '530da1f56739e375364aae40', 'detail_info': {'tag': '休闲娱乐;网吧', 'type': 'life', 'detail_url': 'http://api.map.baidu.com/place/detail?uid=530da1f56739e375364aae40&output=html&source=placeapi_v2', 'price': '10', 'overall_rating': '3.1', 'image_num': '6', 'comment_num': '9'}}"
"{'name': 'g时代网盟', 'location': {'lat': 34.26587, 'lng': 108.94254}, 'address': '西大街朱雀大厦3,4楼', 'street_id': '530da1f56739e375364aae40', 'telephone': '13572264008', 'detail': 1, 'uid': '530da1f56739e375364aae40', 'detail_info': {'tag': '休闲娱乐;网吧', 'type': 'life', 'detail_url': 'http://api.map.baidu.com/place/detail?uid=530da1f56739e375364aae40&output=html&source=placeapi_v2', 'price': '10', 'overall_rating': '3.1', 'image_num': '6', 'comment_num': '9'}}"
祥云阁休闲会所,108.91661197895067,34.25849496784355,22e11407374a53c9d5b74e3b,"{'name': '祥云阁休闲会所', 'location': {'lat': 34.262735, 'lng': 108.927769}, 'address': '八家路6号附近', 'street_id': '22e11407374a53c9d5b74e3b', 'detail': 1, 'uid': '22e11407374a53c9d5b74e3b', 'detail_info': {'tag': '休闲娱乐;洗浴按摩', 'type': 'life', 'detail_url': 'http://api.map.baidu.com/place/detail?uid=22e11407374a53c9d5b74e3b&output=html&source=placeapi_v2', 'price': '98', 'overall_rating': '4.0', 'image_num': '6', 'comment_num': '1'}}"
"{'name': '祥云阁休闲会所', 'location': {'lat': 34.262735, 'lng': 108.927769}, 'address': '八家路6号附近', 'street_id': '22e11407374a53c9d5b74e3b', 'detail': 1, 'uid': '22e11407374a53c9d5b74e3b', 'detail_info': {'tag': '休闲娱乐;洗浴按摩', 'type': 'life', 'detail_url': 'http://api.map.baidu.com/place/detail?uid=22e11407374a53c9d5b74e3b&output=html&source=placeapi_v2', 'price': '98', 'overall_rating': '4.0', 'image_num': '6', 'comment_num': '1'}}"
网鱼网咖(新世界店),108.94183858626832,34.265210606896545,29a5c502eadbc23c58bbbc5f,"{'name': '网鱼网咖(新世界店)', 'location': {'lat': 34.269879, 'lng': 108.952925}, 'address': '北大街88号新世界百货三楼（宏府嘉会广场旁）', 'street_id': '29a5c502eadbc23c58bbbc5f', 'detail': 1, 'uid': '29a5c502eadbc23c58bbbc5f', 'detail_info': {'tag': '休闲娱乐;网吧', 'navi_location': {'lng': 108.9524850698, 'lat': 34.269571620598}, 'indoor_floor': 'F2', 'type': 'life', 'detail_url': 'http://api.map.baidu.com/place/detail?uid=29a5c502eadbc23c58bbbc5f&output=html&source=placeapi_v2', 'overall_rating': '2.5', 'image_num': '8', 'comment_num': '16'}}"
"{'name': '网鱼网咖(新世界店)', 'location': {'lat': 34.269879, 'lng': 108.952925}, 'address': '北大街88号新世界百货三楼（宏府嘉会广场旁）', 'street_id': '29a5c502eadbc23c58bbbc5f', 'detail': 1, 'uid': '29a5c502eadbc23c58bbbc5f', 'detail_info': {'tag': '休闲娱乐;网吧', 'navi_location': {'lng': 108.9524850698, 'lat': 34.269571620598}, 'indoor_floor': 'F2', 'type': 'life', 'detail_url': 'http://api.map.baidu.com/place/detail?uid=29a5c502eadbc23c58bbbc5f&output=html&source=placeapi_v2', 'overall_rating': '2.5', 'image_num': '8', 'comment_num': '16'}}"
西又说网咖,108.91763076404389,34.26571275195614,56a2369209666c7ec356ac28,"{'name': '西又说网咖', 'location': {'lat': 34.26997, 'lng': 108.928778}, 'address': '西安市莲湖区', 'street_id': '42a34893d523c36beaf8534f', 'detail': 1, 'uid': '56a2369209666c7ec356ac28', 'detail_info': {'tag': '休闲娱乐;网吧', 'type': 'life', 'detail_url': 'http://api.map.baidu.com/place/detail?uid=56a2369209666c7ec356ac28&output=html&source=placeapi_v2', 'overall_rating': '3.6', 'image_num': '24', 'comment_num': '20'}}"
"{'name': '西又说网咖', 'location': {'lat': 34.26997, 'lng': 108.928778}, 'address': '西安市莲湖区', 'street_id': '42a34893d523c36beaf8534f', 'detail': 1, 'uid': '56a2369209666c7ec356ac28', 'detail_info': {'tag': '休闲娱乐;网吧', 'type': 'life', 'detail_url': 'http://api.map.baidu.com/place/detail?uid=56a2369209666c7ec356ac28&output=html&source=placeapi_v2', 'overall_rating': '3.6', 'image_num': '24', 'comment_num': '20'}}"
富丽宫,108.92812897929366,34.25466514486564,22e11407d269a8add5b74e70,"{'name': '富丽宫', 'location': {'lat': 34.259109, 'lng': 108.939252}, 'address': '甜水井街29号B1楼', 'street_id': '22e11407d269a8add5b74e70', 'detail': 1, 'uid': '22e11407d269a8add5b74e70', 'detail_info': {'tag': '休闲娱乐;洗浴按摩', 'navi_location': {'lng': 108.93899236743, 'lat': 34.2590758008}, 'type': 'life', 'detail_url': 'http://api.map.baidu.com/place/detail?uid=22e11407d269a8add5b74e70&output=html&source=placeapi_v2', 'price': '169', 'overall_rating': '5', 'image_num': '21', 'comment_num': '5'}}"
"{'name': '富丽宫', 'location': {'lat': 34.259109, 'lng': 108.939252}, 'address': '甜水井街29号B1楼', 'street_id': '22e11407d269a8add5b74e70', 'detail': 1, 'uid': '22e11407d269a8add5b74e70', 'detail_info': {'tag': '休闲娱乐;洗浴按摩', 'navi_location': {'lng': 108.93899236743, 'lat': 34.2590758008}, 'type': 'life', 'detail_url': 'http://api.map.baidu.com/place/detail?uid=22e11407d269a8add5b74e70&output=html&source=placeapi_v2', 'price': '169', 'overall_rating': '5', 'image_num': '21', 'comment_num': '5'}}"
水木和足疗保健会所(西关正街店),108.91544835704056,34.260695330013654,101bc61b42f295bac42ba1c1,"{'name': '水木和足疗保健会所(西关正街店)', 'location': {'lat': 34.264917, 'lng': 108.926607}, 'address': '西关正街68号(近第五人民医院)', 'street_id': '101bc61b42f295bac42ba1c1', 'detail': 1, 'uid': '101bc61b42f295bac42ba1c1', 'detail_info': {'tag': '休闲娱乐;洗浴按摩', 'navi_location': {'lng': 108.92647754248, 'lat': 34.265029794068}, 'type': 'life', 'detail_url': 'http://api.map.baidu.com/place/detail?uid=101bc61b42f295bac42ba1c1&output=html&source=placeapi_v2', 'price': '199', 'overall_rating': '4.9', 'image_num': '437', 'comment_num': '0'}}"
"{'name': '水木和足疗保健会所(西关正街店)', 'location': {'lat': 34.264917, 'lng': 108.926607}, 'address': '西关正街68号(近第五人民医院)', 'street_id': '101bc61b42f295bac42ba1c1', 'detail': 1, 'uid': '101bc61b42f295bac42ba1c1', 'detail_info': {'tag': '休闲娱乐;洗浴按摩', 'navi_location': {'lng': 108.92647754248, 'lat': 34.265029794068}, 'type': 'life', 'detail_url': 'http://api.map.baidu.com/place/detail?uid=101bc61b42f295bac42ba1c1&output=html&source=placeapi_v2', 'price': '199', 'overall_rating': '4.9', 'image_num': '437', 'comment_num': '0'}}"
指间足道,108.93281135573463,34.260780867890034,bf0ccb88a63f3afbb6f42f0d,"{'name': '指间足道', 'location': {'lat': 34.265309, 'lng': 108.943916}, 'address': '碑林区西大街126号荣民国际饭店付一层(百盛购物中心)', 'street_id': 'bf0ccb88a63f3afbb6f42f0d', 'detail': 1, 'uid': 'bf0ccb88a63f3afbb6f42f0d', 'detail_info': {'tag': '休闲娱乐;洗浴按摩', 'navi_location': {'lng': 108.94407676404, 'lat': 34.265455139218}, 'type': 'life', 'detail_url': 'http://api.map.baidu.com/place/detail?uid=bf0ccb88a63f3afbb6f42f0d&output=html&source=placeapi_v2', 'overall_rating': '4.5', 'image_num': '27', 'comment_num': '145'}}"
"{'name': '指间足道', 'location': {'lat': 34.265309, 'lng': 108.943916}, 'address': '碑林区西大街126号荣民国际饭店付一层(百盛购物中心)', 'street_id': 'bf0ccb88a63f3afbb6f42f0d', 'detail': 1, 'uid': 'bf0ccb88a63f3afbb6f42f0d', 'detail_info': {'tag': '休闲娱乐;洗浴按摩', 'navi_location': {'lng': 108.94407676404, 'lat': 34.265455139218}, 'type': 'life', 'detail_url': 'http://api.map.baidu.com/place/detail?uid=bf0ccb88a63f3afbb6f42f0d&output=html&source=placeapi_v2', 'overall_rating': '4.5', 'image_num': '27', 'comment_num': '145'}}"
小和园(西门店),108.92232567942911,34.2617945195226,74f8f8f295613321c9c3db59,"{'name': '小和园(西门店)', 'location': {'lat': 34.266133, 'lng': 108.933461}, 'address': '西大街369号唐元宫', 'street_id': '74f8f8f295613321c9c3db59', 'detail': 1, 'uid': '74f8f8f295613321c9c3db59', 'detail_info': {'tag': '美食;中餐厅', 'type': 'life', 'detail_url': 'http://api.map.baidu.com/place/detail?uid=74f8f8f295613321c9c3db59&output=html&source=placeapi_v2', 'price': '151', 'overall_rating': '4.8', 'image_num': '2', 'groupon_num': '1', 'comment_num': '12'}}"
"{'name': '小和园(西门店)', 'location': {'lat': 34.266133, 'lng': 108.933461}, 'address': '西大街369号唐元宫', 'street_id': '74f8f8f295613321c9c3db59', 'detail': 1, 'uid': '74f8f8f295613321c9c3db59', 'detail_info': {'tag': '美食;中餐厅', 'type': 'life', 'detail_url': 'http://api.map.baidu.com/place/detail?uid=74f8f8f295613321c9c3db59&output=html&source=placeapi_v2', 'price': '151', 'overall_rating': '4.8', 'image_num': '2', 'groupon_num': '1', 'comment_num': '12'}}"
傻根泰国鱼疗,108.93588061213259,34.26467382704088,c181da0622f5de9f81288a63,"{'name': '傻根泰国鱼疗', 'location': {'lat': 34.269254, 'lng': 108.946975}, 'address': '西羊市94号兴旺招待所隔壁', 'street_id': 'c181da0622f5de9f81288a63', 'detail': 1, 'uid': 'c181da0622f5de9f81288a63', 'detail_info': {'tag': '休闲娱乐;洗浴按摩', 'type': 'life', 'detail_url': 'http://api.map.baidu.com/place/detail?uid=c181da0622f5de9f81288a63&output=html&source=placeapi_v2', 'price': '24', 'overall_rating': '4.3', 'image_num': '43', 'comment_num': '16'}}"
"{'name': '傻根泰国鱼疗', 'location': {'lat': 34.269254, 'lng': 108.946975}, 'address': '西羊市94号兴旺招待所隔壁', 'street_id': 'c181da0622f5de9f81288a63', 'detail': 1, 'uid': 'c181da0622f5de9f81288a63', 'detail_info': {'tag': '休闲娱乐;洗浴按摩', 'type': 'life', 'detail_url': 'http://api.map.baidu.com/place/detail?uid=c181da0622f5de9f81288a63&output=html&source=placeapi_v2', 'price': '24', 'overall_rating': '4.3', 'image_num': '43', 'comment_num': '16'}}"
老城印象足道会馆,108.9384877218402,34.25901133943281,75da6e8319ff1c1a88f15dc8,"{'name': '老城印象足道会馆', 'location': {'lat': 34.263632, 'lng': 108.949583}, 'address': '碑林区西大街48号银泰中环广场后(近陈公馆)', 'street_id': '75da6e8319ff1c1a88f15dc8', 'detail': 1, 'uid': '75da6e8319ff1c1a88f15dc8', 'detail_info': {'tag': '休闲娱乐;洗浴按摩', 'navi_location': {'lng': 108.94986214438, 'lat': 34.26362136768}, 'type': 'life', 'detail_url': 'http://api.map.baidu.com/place/detail?uid=75da6e8319ff1c1a88f15dc8&output=html&source=placeapi_v2', 'price': '300', 'overall_rating': '3.3', 'image_num': '45', 'comment_num': '44'}}"
"{'name': '老城印象足道会馆', 'location': {'lat': 34.263632, 'lng': 108.949583}, 'address': '碑林区西大街48号银泰中环广场后(近陈公馆)', 'street_id': '75da6e8319ff1c1a88f15dc8', 'detail': 1, 'uid': '75da6e8319ff1c1a88f15dc8', 'detail_info': {'tag': '休闲娱乐;洗浴按摩', 'navi_location': {'lng': 108.94986214438, 'lat': 34.26362136768}, 'type': 'life', 'detail_url': 'http://api.map.baidu.com/place/detail?uid=75da6e8319ff1c1a88f15dc8&output=html&source=placeapi_v2', 'price': '300', 'overall_rating': '3.3', 'image_num': '45', 'comment_num': '44'}}"
蜗牛向上桌游吧,108.9413328915619,34.264780349264676,0e62856ab8f9056f9c09f78b,"{'name': '蜗牛向上桌游吧', 'location': {'lat': 34.269442, 'lng': 108.95242}, 'address': '北大街宏府嘉会广场B座10层10004室', 'street_id': '0e62856ab8f9056f9c09f78b', 'detail': 1, 'uid': '0e62856ab8f9056f9c09f78b', 'detail_info': {'tag': '休闲娱乐;游戏场所', 'type': 'life', 'detail_url': 'http://api.map.baidu.com/place/detail?uid=0e62856ab8f9056f9c09f78b&output=html&source=placeapi_v2', 'price': '20', 'overall_rating': '4.6', 'image_num': '43', 'comment_num': '56'}}"
"{'name': '蜗牛向上桌游吧', 'location': {'lat': 34.269442, 'lng': 108.95242}, 'address': '北大街宏府嘉会广场B座10层10004室', 'street_id': '0e62856ab8f9056f9c09f78b', 'detail': 1, 'uid': '0e62856ab8f9056f9c09f78b', 'detail_info': {'tag': '休闲娱乐;游戏场所', 'type': 'life', 'detail_url': 'http://api.map.baidu.com/place/detail?uid=0e62856ab8f9056f9c09f78b&output=html&source=placeapi_v2', 'price': '20', 'overall_rating': '4.6', 'image_num': '43', 'comment_num': '56'}}"
海福地国际会所,108.91595292907675,34.260714376965005,11212bfa4a81ba78b75f1e60,"{'name': '海福地国际会所', 'location': {'lat': 34.264944, 'lng': 108.92711}, 'address': '西关正街52', 'street_id': '11212bfa4a81ba78b75f1e60', 'detail': 1, 'uid': '11212bfa4a81ba78b75f1e60', 'detail_info': {'tag': '休闲娱乐;歌舞厅', 'type': 'life', 'detail_url': 'http://api.map.baidu.com/place/detail?uid=11212bfa4a81ba78b75f1e60&output=html&source=placeapi_v2', 'price': '100.0', 'overall_rating': '4', 'image_num': '9', 'comment_num': '2'}}"
"{'name': '海福地国际会所', 'location': {'lat': 34.264944, 'lng': 108.92711}, 'address': '西关正街52', 'street_id': '11212bfa4a81ba78b75f1e60', 'detail': 1, 'uid': '11212bfa4a81ba78b75f1e60', 'detail_info': {'tag': '休闲娱乐;歌舞厅', 'type': 'life', 'detail_url': 'http://api.map.baidu.com/place/detail?uid=11212bfa4a81ba78b75f1e60&output=html&source=placeapi_v2', 'price': '100.0', 'overall_rating': '4', 'image_num': '9', 'comment_num': '2'}}"
博泰洗浴会所,108.93410344632133,34.25865481792325,3ae656654f5dd2062bb97c0c,"{'name': '博泰洗浴会所', 'location': {'lat': 34.263205, 'lng': 108.945207}, 'address': '南广济街6号博泰大酒店B1楼(百盛对面)', 'street_id': '3ae656654f5dd2062bb97c0c', 'detail': 1, 'uid': '3ae656654f5dd2062bb97c0c', 'detail_info': {'tag': '休闲娱乐;洗浴按摩', 'type': 'life', 'detail_url': 'http://api.map.baidu.com/place/detail?uid=3ae656654f5dd2062bb97c0c&output=html&source=placeapi_v2', 'overall_rating': '4.3', 'image_num': '4', 'comment_num': '6'}}"
"{'name': '博泰洗浴会所', 'location': {'lat': 34.263205, 'lng': 108.945207}, 'address': '南广济街6号博泰大酒店B1楼(百盛对面)', 'street_id': '3ae656654f5dd2062bb97c0c', 'detail': 1, 'uid': '3ae656654f5dd2062bb97c0c', 'detail_info': {'tag': '休闲娱乐;洗浴按摩', 'type': 'life', 'detail_url': 'http://api.map.baidu.com/place/detail?uid=3ae656654f5dd2062bb97c0c&output=html&source=placeapi_v2', 'overall_rating': '4.3', 'image_num': '4', 'comment_num': '6'}}"
开宝按摩,108.92348625913972,34.262597500838055,a9d20f2846af9c542a02e13b,"{'name': '开宝按摩', 'location': {'lat': 34.266957, 'lng': 108.934617}, 'address': '西举院巷72号(西安儿童医院南门向东80米路南)', 'street_id': 'a9d20f2846af9c542a02e13b', 'telephone': '13572054266', 'detail': 1, 'uid': 'a9d20f2846af9c542a02e13b', 'detail_info': {'tag': '休闲娱乐;洗浴按摩', 'type': 'life', 'detail_url': 'http://api.map.baidu.com/place/detail?uid=a9d20f2846af9c542a02e13b&output=html&source=placeapi_v2', 'price': '60', 'overall_rating': '4.4', 'image_num': '39', 'comment_num': '27'}}"
"{'name': '开宝按摩', 'location': {'lat': 34.266957, 'lng': 108.934617}, 'address': '西举院巷72号(西安儿童医院南门向东80米路南)', 'street_id': 'a9d20f2846af9c542a02e13b', 'telephone': '13572054266', 'detail': 1, 'uid': 'a9d20f2846af9c542a02e13b', 'detail_info': {'tag': '休闲娱乐;洗浴按摩', 'type': 'life', 'detail_url': 'http://api.map.baidu.com/place/detail?uid=a9d20f2846af9c542a02e13b&output=html&source=placeapi_v2', 'price': '60', 'overall_rating': '4.4', 'image_num': '39', 'comment_num': '27'}}"
郑远元专业修脚房(柴家什字分店),108.92522483019663,34.258063094312526,9b06bea5282d11674c3a59bf,"{'name': '郑远元专业修脚房(柴家什字分店)', 'location': {'lat': 34.262454, 'lng': 108.936354}, 'address': '陕西省西安市莲湖区柴家什字50', 'street_id': '9b06bea5282d11674c3a59bf', 'detail': 1, 'uid': '9b06bea5282d11674c3a59bf', 'detail_info': {'tag': '休闲娱乐;洗浴按摩', 'type': 'life', 'detail_url': 'http://api.map.baidu.com/place/detail?uid=9b06bea5282d11674c3a59bf&output=html&source=placeapi_v2', 'price': '32.5', 'overall_rating': '3.4', 'image_num': '4', 'comment_num': '6'}}"
"{'name': '郑远元专业修脚房(柴家什字分店)', 'location': {'lat': 34.262454, 'lng': 108.936354}, 'address': '陕西省西安市莲湖区柴家什字50', 'street_id': '9b06bea5282d11674c3a59bf', 'detail': 1, 'uid': '9b06bea5282d11674c3a59bf', 'detail_info': {'tag': '休闲娱乐;洗浴按摩', 'type': 'life', 'detail_url': 'http://api.map.baidu.com/place/detail?uid=9b06bea5282d11674c3a59bf&output=html&source=placeapi_v2', 'price': '32.5', 'overall_rating': '3.4', 'image_num': '4', 'comment_num': '6'}}"
大冰的小屋,108.9407935876303,34.25373552341342,fa7dd85a3246a3e4f5c59cb1,"{'name': '大冰的小屋', 'location': {'lat': 34.258389, 'lng': 108.951891}, 'address': '陕西省西安市碑林区湘子庙街22号', 'detail': 1, 'uid': 'fa7dd85a3246a3e4f5c59cb1', 'detail_info': {'tag': '美食;酒吧', 'type': 'life', 'detail_url': 'http://api.map.baidu.com/place/detail?uid=fa7dd85a3246a3e4f5c59cb1&output=html&source=placeapi_v2', 'overall_rating': '3', 'image_num': '2', 'comment_num': '2'}}"
"{'name': '大冰的小屋', 'location': {'lat': 34.258389, 'lng': 108.951891}, 'address': '陕西省西安市碑林区湘子庙街22号', 'detail': 1, 'uid': 'fa7dd85a3246a3e4f5c59cb1', 'detail_info': {'tag': '美食;酒吧', 'type': 'life', 'detail_url': 'http://api.map.baidu.com/place/detail?uid=fa7dd85a3246a3e4f5c59cb1&output=html&source=placeapi_v2', 'overall_rating': '3', 'image_num': '2', 'comment_num': '2'}}"
百草堂足疗中心(朱雀门店),108.93403503317164,34.25496725433336,3deba14f6b13af0bd618b72e,"{'name': '百草堂足疗中心(朱雀门店)', 'location': {'lat': 34.259516, 'lng': 108.945142}, 'address': ':陕西省西安市碑林区南广济街30柠檬酒店朱雀店2楼', 'street_id': '4d9a5738b035716e8c55ece2', 'detail': 1, 'uid': '3deba14f6b13af0bd618b72e', 'detail_info': {'tag': '休闲娱乐;洗浴按摩', 'navi_location': {'lng': 108.94533039789, 'lat': 34.259587438125}, 'type': 'life', 'detail_url': 'http://api.map.baidu.com/place/detail?uid=3deba14f6b13af0bd618b72e&output=html&source=placeapi_v2', 'price': '159', 'overall_rating': '3.3', 'image_num': '149', 'comment_num': '0'}}"
"{'name': '百草堂足疗中心(朱雀门店)', 'location': {'lat': 34.259516, 'lng': 108.945142}, 'address': ':陕西省西安市碑林区南广济街30柠檬酒店朱雀店2楼', 'street_id': '4d9a5738b035716e8c55ece2', 'detail': 1, 'uid': '3deba14f6b13af0bd618b72e', 'detail_info': {'tag': '休闲娱乐;洗浴按摩', 'navi_location': {'lng': 108.94533039789, 'lat': 34.259587438125}, 'type': 'life', 'detail_url': 'http://api.map.baidu.com/place/detail?uid=3deba14f6b13af0bd618b72e&output=html&source=placeapi_v2', 'price': '159', 'overall_rating': '3.3', 'image_num': '149', 'comment_num': '0'}}"
老字号智超盲人按摩中心,108.92638484667164,34.262794509334775,ae9f185bdefe0c93badf8fe7,"{'name': '老字号智超盲人按摩中心', 'location': {'lat': 34.267207, 'lng': 108.937506}, 'address': '西大街东举院巷38号', 'street_id': 'ae9f185bdefe0c93badf8fe7', 'detail': 1, 'uid': 'ae9f185bdefe0c93badf8fe7', 'detail_info': {'tag': '休闲娱乐;洗浴按摩', 'type': 'life', 'detail_url': 'http://api.map.baidu.com/place/detail?uid=ae9f185bdefe0c93badf8fe7&output=html&source=placeapi_v2', 'price': '17', 'overall_rating': '5', 'image_num': '13', 'comment_num': '4'}}"
"{'name': '老字号智超盲人按摩中心', 'location': {'lat': 34.267207, 'lng': 108.937506}, 'address': '西大街东举院巷38号', 'street_id': 'ae9f185bdefe0c93badf8fe7', 'detail': 1, 'uid': 'ae9f185bdefe0c93badf8fe7', 'detail_info': {'tag': '休闲娱乐;洗浴按摩', 'type': 'life', 'detail_url': 'http://api.map.baidu.com/place/detail?uid=ae9f185bdefe0c93badf8fe7&output=html&source=placeapi_v2', 'price': '17', 'overall_rating': '5', 'image_num': '13', 'comment_num': '4'}}"
清见洗浴,108.93523069083871,34.25736501794664,0adce3e2803cfa6180a00c03,"{'name': '清见洗浴', 'location': {'lat': 34.261934, 'lng': 108.946333}, 'address': '碑林区南院门53号（靠近粉巷好乐迪KTV）', 'street_id': '0adce3e2803cfa6180a00c03', 'detail': 1, 'uid': '0adce3e2803cfa6180a00c03', 'detail_info': {'tag': '休闲娱乐;洗浴按摩', 'navi_location': {'lng': 108.94631262759, 'lat': 34.261766715694}, 'type': 'life', 'detail_url': 'http://api.map.baidu.com/place/detail?uid=0adce3e2803cfa6180a00c03&output=html&source=placeapi_v2', 'price': '76', 'overall_rating': '3', 'image_num': '63', 'comment_num': '0'}}"
"{'name': '清见洗浴', 'location': {'lat': 34.261934, 'lng': 108.946333}, 'address': '碑林区南院门53号（靠近粉巷好乐迪KTV）', 'street_id': '0adce3e2803cfa6180a00c03', 'detail': 1, 'uid': '0adce3e2803cfa6180a00c03', 'detail_info': {'tag': '休闲娱乐;洗浴按摩', 'navi_location': {'lng': 108.94631262759, 'lat': 34.261766715694}, 'type': 'life', 'detail_url': 'http://api.map.baidu.com/place/detail?uid=0adce3e2803cfa6180a00c03&output=html&source=placeapi_v2', 'price': '76', 'overall_rating': '3', 'image_num': '63', 'comment_num': '0'}}"
钟鼓楼广场,108.94060236049425,34.26151756517777,d6df91c16cc0c86af7b9164d,"{'name': '钟鼓楼广场', 'location': {'lat': 34.266169, 'lng': 108.951693}, 'address': '陕西省西安市莲湖区北院门街道西大街1号', 'street_id': 'd6df91c16cc0c86af7b9164d', 'detail': 1, 'uid': 'd6df91c16cc0c86af7b9164d', 'detail_info': {'tag': '休闲娱乐;休闲广场', 'navi_location': {'lng': 108.94995719049, 'lat': 34.266173614502}, 'type': 'life', 'detail_url': 'http://api.map.baidu.com/place/detail?uid=d6df91c16cc0c86af7b9164d&output=html&source=placeapi_v2', 'overall_rating': '4.5', 'image_num': '9', 'comment_num': '7'}}"
"{'name': '钟鼓楼广场', 'location': {'lat': 34.266169, 'lng': 108.951693}, 'address': '陕西省西安市莲湖区北院门街道西大街1号', 'street_id': 'd6df91c16cc0c86af7b9164d', 'detail': 1, 'uid': 'd6df91c16cc0c86af7b9164d', 'detail_info': {'tag': '休闲娱乐;休闲广场', 'navi_location': {'lng': 108.94995719049, 'lat': 34.266173614502}, 'type': 'life', 'detail_url': 'http://api.map.baidu.com/place/detail?uid=d6df91c16cc0c86af7b9164d&output=html&source=placeapi_v2', 'overall_rating': '4.5', 'image_num': '9', 'comment_num': '7'}}"
御锦轩足道,108.91658545807496,34.261320200571845,7b4d5dbc51222a67871541fe,"{'name': '御锦轩足道', 'location': {'lat': 34.26556, 'lng': 108.92774}, 'address': '西关街道西关正街49号(万景商务酒店二楼)', 'street_id': '7b4d5dbc51222a67871541fe', 'detail': 1, 'uid': '7b4d5dbc51222a67871541fe', 'detail_info': {'tag': '休闲娱乐;洗浴按摩', 'navi_location': {'lng': 108.92770744579, 'lat': 34.265294318764}, 'type': 'life', 'detail_url': 'http://api.map.baidu.com/place/detail?uid=7b4d5dbc51222a67871541fe&output=html&source=placeapi_v2', 'price': '128', 'overall_rating': '4.3', 'image_num': '68', 'comment_num': '19'}}"
"{'name': '御锦轩足道', 'location': {'lat': 34.26556, 'lng': 108.92774}, 'address': '西关街道西关正街49号(万景商务酒店二楼)', 'street_id': '7b4d5dbc51222a67871541fe', 'detail': 1, 'uid': '7b4d5dbc51222a67871541fe', 'detail_info': {'tag': '休闲娱乐;洗浴按摩', 'navi_location': {'lng': 108.92770744579, 'lat': 34.265294318764}, 'type': 'life', 'detail_url': 'http://api.map.baidu.com/place/detail?uid=7b4d5dbc51222a67871541fe&output=html&source=placeapi_v2', 'price': '128', 'overall_rating': '4.3', 'image_num': '68', 'comment_num': '19'}}"
李氏推拿(朱雀店),108.93316677837697,34.25226736847953,2c0bd6c51a5bf2a943ab9ad4,"{'name': '李氏推拿(朱雀店)', 'location': {'lat': 34.256801, 'lng': 108.944278}, 'address': '朱雀门外西南角丽豪酒店一层', 'street_id': '2c0bd6c51a5bf2a943ab9ad4', 'detail': 1, 'uid': '2c0bd6c51a5bf2a943ab9ad4', 'detail_info': {'tag': '休闲娱乐;洗浴按摩', 'type': 'life', 'detail_url': 'http://api.map.baidu.com/place/detail?uid=2c0bd6c51a5bf2a943ab9ad4&output=html&source=placeapi_v2', 'price': '50.0', 'overall_rating': '3.8', 'image_num': '15'}}"
"{'name': '李氏推拿(朱雀店)', 'location': {'lat': 34.256801, 'lng': 108.944278}, 'address': '朱雀门外西南角丽豪酒店一层', 'street_id': '2c0bd6c51a5bf2a943ab9ad4', 'detail': 1, 'uid': '2c0bd6c51a5bf2a943ab9ad4', 'detail_info': {'tag': '休闲娱乐;洗浴按摩', 'type': 'life', 'detail_url': 'http://api.map.baidu.com/place/detail?uid=2c0bd6c51a5bf2a943ab9ad4&output=html&source=placeapi_v2', 'price': '50.0', 'overall_rating': '3.8', 'image_num': '15'}}"
华康推拿,108.93482317259189,34.25056739233569,e44b312acf7d58e9931fc9e4,"{'name': '华康推拿', 'location': {'lat': 34.255129, 'lng': 108.945932}, 'address': '西安市碑林区朱雀大街北段153号', 'street_id': 'e44b312acf7d58e9931fc9e4', 'detail': 1, 'uid': 'e44b312acf7d58e9931fc9e4', 'detail_info': {'tag': '休闲娱乐;洗浴按摩', 'navi_location': {'lng': 108.9457573607, 'lat': 34.255127258745}, 'type': 'life', 'detail_url': 'http://api.map.baidu.com/place/detail?uid=e44b312acf7d58e9931fc9e4&output=html&source=placeapi_v2', 'price': '62', 'overall_rating': '5', 'image_num': '33', 'comment_num': '2'}}"
"{'name': '华康推拿', 'location': {'lat': 34.255129, 'lng': 108.945932}, 'address': '西安市碑林区朱雀大街北段153号', 'street_id': 'e44b312acf7d58e9931fc9e4', 'detail': 1, 'uid': 'e44b312acf7d58e9931fc9e4', 'detail_info': {'tag': '休闲娱乐;洗浴按摩', 'navi_location': {'lng': 108.9457573607, 'lat': 34.255127258745}, 'type': 'life', 'detail_url': 'http://api.map.baidu.com/place/detail?uid=e44b312acf7d58e9931fc9e4&output=html&source=placeapi_v2', 'price': '62', 'overall_rating': '5', 'image_num': '33', 'comment_num': '2'}}"
火凤凰,108.93150136660813,34.26115784526117,a0ddd3bdc5d5bf75f32d8356,"{'name': '火凤凰', 'location': {'lat': 34.265663, 'lng': 108.942609}, 'address': '西安市莲湖区西大街139号', 'street_id': 'a0ddd3bdc5d5bf75f32d8356', 'detail': 1, 'uid': 'a0ddd3bdc5d5bf75f32d8356', 'detail_info': {'tag': '休闲娱乐;歌舞厅', 'type': 'life', 'detail_url': 'http://api.map.baidu.com/place/detail?uid=a0ddd3bdc5d5bf75f32d8356&output=html&source=placeapi_v2', 'image_num': '2', 'comment_num': '1'}}"
"{'name': '火凤凰', 'location': {'lat': 34.265663, 'lng': 108.942609}, 'address': '西安市莲湖区西大街139号', 'street_id': 'a0ddd3bdc5d5bf75f32d8356', 'detail': 1, 'uid': 'a0ddd3bdc5d5bf75f32d8356', 'detail_info': {'tag': '休闲娱乐;歌舞厅', 'type': 'life', 'detail_url': 'http://api.map.baidu.com/place/detail?uid=a0ddd3bdc5d5bf75f32d8356&output=html&source=placeapi_v2', 'image_num': '2', 'comment_num': '1'}}"
东来网咖,108.93574920966037,34.25791445341376,7959cc7b0011d89c80a00cb0,"{'name': '东来网咖', 'location': {'lat': 34.262492, 'lng': 108.94685}, 'address': '陕西省西安市碑林区院门巷7号', 'street_id': '7959cc7b0011d89c80a00cb0', 'detail': 1, 'uid': '7959cc7b0011d89c80a00cb0', 'detail_info': {'tag': '休闲娱乐;网吧', 'type': 'life', 'detail_url': 'http://api.map.baidu.com/place/detail?uid=7959cc7b0011d89c80a00cb0&output=html&source=placeapi_v2', 'overall_rating': '5', 'image_num': '1', 'comment_num': '2'}}"
"{'name': '东来网咖', 'location': {'lat': 34.262492, 'lng': 108.94685}, 'address': '陕西省西安市碑林区院门巷7号', 'street_id': '7959cc7b0011d89c80a00cb0', 'detail': 1, 'uid': '7959cc7b0011d89c80a00cb0', 'detail_info': {'tag': '休闲娱乐;网吧', 'type': 'life', 'detail_url': 'http://api.map.baidu.com/place/detail?uid=7959cc7b0011d89c80a00cb0&output=html&source=placeapi_v2', 'overall_rating': '5', 'image_num': '1', 'comment_num': '2'}}"
熊与蜜糖DIY翻糖蛋糕（清真）,108.93917292314424,34.2637468111569,d5eaa1c890d647f2f6b916f5,"{'name': '熊与蜜糖DIY翻糖蛋糕（清真）', 'location': {'lat': 34.268378, 'lng': 108.950263}, 'address': '北院门111号贾三灌汤包隔壁院内', 'street_id': 'd5eaa1c890d647f2f6b916f5', 'telephone': '18165317681', 'detail': 1, 'uid': 'd5eaa1c890d647f2f6b916f5', 'detail_info': {'tag': '美食;蛋糕甜品店', 'type': 'life', 'detail_url': 'http://api.map.baidu.com/place/detail?uid=d5eaa1c890d647f2f6b916f5&output=html&source=placeapi_v2', 'overall_rating': '4.7', 'image_num': '79', 'comment_num': '11'}}"
"{'name': '熊与蜜糖DIY翻糖蛋糕（清真）', 'location': {'lat': 34.268378, 'lng': 108.950263}, 'address': '北院门111号贾三灌汤包隔壁院内', 'street_id': 'd5eaa1c890d647f2f6b916f5', 'telephone': '18165317681', 'detail': 1, 'uid': 'd5eaa1c890d647f2f6b916f5', 'detail_info': {'tag': '美食;蛋糕甜品店', 'type': 'life', 'detail_url': 'http://api.map.baidu.com/place/detail?uid=d5eaa1c890d647f2f6b916f5&output=html&source=placeapi_v2', 'overall_rating': '4.7', 'image_num': '79', 'comment_num': '11'}}"
美丽人生大舞厅,108.91727050484945,34.26008511212018,28b1b48ff37ebb13d1f49ee3,"{'name': '美丽人生大舞厅', 'location': {'lat': 34.264336, 'lng': 108.928424}, 'address': '西安市莲湖区西关正街48号', 'street_id': '28b1b48ff37ebb13d1f49ee3', 'detail': 1, 'uid': '28b1b48ff37ebb13d1f49ee3', 'detail_info': {'tag': '休闲娱乐;歌舞厅', 'navi_location': {'lng': 108.92826561151, 'lat': 34.264366644438}, 'type': 'life', 'detail_url': 'http://api.map.baidu.com/place/detail?uid=28b1b48ff37ebb13d1f49ee3&output=html&source=placeapi_v2', 'overall_rating': '5', 'image_num': '3', 'comment_num': '2'}}"
"{'name': '美丽人生大舞厅', 'location': {'lat': 34.264336, 'lng': 108.928424}, 'address': '西安市莲湖区西关正街48号', 'street_id': '28b1b48ff37ebb13d1f49ee3', 'detail': 1, 'uid': '28b1b48ff37ebb13d1f49ee3', 'detail_info': {'tag': '休闲娱乐;歌舞厅', 'navi_location': {'lng': 108.92826561151, 'lat': 34.264366644438}, 'type': 'life', 'detail_url': 'http://api.map.baidu.com/place/detail?uid=28b1b48ff37ebb13d1f49ee3&output=html&source=placeapi_v2', 'overall_rating': '5', 'image_num': '3', 'comment_num': '2'}}"
天阁ktv,108.91845821990985,34.25181295651896,0fa34d070d2ddebe43024578,"{'name': '天阁ktv', 'location': {'lat': 34.256083, 'lng': 108.929615}, 'address': '西安市碑林区丰庆路2A号水司十字西南角迎宾广场4-5楼', 'street_id': '0fa34d070d2ddebe43024578', 'detail': 1, 'uid': '0fa34d070d2ddebe43024578', 'detail_info': {'tag': '休闲娱乐;ktv', 'type': 'life', 'detail_url': 'http://api.map.baidu.com/place/detail?uid=0fa34d070d2ddebe43024578&output=html&source=placeapi_v2', 'overall_rating': '5', 'image_num': '7', 'comment_num': '2'}}"
"{'name': '天阁ktv', 'location': {'lat': 34.256083, 'lng': 108.929615}, 'address': '西安市碑林区丰庆路2A号水司十字西南角迎宾广场4-5楼', 'street_id': '0fa34d070d2ddebe43024578', 'detail': 1, 'uid': '0fa34d070d2ddebe43024578', 'detail_info': {'tag': '休闲娱乐;ktv', 'type': 'life', 'detail_url': 'http://api.map.baidu.com/place/detail?uid=0fa34d070d2ddebe43024578&output=html&source=placeapi_v2', 'overall_rating': '5', 'image_num': '7', 'comment_num': '2'}}"
星美国际影城(西大街店),108.9298976407659,34.260803570410985,d5464cf82b5b774efca778e6,"{'name': '星美国际影城(西大街店)', 'location': {'lat': 34.26528, 'lng': 108.94101}, 'address': '西安市莲湖区西大街桥梓口170号正阳名家国际家居广场5楼', 'street_id': 'd5464cf82b5b774efca778e6', 'detail': 1, 'uid': 'd5464cf82b5b774efca778e6', 'detail_info': {'tag': '休闲娱乐;电影院', 'type': 'life', 'detail_url': 'http://api.map.baidu.com/place/detail?uid=d5464cf82b5b774efca778e6&output=html&source=placeapi_v2', 'price': '32', 'overall_rating': '3.9', 'service_rating': '0', 'environment_rating': '0', 'comment_num': '1656'}}"
"{'name': '星美国际影城(西大街店)', 'location': {'lat': 34.26528, 'lng': 108.94101}, 'address': '西安市莲湖区西大街桥梓口170号正阳名家国际家居广场5楼', 'street_id': 'd5464cf82b5b774efca778e6', 'detail': 1, 'uid': 'd5464cf82b5b774efca778e6', 'detail_info': {'tag': '休闲娱乐;电影院', 'type': 'life', 'detail_url': 'http://api.map.baidu.com/place/detail?uid=d5464cf82b5b774efca778e6&output=html&source=placeapi_v2', 'price': '32', 'overall_rating': '3.9', 'service_rating': '0', 'environment_rating': '0', 'comment_num': '1656'}}"
西安市碑林区仁和舞厅,108.93896655966789,34.26034310039316,38e48037ebc2bd50363a7184,"{'name': '西安市碑林区仁和舞厅', 'location': {'lat': 34.264971, 'lng': 108.95006}, 'address': '竹笆市69号旁', 'street_id': '38e48037ebc2bd50363a7184', 'detail': 1, 'uid': '38e48037ebc2bd50363a7184', 'detail_info': {'tag': '休闲娱乐;歌舞厅', 'navi_location': {'lng': 108.94991467549, 'lat': 34.264868451665}, 'type': 'life', 'detail_url': 'http://api.map.baidu.com/place/detail?uid=38e48037ebc2bd50363a7184&output=html&source=placeapi_v2', 'overall_rating': '3', 'image_num': '10', 'comment_num': '2'}}"
"{'name': '西安市碑林区仁和舞厅', 'location': {'lat': 34.264971, 'lng': 108.95006}, 'address': '竹笆市69号旁', 'street_id': '38e48037ebc2bd50363a7184', 'detail': 1, 'uid': '38e48037ebc2bd50363a7184', 'detail_info': {'tag': '休闲娱乐;歌舞厅', 'navi_location': {'lng': 108.94991467549, 'lat': 34.264868451665}, 'type': 'life', 'detail_url': 'http://api.map.baidu.com/place/detail?uid=38e48037ebc2bd50363a7184&output=html&source=placeapi_v2', 'overall_rating': '3', 'image_num': '10', 'comment_num': '2'}}"
神游网络电竞,108.93158106488971,34.253811973648794,d252f1a3437d71611c389477,"{'name': '神游网络电竞', 'location': {'lat': 34.258318, 'lng': 108.942695}, 'address': '小南门里保吉巷2号3楼(老兰家小南门店2楼)', 'street_id': '825b285f2fc02d5325d2bba9', 'detail': 1, 'uid': 'd252f1a3437d71611c389477', 'detail_info': {'tag': '休闲娱乐;网吧', 'navi_location': {'lng': 108.94269185902, 'lat': 34.258186974142}, 'type': 'life', 'detail_url': 'http://api.map.baidu.com/place/detail?uid=d252f1a3437d71611c389477&output=html&source=placeapi_v2', 'overall_rating': '2.7', 'image_num': '9', 'comment_num': '5'}}"
"{'name': '神游网络电竞', 'location': {'lat': 34.258318, 'lng': 108.942695}, 'address': '小南门里保吉巷2号3楼(老兰家小南门店2楼)', 'street_id': '825b285f2fc02d5325d2bba9', 'detail': 1, 'uid': 'd252f1a3437d71611c389477', 'detail_info': {'tag': '休闲娱乐;网吧', 'navi_location': {'lng': 108.94269185902, 'lat': 34.258186974142}, 'type': 'life', 'detail_url': 'http://api.map.baidu.com/place/detail?uid=d252f1a3437d71611c389477&output=html&source=placeapi_v2', 'overall_rating': '2.7', 'image_num': '9', 'comment_num': '5'}}"
费加罗婚纱影城,108.94270000538263,34.25530931775518,e7cda6e27122cfb454bfffd8,"{'name': '费加罗婚纱影城', 'location': {'lat': 34.259988, 'lng': 108.953795}, 'address': '南大街3号西北水电博水商务大厦西1层底商', 'street_id': '82be39718121d6facf06a488', 'telephone': '(029)87268618,4000308610', 'detail': 1, 'uid': 'e7cda6e27122cfb454bfffd8', 'detail_info': {'tag': '休闲娱乐;电影院', 'navi_location': {'lng': 108.95354501731, 'lat': 34.259852285691}, 'type': 'life', 'detail_url': 'http://api.map.baidu.com/place/detail?uid=e7cda6e27122cfb454bfffd8&output=html&source=placeapi_v2', 'overall_rating': '2', 'image_num': '30', 'comment_num': '7'}}"
"{'name': '费加罗婚纱影城', 'location': {'lat': 34.259988, 'lng': 108.953795}, 'address': '南大街3号西北水电博水商务大厦西1层底商', 'street_id': '82be39718121d6facf06a488', 'telephone': '(029)87268618,4000308610', 'detail': 1, 'uid': 'e7cda6e27122cfb454bfffd8', 'detail_info': {'tag': '休闲娱乐;电影院', 'navi_location': {'lng': 108.95354501731, 'lat': 34.259852285691}, 'type': 'life', 'detail_url': 'http://api.map.baidu.com/place/detail?uid=e7cda6e27122cfb454bfffd8&output=html&source=placeapi_v2', 'overall_rating': '2', 'image_num': '30', 'comment_num': '7'}}"
锦绣泉,108.93458136084432,34.25626592420833,73826d1caea6c8ce4557262c,"{'name': '锦绣泉', 'location': {'lat': 34.260824, 'lng': 108.945686}, 'address': '碑林区二环路沿线商业经济带南广济街49号', 'street_id': '73826d1caea6c8ce4557262c', 'detail': 1, 'uid': '73826d1caea6c8ce4557262c', 'detail_info': {'tag': '休闲娱乐;洗浴按摩', 'navi_location': {'lng': 108.94560594143, 'lat': 34.260772323117}, 'type': 'life', 'detail_url': 'http://api.map.baidu.com/place/detail?uid=73826d1caea6c8ce4557262c&output=html&source=placeapi_v2', 'overall_rating': '3.0', 'image_num': '7', 'comment_num': '1'}}"
"{'name': '锦绣泉', 'location': {'lat': 34.260824, 'lng': 108.945686}, 'address': '碑林区二环路沿线商业经济带南广济街49号', 'street_id': '73826d1caea6c8ce4557262c', 'detail': 1, 'uid': '73826d1caea6c8ce4557262c', 'detail_info': {'tag': '休闲娱乐;洗浴按摩', 'navi_location': {'lng': 108.94560594143, 'lat': 34.260772323117}, 'type': 'life', 'detail_url': 'http://api.map.baidu.com/place/detail?uid=73826d1caea6c8ce4557262c&output=html&source=placeapi_v2', 'overall_rating': '3.0', 'image_num': '7', 'comment_num': '1'}}"
玉竹堂足道,108.91616713451177,34.26130592427184,93cb0fa72bb6aaccf32d838c,"{'name': '玉竹堂足道', 'location': {'lat': 34.265539, 'lng': 108.927323}, 'address': '西门外西关正街粥王府三楼', 'street_id': '93cb0fa72bb6aaccf32d838c', 'detail': 1, 'uid': '93cb0fa72bb6aaccf32d838c', 'detail_info': {'tag': '休闲娱乐;洗浴按摩', 'type': 'life', 'detail_url': 'http://api.map.baidu.com/place/detail?uid=93cb0fa72bb6aaccf32d838c&output=html&source=placeapi_v2', 'overall_rating': '4', 'image_num': '27', 'comment_num': '5'}}"
"{'name': '玉竹堂足道', 'location': {'lat': 34.265539, 'lng': 108.927323}, 'address': '西门外西关正街粥王府三楼', 'street_id': '93cb0fa72bb6aaccf32d838c', 'detail': 1, 'uid': '93cb0fa72bb6aaccf32d838c', 'detail_info': {'tag': '休闲娱乐;洗浴按摩', 'type': 'life', 'detail_url': 'http://api.map.baidu.com/place/detail?uid=93cb0fa72bb6aaccf32d838c&output=html&source=placeapi_v2', 'overall_rating': '4', 'image_num': '27', 'comment_num': '5'}}"
星岛网咖私人影院,108.93481169011572,34.25943383832934,1aa0f09d39ce01df82a12e61,"{'name': '星岛网咖私人影院', 'location': {'lat': 34.263996, 'lng': 108.945913}, 'address': '陕西省西安市碑林区西大街与南广济街十字东南角南广济街小区北20米', 'street_id': '1aa0f09d39ce01df82a12e61', 'detail': 1, 'uid': '1aa0f09d39ce01df82a12e61', 'detail_info': {'tag': '休闲娱乐', 'type': 'life', 'detail_url': 'http://api.map.baidu.com/place/detail?uid=1aa0f09d39ce01df82a12e61&output=html&source=placeapi_v2', 'overall_rating': '3.9', 'image_num': '17', 'comment_num': '10'}}"
"{'name': '星岛网咖私人影院', 'location': {'lat': 34.263996, 'lng': 108.945913}, 'address': '陕西省西安市碑林区西大街与南广济街十字东南角南广济街小区北20米', 'street_id': '1aa0f09d39ce01df82a12e61', 'detail': 1, 'uid': '1aa0f09d39ce01df82a12e61', 'detail_info': {'tag': '休闲娱乐', 'type': 'life', 'detail_url': 'http://api.map.baidu.com/place/detail?uid=1aa0f09d39ce01df82a12e61&output=html&source=placeapi_v2', 'overall_rating': '3.9', 'image_num': '17', 'comment_num': '10'}}"
康桥大舞厅,108.91825851684412,34.25879375114042,af1ae56b3a750c6f4207c105,"{'name': '康桥大舞厅', 'location': {'lat': 34.263061, 'lng': 108.92941}, 'address': '八佳路1号', 'street_id': 'af1ae56b3a750c6f4207c105', 'detail': 1, 'uid': 'af1ae56b3a750c6f4207c105', 'detail_info': {'tag': '休闲娱乐;歌舞厅', 'navi_location': {'lng': 108.92941042283, 'lat': 34.262925778877}, 'type': 'life', 'detail_url': 'http://api.map.baidu.com/place/detail?uid=af1ae56b3a750c6f4207c105&output=html&source=placeapi_v2', 'overall_rating': '2.3', 'image_num': '6', 'comment_num': '4'}}"
"{'name': '康桥大舞厅', 'location': {'lat': 34.263061, 'lng': 108.92941}, 'address': '八佳路1号', 'street_id': 'af1ae56b3a750c6f4207c105', 'detail': 1, 'uid': 'af1ae56b3a750c6f4207c105', 'detail_info': {'tag': '休闲娱乐;歌舞厅', 'navi_location': {'lng': 108.92941042283, 'lat': 34.262925778877}, 'type': 'life', 'detail_url': 'http://api.map.baidu.com/place/detail?uid=af1ae56b3a750c6f4207c105&output=html&source=placeapi_v2', 'overall_rating': '2.3', 'image_num': '6', 'comment_num': '4'}}"
懂味茶铺子,108.92939462588623,34.259078784789125,4124094343457da68bf15df4,"{'name': '懂味茶铺子', 'location': {'lat': 34.263546, 'lng': 108.94051}, 'address': '梁家牌楼26号', 'street_id': '4124094343457da68bf15df4', 'detail': 1, 'uid': '4124094343457da68bf15df4', 'detail_info': {'tag': '美食;茶座', 'navi_location': {'lng': 108.94011760378, 'lat': 34.263709687816}, 'type': 'life', 'detail_url': 'http://api.map.baidu.com/place/detail?uid=4124094343457da68bf15df4&output=html&source=placeapi_v2', 'overall_rating': '4', 'image_num': '20', 'comment_num': '2'}}"
"{'name': '懂味茶铺子', 'location': {'lat': 34.263546, 'lng': 108.94051}, 'address': '梁家牌楼26号', 'street_id': '4124094343457da68bf15df4', 'detail': 1, 'uid': '4124094343457da68bf15df4', 'detail_info': {'tag': '美食;茶座', 'navi_location': {'lng': 108.94011760378, 'lat': 34.263709687816}, 'type': 'life', 'detail_url': 'http://api.map.baidu.com/place/detail?uid=4124094343457da68bf15df4&output=html&source=placeapi_v2', 'overall_rating': '4', 'image_num': '20', 'comment_num': '2'}}"
茗仁阁茶苑棋牌,108.91615253085882,34.258485353828505,4cf8d24ecf4ab0999cf7793e,"{'name': '茗仁阁茶苑棋牌', 'location': {'lat': 34.262718, 'lng': 108.927311}, 'address': '莲湖区西门外八佳巷6号(出租车管理处东侧)', 'street_id': '4cf8d24ecf4ab0999cf7793e', 'telephone': '15339050053', 'detail': 1, 'uid': '4cf8d24ecf4ab0999cf7793e', 'detail_info': {'tag': '美食;茶座', 'type': 'life', 'detail_url': 'http://api.map.baidu.com/place/detail?uid=4cf8d24ecf4ab0999cf7793e&output=html&source=placeapi_v2', 'price': '29', 'overall_rating': '5.0', 'image_num': '3'}}"
"{'name': '茗仁阁茶苑棋牌', 'location': {'lat': 34.262718, 'lng': 108.927311}, 'address': '莲湖区西门外八佳巷6号(出租车管理处东侧)', 'street_id': '4cf8d24ecf4ab0999cf7793e', 'telephone': '15339050053', 'detail': 1, 'uid': '4cf8d24ecf4ab0999cf7793e', 'detail_info': {'tag': '美食;茶座', 'type': 'life', 'detail_url': 'http://api.map.baidu.com/place/detail?uid=4cf8d24ecf4ab0999cf7793e&output=html&source=placeapi_v2', 'price': '29', 'overall_rating': '5.0', 'image_num': '3'}}"
玩酷网络,108.94269329084806,34.258996116569286,b6a8bf2ebeff58eec71e51c2,"{'name': '玩酷网络', 'location': {'lat': 34.263675, 'lng': 108.953785}, 'address': '南大街51号陕西文物大厦5楼', 'street_id': 'b6a8bf2ebeff58eec71e51c2', 'detail': 1, 'uid': 'b6a8bf2ebeff58eec71e51c2', 'detail_info': {'tag': '休闲娱乐;网吧', 'type': 'life', 'detail_url': 'http://api.map.baidu.com/place/detail?uid=b6a8bf2ebeff58eec71e51c2&output=html&source=placeapi_v2', 'overall_rating': '3.5', 'image_num': '11', 'comment_num': '2'}}"
"{'name': '玩酷网络', 'location': {'lat': 34.263675, 'lng': 108.953785}, 'address': '南大街51号陕西文物大厦5楼', 'street_id': 'b6a8bf2ebeff58eec71e51c2', 'detail': 1, 'uid': 'b6a8bf2ebeff58eec71e51c2', 'detail_info': {'tag': '休闲娱乐;网吧', 'type': 'life', 'detail_url': 'http://api.map.baidu.com/place/detail?uid=b6a8bf2ebeff58eec71e51c2&output=html&source=placeapi_v2', 'overall_rating': '3.5', 'image_num': '11', 'comment_num': '2'}}"
金笑舞厅,108.9314323744904,34.26136605461233,32c71acdc61b924f21f01761,"{'name': '金笑舞厅', 'location': {'lat': 34.26587, 'lng': 108.94254}, 'address': '西大街141号2层', 'street_id': '32c71acdc61b924f21f01761', 'detail': 1, 'uid': '32c71acdc61b924f21f01761', 'detail_info': {'tag': '休闲娱乐;歌舞厅', 'navi_location': {'lng': 108.94281354797, 'lat': 34.266027675174}, 'type': 'life', 'detail_url': 'http://api.map.baidu.com/place/detail?uid=32c71acdc61b924f21f01761&output=html&source=placeapi_v2', 'overall_rating': '1.7', 'image_num': '4', 'comment_num': '3'}}"
"{'name': '金笑舞厅', 'location': {'lat': 34.26587, 'lng': 108.94254}, 'address': '西大街141号2层', 'street_id': '32c71acdc61b924f21f01761', 'detail': 1, 'uid': '32c71acdc61b924f21f01761', 'detail_info': {'tag': '休闲娱乐;歌舞厅', 'navi_location': {'lng': 108.94281354797, 'lat': 34.266027675174}, 'type': 'life', 'detail_url': 'http://api.map.baidu.com/place/detail?uid=32c71acdc61b924f21f01761&output=html&source=placeapi_v2', 'overall_rating': '1.7', 'image_num': '4', 'comment_num': '3'}}"
2.0时代密室逃脱体验馆,108.94163161103484,34.26537031905606,30b538b627c22b6cd81318fd,"{'name': '2.0时代密室逃脱体验馆', 'location': {'lat': 34.270036, 'lng': 108.952718}, 'address': '西安市莲湖区二环路沿线商业经济带西华门大宏府嘉会广场C座6层', 'street_id': '30b538b627c22b6cd81318fd', 'detail': 1, 'uid': '30b538b627c22b6cd81318fd', 'detail_info': {'tag': '休闲娱乐', 'type': 'life', 'detail_url': 'http://api.map.baidu.com/place/detail?uid=30b538b627c22b6cd81318fd&output=html&source=placeapi_v2', 'overall_rating': '4.4', 'image_num': '158', 'comment_num': '43'}}"
"{'name': '2.0时代密室逃脱体验馆', 'location': {'lat': 34.270036, 'lng': 108.952718}, 'address': '西安市莲湖区二环路沿线商业经济带西华门大宏府嘉会广场C座6层', 'street_id': '30b538b627c22b6cd81318fd', 'detail': 1, 'uid': '30b538b627c22b6cd81318fd', 'detail_info': {'tag': '休闲娱乐', 'type': 'life', 'detail_url': 'http://api.map.baidu.com/place/detail?uid=30b538b627c22b6cd81318fd&output=html&source=placeapi_v2', 'overall_rating': '4.4', 'image_num': '158', 'comment_num': '43'}}"
爱乐堡儿童游乐园,108.92226266543747,34.26200863660442,e0bb988417228243e81e97fb,"{'name': '爱乐堡儿童游乐园', 'location': {'lat': 34.266346, 'lng': 108.933398}, 'address': '西大街聚源小区A区4幢一层', 'street_id': 'deca4ad88363845480a00c84', 'detail': 1, 'uid': 'e0bb988417228243e81e97fb', 'detail_info': {'tag': '旅游景点;游乐园', 'type': 'life', 'detail_url': 'http://api.map.baidu.com/place/detail?uid=e0bb988417228243e81e97fb&output=html&source=placeapi_v2', 'overall_rating': '3.5', 'image_num': '60', 'comment_num': '10'}}"
"{'name': '爱乐堡儿童游乐园', 'location': {'lat': 34.266346, 'lng': 108.933398}, 'address': '西大街聚源小区A区4幢一层', 'street_id': 'deca4ad88363845480a00c84', 'detail': 1, 'uid': 'e0bb988417228243e81e97fb', 'detail_info': {'tag': '旅游景点;游乐园', 'type': 'life', 'detail_url': 'http://api.map.baidu.com/place/detail?uid=e0bb988417228243e81e97fb&output=html&source=placeapi_v2', 'overall_rating': '3.5', 'image_num': '60', 'comment_num': '10'}}"
上上网络会所,108.93482308591342,34.25174726939639,c2cb1ace684cfb17ad31e543,"{'name': '上上网络会所', 'location': {'lat': 34.256309, 'lng': 108.945931}, 'address': '朱雀大街北段211附近', 'street_id': 'c2cb1ace684cfb17ad31e543', 'detail': 1, 'uid': 'c2cb1ace684cfb17ad31e543', 'detail_info': {'tag': '休闲娱乐;网吧', 'navi_location': {'lng': 108.94562789781, 'lat': 34.256303657802}, 'type': 'life', 'detail_url': 'http://api.map.baidu.com/place/detail?uid=c2cb1ace684cfb17ad31e543&output=html&source=placeapi_v2', 'overall_rating': '1.6', 'image_num': '6', 'comment_num': '7'}}"
"{'name': '上上网络会所', 'location': {'lat': 34.256309, 'lng': 108.945931}, 'address': '朱雀大街北段211附近', 'street_id': 'c2cb1ace684cfb17ad31e543', 'detail': 1, 'uid': 'c2cb1ace684cfb17ad31e543', 'detail_info': {'tag': '休闲娱乐;网吧', 'navi_location': {'lng': 108.94562789781, 'lat': 34.256303657802}, 'type': 'life', 'detail_url': 'http://api.map.baidu.com/place/detail?uid=c2cb1ace684cfb17ad31e543&output=html&source=placeapi_v2', 'overall_rating': '1.6', 'image_num': '6', 'comment_num': '7'}}"
静湖泉温泉浴场,108.93119170838295,34.25219203424166,15148f55c695b3bd40afe6e8,"{'name': '静湖泉温泉浴场', 'location': {'lat': 34.256691, 'lng': 108.942308}, 'address': '陕西省西安市碑林区环城南路112号', 'street_id': '15148f55c695b3bd40afe6e8', 'detail': 1, 'uid': '15148f55c695b3bd40afe6e8', 'detail_info': {'tag': '休闲娱乐;洗浴按摩', 'type': 'life', 'detail_url': 'http://api.map.baidu.com/place/detail?uid=15148f55c695b3bd40afe6e8&output=html&source=placeapi_v2', 'image_num': '1'}}"
"{'name': '静湖泉温泉浴场', 'location': {'lat': 34.256691, 'lng': 108.942308}, 'address': '陕西省西安市碑林区环城南路112号', 'street_id': '15148f55c695b3bd40afe6e8', 'detail': 1, 'uid': '15148f55c695b3bd40afe6e8', 'detail_info': {'tag': '休闲娱乐;洗浴按摩', 'type': 'life', 'detail_url': 'http://api.map.baidu.com/place/detail?uid=15148f55c695b3bd40afe6e8&output=html&source=placeapi_v2', 'image_num': '1'}}"
西安大咖影城,108.92991267413595,34.260793299816825,939bffc37e31278e6140a953,"{'name': '西安大咖影城', 'location': {'lat': 34.26527, 'lng': 108.941025}, 'address': '西安市蓬湖区西大街桥梓口170号正阳名家国际家居广场5楼', 'street_id': '939bffc37e31278e6140a953', 'telephone': '(029)89628550', 'detail': 1, 'uid': '939bffc37e31278e6140a953', 'detail_info': {'tag': '休闲娱乐;电影院', 'type': 'life', 'detail_url': 'http://api.map.baidu.com/place/detail?uid=939bffc37e31278e6140a953&output=html&source=placeapi_v2', 'service_rating': '0', 'environment_rating': '0'}}"
"{'name': '西安大咖影城', 'location': {'lat': 34.26527, 'lng': 108.941025}, 'address': '西安市蓬湖区西大街桥梓口170号正阳名家国际家居广场5楼', 'street_id': '939bffc37e31278e6140a953', 'telephone': '(029)89628550', 'detail': 1, 'uid': '939bffc37e31278e6140a953', 'detail_info': {'tag': '休闲娱乐;电影院', 'type': 'life', 'detail_url': 'http://api.map.baidu.com/place/detail?uid=939bffc37e31278e6140a953&output=html&source=placeapi_v2', 'service_rating': '0', 'environment_rating': '0'}}"
自由鸟网吧,108.92685096490283,34.26461283074592,bf29b70222a3668009b93a5d,"{'name': '自由鸟网吧', 'location': {'lat': 34.269034, 'lng': 108.937969}, 'address': '西安市莲湖区新寺巷46号', 'street_id': 'bf29b70222a3668009b93a5d', 'telephone': '(029)81500559,(029)81919510', 'detail': 1, 'uid': 'bf29b70222a3668009b93a5d', 'detail_info': {'tag': '休闲娱乐;网吧', 'type': 'life', 'detail_url': 'http://api.map.baidu.com/place/detail?uid=bf29b70222a3668009b93a5d&output=html&source=placeapi_v2', 'overall_rating': '3', 'image_num': '4', 'comment_num': '4'}}"
"{'name': '自由鸟网吧', 'location': {'lat': 34.269034, 'lng': 108.937969}, 'address': '西安市莲湖区新寺巷46号', 'street_id': 'bf29b70222a3668009b93a5d', 'telephone': '(029)81500559,(029)81919510', 'detail': 1, 'uid': 'bf29b70222a3668009b93a5d', 'detail_info': {'tag': '休闲娱乐;网吧', 'type': 'life', 'detail_url': 'http://api.map.baidu.com/place/detail?uid=bf29b70222a3668009b93a5d&output=html&source=placeapi_v2', 'overall_rating': '3', 'image_num': '4', 'comment_num': '4'}}"
SEVEN NAIL TIME购物,108.93973795704179,34.26198573442217,ae1d79ecf6eac0895e0d0282,"{'name': 'SEVEN NAIL TIME购物', 'location': {'lat': 34.266625, 'lng': 108.950829}, 'address': '南院门53号清见御所1楼', 'street_id': 'ae1d79ecf6eac0895e0d0282', 'detail': 1, 'uid': 'ae1d79ecf6eac0895e0d0282', 'detail_info': {'tag': '美食', 'navi_location': {'lng': 108.950253634, 'lat': 34.266523353903}, 'type': 'life', 'detail_url': 'http://api.map.baidu.com/place/detail?uid=ae1d79ecf6eac0895e0d0282&output=html&source=placeapi_v2', 'overall_rating': '4.8', 'image_num': '58', 'comment_num': '11'}}"
"{'name': 'SEVEN NAIL TIME购物', 'location': {'lat': 34.266625, 'lng': 108.950829}, 'address': '南院门53号清见御所1楼', 'street_id': 'ae1d79ecf6eac0895e0d0282', 'detail': 1, 'uid': 'ae1d79ecf6eac0895e0d0282', 'detail_info': {'tag': '美食', 'navi_location': {'lng': 108.950253634, 'lat': 34.266523353903}, 'type': 'life', 'detail_url': 'http://api.map.baidu.com/place/detail?uid=ae1d79ecf6eac0895e0d0282&output=html&source=placeapi_v2', 'overall_rating': '4.8', 'image_num': '58', 'comment_num': '11'}}"
太平洋咖啡(钟楼店),108.94218075955412,34.2619114189847,7ccc1a1401313322bfa82251,"{'name': '太平洋咖啡(钟楼店)', 'location': {'lat': 34.266584, 'lng': 108.95327}, 'address': '北大街1号（钟楼西北角）', 'street_id': '7ccc1a1401313322bfa82251', 'telephone': '(029)87230096', 'detail': 1, 'uid': '7ccc1a1401313322bfa82251', 'detail_info': {'tag': '美食;咖啡厅', 'navi_location': {'lng': 108.95332659702, 'lat': 34.266582334656}, 'type': 'cater', 'detail_url': 'http://api.map.baidu.com/place/detail?uid=7ccc1a1401313322bfa82251&output=html&source=placeapi_v2', 'price': '36.0', 'overall_rating': '4.5', 'comment_num': '100', 'di_review_keyword': []}}"
"{'name': '太平洋咖啡(钟楼店)', 'location': {'lat': 34.266584, 'lng': 108.95327}, 'address': '北大街1号（钟楼西北角）', 'street_id': '7ccc1a1401313322bfa82251', 'telephone': '(029)87230096', 'detail': 1, 'uid': '7ccc1a1401313322bfa82251', 'detail_info': {'tag': '美食;咖啡厅', 'navi_location': {'lng': 108.95332659702, 'lat': 34.266582334656}, 'type': 'cater', 'detail_url': 'http://api.map.baidu.com/place/detail?uid=7ccc1a1401313322bfa82251&output=html&source=placeapi_v2', 'price': '36.0', 'overall_rating': '4.5', 'comment_num': '100', 'di_review_keyword': []}}"
西京国际洗浴中心,108.93240833271516,34.26184782262535,3c0ea7c5e841ef9cfbf0cb03,"{'name': '西京国际洗浴中心', 'location': {'lat': 34.266369, 'lng': 108.943513}, 'address': '西大街135号锦江西京国际饭店2楼', 'street_id': '3c0ea7c5e841ef9cfbf0cb03', 'detail': 1, 'uid': '3c0ea7c5e841ef9cfbf0cb03', 'detail_info': {'tag': '休闲娱乐;洗浴按摩', 'navi_location': {'lng': 108.94329328983, 'lat': 34.265852495016}, 'type': 'life', 'detail_url': 'http://api.map.baidu.com/place/detail?uid=3c0ea7c5e841ef9cfbf0cb03&output=html&source=placeapi_v2', 'overall_rating': '5', 'image_num': '3', 'comment_num': '1'}}"
"{'name': '西京国际洗浴中心', 'location': {'lat': 34.266369, 'lng': 108.943513}, 'address': '西大街135号锦江西京国际饭店2楼', 'street_id': '3c0ea7c5e841ef9cfbf0cb03', 'detail': 1, 'uid': '3c0ea7c5e841ef9cfbf0cb03', 'detail_info': {'tag': '休闲娱乐;洗浴按摩', 'navi_location': {'lng': 108.94329328983, 'lat': 34.265852495016}, 'type': 'life', 'detail_url': 'http://api.map.baidu.com/place/detail?uid=3c0ea7c5e841ef9cfbf0cb03&output=html&source=placeapi_v2', 'overall_rating': '5', 'image_num': '3', 'comment_num': '1'}}"
风蝶网咖（西大街店）,108.94067564947446,34.26067361161036,7f747419c73c51a7990050b8,"{'name': '风蝶网咖（西大街店）', 'location': {'lat': 34.265326, 'lng': 108.951767}, 'address': '西大街14号', 'street_id': '7f747419c73c51a7990050b8', 'detail': 1, 'uid': '7f747419c73c51a7990050b8', 'detail_info': {'tag': '休闲娱乐;网吧', 'type': 'life', 'detail_url': 'http://api.map.baidu.com/place/detail?uid=7f747419c73c51a7990050b8&output=html&source=placeapi_v2', 'image_num': '2'}}"
"{'name': '风蝶网咖（西大街店）', 'location': {'lat': 34.265326, 'lng': 108.951767}, 'address': '西大街14号', 'street_id': '7f747419c73c51a7990050b8', 'detail': 1, 'uid': '7f747419c73c51a7990050b8', 'detail_info': {'tag': '休闲娱乐;网吧', 'type': 'life', 'detail_url': 'http://api.map.baidu.com/place/detail?uid=7f747419c73c51a7990050b8&output=html&source=placeapi_v2', 'image_num': '2'}}"
这儿桌游吧,108.91801753022327,34.26077166205393,576c9663d4a922de93114c65,"{'name': '这儿桌游吧', 'location': {'lat': 34.265035, 'lng': 108.929168}, 'address': '环城西路南段78号东光大厦二区1509室（人人乐旁）', 'street_id': '576c9663d4a922de93114c65', 'detail': 1, 'uid': '576c9663d4a922de93114c65', 'detail_info': {'tag': '休闲娱乐;游戏场所', 'type': 'life', 'detail_url': 'http://api.map.baidu.com/place/detail?uid=576c9663d4a922de93114c65&output=html&source=placeapi_v2', 'price': '9', 'overall_rating': '4.7', 'image_num': '2'}}"
"{'name': '这儿桌游吧', 'location': {'lat': 34.265035, 'lng': 108.929168}, 'address': '环城西路南段78号东光大厦二区1509室（人人乐旁）', 'street_id': '576c9663d4a922de93114c65', 'detail': 1, 'uid': '576c9663d4a922de93114c65', 'detail_info': {'tag': '休闲娱乐;游戏场所', 'type': 'life', 'detail_url': 'http://api.map.baidu.com/place/detail?uid=576c9663d4a922de93114c65&output=html&source=placeapi_v2', 'price': '9', 'overall_rating': '4.7', 'image_num': '2'}}"
西岸公馆,108.91944066305139,34.254549921173115,3d1436d9024ab821cb213d2c,"{'name': '西岸公馆', 'location': {'lat': 34.258837, 'lng': 108.930592}, 'address': '陕西省西安市莲湖区天品西岸2号', 'street_id': '3d1436d9024ab821cb213d2c', 'detail': 1, 'uid': '3d1436d9024ab821cb213d2c', 'detail_info': {'tag': '房地产;住宅区', 'type': 'life', 'detail_url': 'http://api.map.baidu.com/place/detail?uid=3d1436d9024ab821cb213d2c&output=html&source=placeapi_v2', 'image_num': '21'}}"
"{'name': '西岸公馆', 'location': {'lat': 34.258837, 'lng': 108.930592}, 'address': '陕西省西安市莲湖区天品西岸2号', 'street_id': '3d1436d9024ab821cb213d2c', 'detail': 1, 'uid': '3d1436d9024ab821cb213d2c', 'detail_info': {'tag': '房地产;住宅区', 'type': 'life', 'detail_url': 'http://api.map.baidu.com/place/detail?uid=3d1436d9024ab821cb213d2c&output=html&source=placeapi_v2', 'image_num': '21'}}"
迷碟酒吧(德福巷店),108.94004864737056,34.254596852270495,ea87fb2391b1c948f7b916a1,"{'name': '迷碟酒吧(德福巷店)', 'location': {'lat': 34.25924, 'lng': 108.951146}, 'address': '德福巷2号', 'street_id': 'ea87fb2391b1c948f7b916a1', 'detail': 1, 'uid': 'ea87fb2391b1c948f7b916a1', 'detail_info': {'tag': '美食;酒吧', 'type': 'cater', 'detail_url': 'http://api.map.baidu.com/place/detail?uid=ea87fb2391b1c948f7b916a1&output=html&source=placeapi_v2', 'overall_rating': '4.9', 'groupon_num': '2', 'comment_num': '25', 'di_review_keyword': []}}"
"{'name': '迷碟酒吧(德福巷店)', 'location': {'lat': 34.25924, 'lng': 108.951146}, 'address': '德福巷2号', 'street_id': 'ea87fb2391b1c948f7b916a1', 'detail': 1, 'uid': 'ea87fb2391b1c948f7b916a1', 'detail_info': {'tag': '美食;酒吧', 'type': 'cater', 'detail_url': 'http://api.map.baidu.com/place/detail?uid=ea87fb2391b1c948f7b916a1&output=html&source=placeapi_v2', 'overall_rating': '4.9', 'groupon_num': '2', 'comment_num': '25', 'di_review_keyword': []}}"
火炮电竞馆,108.92226599854038,34.26236155250868,f86d8894180b368a047ce8df,"{'name': '火炮电竞馆', 'location': {'lat': 34.266699, 'lng': 108.933401}, 'address': '西大街369号唐元宫2层', 'street_id': 'f86d8894180b368a047ce8df', 'detail': 1, 'uid': 'f86d8894180b368a047ce8df', 'detail_info': {'tag': '休闲娱乐;网吧', 'type': 'life', 'detail_url': 'http://api.map.baidu.com/place/detail?uid=f86d8894180b368a047ce8df&output=html&source=placeapi_v2', 'image_num': '2', 'comment_num': '1'}}"
"{'name': '火炮电竞馆', 'location': {'lat': 34.266699, 'lng': 108.933401}, 'address': '西大街369号唐元宫2层', 'street_id': 'f86d8894180b368a047ce8df', 'detail': 1, 'uid': 'f86d8894180b368a047ce8df', 'detail_info': {'tag': '休闲娱乐;网吧', 'type': 'life', 'detail_url': 'http://api.map.baidu.com/place/detail?uid=f86d8894180b368a047ce8df&output=html&source=placeapi_v2', 'image_num': '2', 'comment_num': '1'}}"
金浪浴馆,108.93311584645565,34.26490529304485,56e88cba5811b665a4c75603,"{'name': '金浪浴馆', 'location': {'lat': 34.269439, 'lng': 108.944216}, 'address': '庙后街33', 'street_id': '56e88cba5811b665a4c75603', 'detail': 1, 'uid': '56e88cba5811b665a4c75603', 'detail_info': {'tag': '休闲娱乐;洗浴按摩', 'type': 'life', 'detail_url': 'http://api.map.baidu.com/place/detail?uid=56e88cba5811b665a4c75603&output=html&source=placeapi_v2', 'overall_rating': '5', 'image_num': '7', 'comment_num': '1'}}"
"{'name': '金浪浴馆', 'location': {'lat': 34.269439, 'lng': 108.944216}, 'address': '庙后街33', 'street_id': '56e88cba5811b665a4c75603', 'detail': 1, 'uid': '56e88cba5811b665a4c75603', 'detail_info': {'tag': '休闲娱乐;洗浴按摩', 'type': 'life', 'detail_url': 'http://api.map.baidu.com/place/detail?uid=56e88cba5811b665a4c75603&output=html&source=placeapi_v2', 'overall_rating': '5', 'image_num': '7', 'comment_num': '1'}}"
桂mototo,108.93039978196714,34.25370705390321,a805a54cd3951a45a7c756fb,"{'name': '桂mototo', 'location': {'lat': 34.258192, 'lng': 108.941517}, 'address': '陕西省西安市莲湖区含光门里顺城巷东15号', 'street_id': 'a805a54cd3951a45a7c756fb', 'detail': 1, 'uid': 'a805a54cd3951a45a7c756fb', 'detail_info': {'tag': '美食;小吃快餐店', 'navi_location': {'lng': 108.94152591506, 'lat': 34.258105793423}, 'type': 'cater', 'detail_url': 'http://api.map.baidu.com/place/detail?uid=a805a54cd3951a45a7c756fb&output=html&source=placeapi_v2', 'overall_rating': '4.4', 'comment_num': '69', 'di_review_keyword': []}}"
"{'name': '桂mototo', 'location': {'lat': 34.258192, 'lng': 108.941517}, 'address': '陕西省西安市莲湖区含光门里顺城巷东15号', 'street_id': 'a805a54cd3951a45a7c756fb', 'detail': 1, 'uid': 'a805a54cd3951a45a7c756fb', 'detail_info': {'tag': '美食;小吃快餐店', 'navi_location': {'lng': 108.94152591506, 'lat': 34.258105793423}, 'type': 'cater', 'detail_url': 'http://api.map.baidu.com/place/detail?uid=a805a54cd3951a45a7c756fb&output=html&source=placeapi_v2', 'overall_rating': '4.4', 'comment_num': '69', 'di_review_keyword': []}}"
KX网咖,108.9264366902883,34.259150805741385,6f733a548dda730233169bc2,"{'name': 'KX网咖', 'location': {'lat': 34.263564, 'lng': 108.937561}, 'address': '陕西省西安市莲湖区北院门街道夏家什字小区华汇大厦', 'street_id': '6f733a548dda730233169bc2', 'detail': 0, 'uid': '6f733a548dda730233169bc2', 'detail_info': {'tag': '休闲娱乐;网吧'}}"
"{'name': 'KX网咖', 'location': {'lat': 34.263564, 'lng': 108.937561}, 'address': '陕西省西安市莲湖区北院门街道夏家什字小区华汇大厦', 'street_id': '6f733a548dda730233169bc2', 'detail': 0, 'uid': '6f733a548dda730233169bc2', 'detail_info': {'tag': '休闲娱乐;网吧'}}"
大众浴池(五味什字),108.93244847682551,34.25748942146688,d1473d4074f92d016140a9c2,"{'name': '大众浴池(五味什字)', 'location': {'lat': 34.262011, 'lng': 108.943557}, 'address': '五味什字33号2层', 'street_id': 'd1473d4074f92d016140a9c2', 'detail': 1, 'uid': 'd1473d4074f92d016140a9c2', 'detail_info': {'tag': '休闲娱乐;洗浴按摩', 'type': 'life', 'detail_url': 'http://api.map.baidu.com/place/detail?uid=d1473d4074f92d016140a9c2&output=html&source=placeapi_v2', 'overall_rating': '3', 'image_num': '1', 'comment_num': '1'}}"
"{'name': '大众浴池(五味什字)', 'location': {'lat': 34.262011, 'lng': 108.943557}, 'address': '五味什字33号2层', 'street_id': 'd1473d4074f92d016140a9c2', 'detail': 1, 'uid': 'd1473d4074f92d016140a9c2', 'detail_info': {'tag': '休闲娱乐;洗浴按摩', 'type': 'life', 'detail_url': 'http://api.map.baidu.com/place/detail?uid=d1473d4074f92d016140a9c2&output=html&source=placeapi_v2', 'overall_rating': '3', 'image_num': '1', 'comment_num': '1'}}"
范特西,108.94197805578514,34.25684141705084,764672e56b7693d094ec843f,"{'name': '范特西', 'location': {'lat': 34.261511, 'lng': 108.953072}, 'address': '碑林区南大街46号福康大厦2楼(南院门大街口)', 'street_id': '764672e56b7693d094ec843f', 'detail': 1, 'uid': '764672e56b7693d094ec843f', 'detail_info': {'tag': '美食;酒吧', 'navi_location': {'lng': 108.95253782639, 'lat': 34.26169642671}, 'type': 'cater', 'detail_url': 'http://api.map.baidu.com/place/detail?uid=764672e56b7693d094ec843f&output=html&source=placeapi_v2', 'price': '150.0', 'overall_rating': '4.3', 'comment_num': '7', 'di_review_keyword': []}}"
"{'name': '范特西', 'location': {'lat': 34.261511, 'lng': 108.953072}, 'address': '碑林区南大街46号福康大厦2楼(南院门大街口)', 'street_id': '764672e56b7693d094ec843f', 'detail': 1, 'uid': '764672e56b7693d094ec843f', 'detail_info': {'tag': '美食;酒吧', 'navi_location': {'lng': 108.95253782639, 'lat': 34.26169642671}, 'type': 'cater', 'detail_url': 'http://api.map.baidu.com/place/detail?uid=764672e56b7693d094ec843f&output=html&source=placeapi_v2', 'price': '150.0', 'overall_rating': '4.3', 'comment_num': '7', 'di_review_keyword': []}}"
时光2000月光阁,108.93058336012847,34.25726148035545,cfcf9fd1cea4292deb56fa31,"{'name': '时光2000月光阁', 'location': {'lat': 34.26175, 'lng': 108.941697}, 'address': '陕西省西安市碑林区五星街8号', 'street_id': 'cfcf9fd1cea4292deb56fa31', 'telephone': '(029)87622492', 'detail': 1, 'uid': 'cfcf9fd1cea4292deb56fa31', 'detail_info': {'tag': '房地产;写字楼', 'navi_location': {'lng': 108.94177699414, 'lat': 34.261899885097}, 'type': 'cater', 'detail_url': 'http://api.map.baidu.com/place/detail?uid=cfcf9fd1cea4292deb56fa31&output=html&source=placeapi_v2'}}"
"{'name': '时光2000月光阁', 'location': {'lat': 34.26175, 'lng': 108.941697}, 'address': '陕西省西安市碑林区五星街8号', 'street_id': 'cfcf9fd1cea4292deb56fa31', 'telephone': '(029)87622492', 'detail': 1, 'uid': 'cfcf9fd1cea4292deb56fa31', 'detail_info': {'tag': '房地产;写字楼', 'navi_location': {'lng': 108.94177699414, 'lat': 34.261899885097}, 'type': 'cater', 'detail_url': 'http://api.map.baidu.com/place/detail?uid=cfcf9fd1cea4292deb56fa31&output=html&source=placeapi_v2'}}"
雕刻时光咖啡馆(西安南院门店),108.93579577396359,34.257327735755176,e474cc4a4da0a35f16764374,"{'name': '雕刻时光咖啡馆(西安南院门店)', 'location': {'lat': 34.261906, 'lng': 108.946897}, 'address': '南院门47号五味十字向东100米路北(粉巷五味十字)', 'street_id': 'e474cc4a4da0a35f16764374', 'telephone': '(029)87625857', 'detail': 1, 'uid': 'e474cc4a4da0a35f16764374', 'detail_info': {'tag': '美食;咖啡厅', 'navi_location': {'lng': 108.94664508597, 'lat': 34.261757666278}, 'type': 'cater', 'detail_url': 'http://api.map.baidu.com/place/detail?uid=e474cc4a4da0a35f16764374&output=html&source=placeapi_v2', 'price': '38.0', 'overall_rating': '4.1', 'comment_num': '100', 'di_review_keyword': []}}"
"{'name': '雕刻时光咖啡馆(西安南院门店)', 'location': {'lat': 34.261906, 'lng': 108.946897}, 'address': '南院门47号五味十字向东100米路北(粉巷五味十字)', 'street_id': 'e474cc4a4da0a35f16764374', 'telephone': '(029)87625857', 'detail': 1, 'uid': 'e474cc4a4da0a35f16764374', 'detail_info': {'tag': '美食;咖啡厅', 'navi_location': {'lng': 108.94664508597, 'lat': 34.261757666278}, 'type': 'cater', 'detail_url': 'http://api.map.baidu.com/place/detail?uid=e474cc4a4da0a35f16764374&output=html&source=placeapi_v2', 'price': '38.0', 'overall_rating': '4.1', 'comment_num': '100', 'di_review_keyword': []}}"
咖啡陪你概念店,108.94168676318282,34.25780915997199,bbda33f5ca92cc228836ee91,"{'name': '咖啡陪你概念店', 'location': {'lat': 34.262475, 'lng': 108.95278}, 'address': '南大街109号芭莎名店5层', 'street_id': 'bbda33f5ca92cc228836ee91', 'telephone': '(029)87372391', 'detail': 1, 'uid': 'bbda33f5ca92cc228836ee91', 'detail_info': {'tag': '美食;咖啡厅', 'navi_location': {'lng': 108.95269658572, 'lat': 34.262293220189}, 'type': 'cater', 'detail_url': 'http://api.map.baidu.com/place/detail?uid=bbda33f5ca92cc228836ee91&output=html&source=placeapi_v2', 'price': '49.0', 'overall_rating': '4.6', 'comment_num': '17', 'di_review_keyword': []}}"
"{'name': '咖啡陪你概念店', 'location': {'lat': 34.262475, 'lng': 108.95278}, 'address': '南大街109号芭莎名店5层', 'street_id': 'bbda33f5ca92cc228836ee91', 'telephone': '(029)87372391', 'detail': 1, 'uid': 'bbda33f5ca92cc228836ee91', 'detail_info': {'tag': '美食;咖啡厅', 'navi_location': {'lng': 108.95269658572, 'lat': 34.262293220189}, 'type': 'cater', 'detail_url': 'http://api.map.baidu.com/place/detail?uid=bbda33f5ca92cc228836ee91&output=html&source=placeapi_v2', 'price': '49.0', 'overall_rating': '4.6', 'comment_num': '17', 'di_review_keyword': []}}"
ss网咖,108.93474689628742,34.251710546667404,c80b0f1a72f2b61904026f96,"{'name': 'ss网咖', 'location': {'lat': 34.256271, 'lng': 108.945855}, 'address': '西安市碑林区朱雀大街北段183号', 'street_id': 'c80b0f1a72f2b61904026f96', 'detail': 0, 'uid': 'c80b0f1a72f2b61904026f96', 'detail_info': {'tag': '休闲娱乐;网吧'}}"
"{'name': 'ss网咖', 'location': {'lat': 34.256271, 'lng': 108.945855}, 'address': '西安市碑林区朱雀大街北段183号', 'street_id': 'c80b0f1a72f2b61904026f96', 'detail': 0, 'uid': 'c80b0f1a72f2b61904026f96', 'detail_info': {'tag': '休闲娱乐;网吧'}}"
秦之韵皮影戏,108.93888048331624,34.2636601349175,ba0e6a66d6edffc3a11de97e,"{'name': '秦之韵皮影戏', 'location': {'lat': 34.268287, 'lng': 108.949971}, 'address': '陕西省西安市莲湖区北院门140号（贾三包子对面）', 'street_id': 'ba0e6a66d6edffc3a11de97e', 'detail': 1, 'uid': 'ba0e6a66d6edffc3a11de97e', 'detail_info': {'tag': '休闲娱乐;剧院', 'type': 'scope', 'detail_url': 'http://api.map.baidu.com/place/detail?uid=ba0e6a66d6edffc3a11de97e&output=html&source=placeapi_v2', 'price': '15', 'overall_rating': '4.8', 'comment_num': '7'}}"
"{'name': '秦之韵皮影戏', 'location': {'lat': 34.268287, 'lng': 108.949971}, 'address': '陕西省西安市莲湖区北院门140号（贾三包子对面）', 'street_id': 'ba0e6a66d6edffc3a11de97e', 'detail': 1, 'uid': 'ba0e6a66d6edffc3a11de97e', 'detail_info': {'tag': '休闲娱乐;剧院', 'type': 'scope', 'detail_url': 'http://api.map.baidu.com/place/detail?uid=ba0e6a66d6edffc3a11de97e&output=html&source=placeapi_v2', 'price': '15', 'overall_rating': '4.8', 'comment_num': '7'}}"
塞纳时光私享影院,108.93894105217292,34.25982251476098,358852167847f2a43010afed,"{'name': '塞纳时光私享影院', 'location': {'lat': 34.26445, 'lng': 108.950035}, 'address': '陕西省西安市碑林区竹笆市55号', 'street_id': '358852167847f2a43010afed', 'detail': 0, 'uid': '358852167847f2a43010afed', 'detail_info': {'tag': '休闲娱乐;电影院'}}"
"{'name': '塞纳时光私享影院', 'location': {'lat': 34.26445, 'lng': 108.950035}, 'address': '陕西省西安市碑林区竹笆市55号', 'street_id': '358852167847f2a43010afed', 'detail': 0, 'uid': '358852167847f2a43010afed', 'detail_info': {'tag': '休闲娱乐;电影院'}}"
网络休闲吧,108.93725483098684,34.25442662569428,14ced07f77eeb1f74207c112,"{'name': '网络休闲吧', 'location': {'lat': 34.259028, 'lng': 108.948356}, 'address': '西安市碑林区大车家巷南口', 'street_id': '14ced07f77eeb1f74207c112', 'detail': 1, 'uid': '14ced07f77eeb1f74207c112', 'detail_info': {'tag': '休闲娱乐;网吧', 'type': 'life', 'detail_url': 'http://api.map.baidu.com/place/detail?uid=14ced07f77eeb1f74207c112&output=html&source=placeapi_v2', 'image_num': '5'}}"
"{'name': '网络休闲吧', 'location': {'lat': 34.259028, 'lng': 108.948356}, 'address': '西安市碑林区大车家巷南口', 'street_id': '14ced07f77eeb1f74207c112', 'detail': 1, 'uid': '14ced07f77eeb1f74207c112', 'detail_info': {'tag': '休闲娱乐;网吧', 'type': 'life', 'detail_url': 'http://api.map.baidu.com/place/detail?uid=14ced07f77eeb1f74207c112&output=html&source=placeapi_v2', 'image_num': '5'}}"
星巴克(百盛购物中心店),108.9347744334369,34.26142932325002,e00551ea5e81d6fb5cd4fe5e,"{'name': '星巴克(百盛购物中心店)', 'location': {'lat': 34.265991, 'lng': 108.945874}, 'address': '西安市莲湖区西大街6号百盛购物中心F2', 'street_id': 'e00551ea5e81d6fb5cd4fe5e', 'detail': 1, 'uid': 'e00551ea5e81d6fb5cd4fe5e', 'detail_info': {'tag': '美食;咖啡厅', 'navi_location': {'lng': 108.94626978022, 'lat': 34.266826571242}, 'indoor_floor': 'F2', 'type': 'cater', 'detail_url': 'http://api.map.baidu.com/place/detail?uid=e00551ea5e81d6fb5cd4fe5e&output=html&source=placeapi_v2', 'comment_num': '1'}}"
"{'name': '星巴克(百盛购物中心店)', 'location': {'lat': 34.265991, 'lng': 108.945874}, 'address': '西安市莲湖区西大街6号百盛购物中心F2', 'street_id': 'e00551ea5e81d6fb5cd4fe5e', 'detail': 1, 'uid': 'e00551ea5e81d6fb5cd4fe5e', 'detail_info': {'tag': '美食;咖啡厅', 'navi_location': {'lng': 108.94626978022, 'lat': 34.266826571242}, 'indoor_floor': 'F2', 'type': 'cater', 'detail_url': 'http://api.map.baidu.com/place/detail?uid=e00551ea5e81d6fb5cd4fe5e&output=html&source=placeapi_v2', 'comment_num': '1'}}"
情园大舞厅,108.9388814175178,34.25920844229699,a77d3f1d26a945bcacee7a92,"{'name': '情园大舞厅', 'location': {'lat': 34.263835, 'lng': 108.949976}, 'address': '竹笆市41号', 'street_id': 'a77d3f1d26a945bcacee7a92', 'detail': 0, 'uid': 'a77d3f1d26a945bcacee7a92', 'detail_info': {'tag': '休闲娱乐;歌舞厅'}}"
"{'name': '情园大舞厅', 'location': {'lat': 34.263835, 'lng': 108.949976}, 'address': '竹笆市41号', 'street_id': 'a77d3f1d26a945bcacee7a92', 'detail': 0, 'uid': 'a77d3f1d26a945bcacee7a92', 'detail_info': {'tag': '休闲娱乐;歌舞厅'}}"
卡门1932酒吧,108.91961170674634,34.25511592047972,ad702192f13aaab59ef77978,"{'name': '卡门1932酒吧', 'location': {'lat': 34.259406, 'lng': 108.930762}, 'address': '莲湖区环城西路水司对面天品8号(西南城角)', 'street_id': 'ad702192f13aaab59ef77978', 'telephone': '(029)89540224', 'detail': 1, 'uid': 'ad702192f13aaab59ef77978', 'detail_info': {'tag': '美食;酒吧', 'type': 'cater', 'detail_url': 'http://api.map.baidu.com/place/detail?uid=ad702192f13aaab59ef77978&output=html&source=placeapi_v2', 'price': '70.0', 'overall_rating': '4.5', 'groupon_num': '2', 'comment_num': '178', 'di_review_keyword': []}}"
"{'name': '卡门1932酒吧', 'location': {'lat': 34.259406, 'lng': 108.930762}, 'address': '莲湖区环城西路水司对面天品8号(西南城角)', 'street_id': 'ad702192f13aaab59ef77978', 'telephone': '(029)89540224', 'detail': 1, 'uid': 'ad702192f13aaab59ef77978', 'detail_info': {'tag': '美食;酒吧', 'type': 'cater', 'detail_url': 'http://api.map.baidu.com/place/detail?uid=ad702192f13aaab59ef77978&output=html&source=placeapi_v2', 'price': '70.0', 'overall_rating': '4.5', 'groupon_num': '2', 'comment_num': '178', 'di_review_keyword': []}}"
喵cafe,108.92889541081917,34.25598806959325,d1117fb91f33eadd950319f0,"{'name': '喵cafe', 'location': {'lat': 34.260446, 'lng': 108.940015}, 'address': '冰窖巷20号(近王妃家的芝士火锅)', 'street_id': 'd1117fb91f33eadd950319f0', 'telephone': '18681802623', 'detail': 1, 'uid': 'd1117fb91f33eadd950319f0', 'detail_info': {'tag': '美食;蛋糕甜品店', 'type': 'cater', 'detail_url': 'http://api.map.baidu.com/place/detail?uid=d1117fb91f33eadd950319f0&output=html&source=placeapi_v2', 'price': '30.5', 'overall_rating': '4.4', 'groupon_num': '1', 'comment_num': '27', 'di_review_keyword': []}}"
"{'name': '喵cafe', 'location': {'lat': 34.260446, 'lng': 108.940015}, 'address': '冰窖巷20号(近王妃家的芝士火锅)', 'street_id': 'd1117fb91f33eadd950319f0', 'telephone': '18681802623', 'detail': 1, 'uid': 'd1117fb91f33eadd950319f0', 'detail_info': {'tag': '美食;蛋糕甜品店', 'type': 'cater', 'detail_url': 'http://api.map.baidu.com/place/detail?uid=d1117fb91f33eadd950319f0&output=html&source=placeapi_v2', 'price': '30.5', 'overall_rating': '4.4', 'groupon_num': '1', 'comment_num': '27', 'di_review_keyword': []}}"
太平洋咖啡(南大街店),108.94265911844747,34.2588185586544,171414f913baeec743ab9a05,"{'name': '太平洋咖啡(南大街店)', 'location': {'lat': 34.263497, 'lng': 108.953751}, 'address': '西安市碑林区南大街8号世纪金花(南大街店)3层', 'street_id': '8e4bdb47b2feb29b0b1cc770', 'telephone': '(029)87231330,(029)87230096', 'detail': 1, 'uid': '171414f913baeec743ab9a05', 'detail_info': {'tag': '美食;咖啡厅', 'navi_location': {'lng': 108.95354391958, 'lat': 34.263042337304}, 'type': 'cater', 'detail_url': 'http://api.map.baidu.com/place/detail?uid=171414f913baeec743ab9a05&output=html&source=placeapi_v2', 'price': '35.0', 'overall_rating': '3', 'comment_num': '2', 'di_review_keyword': []}}"
"{'name': '太平洋咖啡(南大街店)', 'location': {'lat': 34.263497, 'lng': 108.953751}, 'address': '西安市碑林区南大街8号世纪金花(南大街店)3层', 'street_id': '8e4bdb47b2feb29b0b1cc770', 'telephone': '(029)87231330,(029)87230096', 'detail': 1, 'uid': '171414f913baeec743ab9a05', 'detail_info': {'tag': '美食;咖啡厅', 'navi_location': {'lng': 108.95354391958, 'lat': 34.263042337304}, 'type': 'cater', 'detail_url': 'http://api.map.baidu.com/place/detail?uid=171414f913baeec743ab9a05&output=html&source=placeapi_v2', 'price': '35.0', 'overall_rating': '3', 'comment_num': '2', 'di_review_keyword': []}}"
西安市莲湖区隐舍茶馆,108.91935757195822,34.25476533485244,a254cbc1bff0955f5e0d02ad,"{'name': '西安市莲湖区隐舍茶馆', 'location': {'lat': 34.259051, 'lng': 108.930509}, 'address': '环城西路南段1号天品西岸南区26号', 'street_id': 'a254cbc1bff0955f5e0d02ad', 'telephone': '(029)89630058', 'detail': 1, 'uid': 'a254cbc1bff0955f5e0d02ad', 'detail_info': {'tag': '美食;茶座', 'type': 'cater', 'detail_url': 'http://api.map.baidu.com/place/detail?uid=a254cbc1bff0955f5e0d02ad&output=html&source=placeapi_v2', 'price': '145.0', 'overall_rating': '5', 'groupon_num': '1', 'comment_num': '1', 'di_review_keyword': []}}"
"{'name': '西安市莲湖区隐舍茶馆', 'location': {'lat': 34.259051, 'lng': 108.930509}, 'address': '环城西路南段1号天品西岸南区26号', 'street_id': 'a254cbc1bff0955f5e0d02ad', 'telephone': '(029)89630058', 'detail': 1, 'uid': 'a254cbc1bff0955f5e0d02ad', 'detail_info': {'tag': '美食;茶座', 'type': 'cater', 'detail_url': 'http://api.map.baidu.com/place/detail?uid=a254cbc1bff0955f5e0d02ad&output=html&source=placeapi_v2', 'price': '145.0', 'overall_rating': '5', 'groupon_num': '1', 'comment_num': '1', 'di_review_keyword': []}}"
福山咖啡(南广济街),108.93372544099817,34.25391861782666,504d6113cc7805aa475726e9,"{'name': '福山咖啡(南广济街)', 'location': {'lat': 34.258462, 'lng': 108.944834}, 'address': '朱雀门里路西太阳庙门6号(四川会馆向西80米)', 'street_id': '504d6113cc7805aa475726e9', 'detail': 1, 'uid': '504d6113cc7805aa475726e9', 'detail_info': {'tag': '美食;咖啡厅', 'navi_location': {'lng': 108.94508957296, 'lat': 34.258509022884}, 'type': 'cater', 'detail_url': 'http://api.map.baidu.com/place/detail?uid=504d6113cc7805aa475726e9&output=html&source=placeapi_v2', 'price': '50.5', 'overall_rating': '3.8', 'comment_num': '17', 'di_review_keyword': []}}"
"{'name': '福山咖啡(南广济街)', 'location': {'lat': 34.258462, 'lng': 108.944834}, 'address': '朱雀门里路西太阳庙门6号(四川会馆向西80米)', 'street_id': '504d6113cc7805aa475726e9', 'detail': 1, 'uid': '504d6113cc7805aa475726e9', 'detail_info': {'tag': '美食;咖啡厅', 'navi_location': {'lng': 108.94508957296, 'lat': 34.258509022884}, 'type': 'cater', 'detail_url': 'http://api.map.baidu.com/place/detail?uid=504d6113cc7805aa475726e9&output=html&source=placeapi_v2', 'price': '50.5', 'overall_rating': '3.8', 'comment_num': '17', 'di_review_keyword': []}}"
相约网咖,108.93140062186436,34.258432818406845,a056b73176c44e19d8d89105,"{'name': '相约网咖', 'location': {'lat': 34.262936, 'lng': 108.942511}, 'address': '陕西省西安市碑林区北四府街135号附近', 'street_id': 'a056b73176c44e19d8d89105', 'detail': 1, 'uid': 'a056b73176c44e19d8d89105', 'detail_info': {'tag': '休闲娱乐;网吧', 'type': 'life', 'detail_url': 'http://api.map.baidu.com/place/detail?uid=a056b73176c44e19d8d89105&output=html&source=placeapi_v2', 'image_num': '5'}}"
"{'name': '相约网咖', 'location': {'lat': 34.262936, 'lng': 108.942511}, 'address': '陕西省西安市碑林区北四府街135号附近', 'street_id': 'a056b73176c44e19d8d89105', 'detail': 1, 'uid': 'a056b73176c44e19d8d89105', 'detail_info': {'tag': '休闲娱乐;网吧', 'type': 'life', 'detail_url': 'http://api.map.baidu.com/place/detail?uid=a056b73176c44e19d8d89105&output=html&source=placeapi_v2', 'image_num': '5'}}"
龙泽浴馆,108.92774938191373,34.26310248467715,0058610867b02da546e27403,"{'name': '龙泽浴馆', 'location': {'lat': 34.26754, 'lng': 108.938866}, 'address': '西安市莲湖区大麦市街60号', 'street_id': '0058610867b02da546e27403', 'telephone': '(029)87255080', 'detail': 1, 'uid': '0058610867b02da546e27403', 'detail_info': {'tag': '休闲娱乐;洗浴按摩', 'type': 'life', 'detail_url': 'http://api.map.baidu.com/place/detail?uid=0058610867b02da546e27403&output=html&source=placeapi_v2', 'overall_rating': '5.0', 'image_num': '6', 'comment_num': '0'}}"
"{'name': '龙泽浴馆', 'location': {'lat': 34.26754, 'lng': 108.938866}, 'address': '西安市莲湖区大麦市街60号', 'street_id': '0058610867b02da546e27403', 'telephone': '(029)87255080', 'detail': 1, 'uid': '0058610867b02da546e27403', 'detail_info': {'tag': '休闲娱乐;洗浴按摩', 'type': 'life', 'detail_url': 'http://api.map.baidu.com/place/detail?uid=0058610867b02da546e27403&output=html&source=placeapi_v2', 'overall_rating': '5.0', 'image_num': '6', 'comment_num': '0'}}"
乐巢酒吧,108.93226474954062,34.26051142898408,fe52cdac9c99e6cfeb12e494,"{'name': '乐巢酒吧', 'location': {'lat': 34.26503, 'lng': 108.943371}, 'address': '西大街荣民国际饭店一层(都城隍庙对面)', 'street_id': 'fe52cdac9c99e6cfeb12e494', 'detail': 1, 'uid': 'fe52cdac9c99e6cfeb12e494', 'detail_info': {'tag': '美食;酒吧', 'type': 'cater', 'detail_url': 'http://api.map.baidu.com/place/detail?uid=fe52cdac9c99e6cfeb12e494&output=html&source=placeapi_v2', 'price': '280.0', 'overall_rating': '4.5', 'comment_num': '2', 'di_review_keyword': []}}"
"{'name': '乐巢酒吧', 'location': {'lat': 34.26503, 'lng': 108.943371}, 'address': '西大街荣民国际饭店一层(都城隍庙对面)', 'street_id': 'fe52cdac9c99e6cfeb12e494', 'detail': 1, 'uid': 'fe52cdac9c99e6cfeb12e494', 'detail_info': {'tag': '美食;酒吧', 'type': 'cater', 'detail_url': 'http://api.map.baidu.com/place/detail?uid=fe52cdac9c99e6cfeb12e494&output=html&source=placeapi_v2', 'price': '280.0', 'overall_rating': '4.5', 'comment_num': '2', 'di_review_keyword': []}}"
星国会,108.92548483573428,34.26045616906362,934d9ec52c0de12bae045708,"{'name': '星国会', 'location': {'lat': 34.264852, 'lng': 108.936611}, 'address': '莲湖区西大街218号唐人街B座6楼', 'street_id': '934d9ec52c0de12bae045708', 'detail': 1, 'uid': '934d9ec52c0de12bae045708', 'detail_info': {'tag': '休闲娱乐;ktv', 'type': 'life', 'detail_url': 'http://api.map.baidu.com/place/detail?uid=934d9ec52c0de12bae045708&output=html&source=placeapi_v2', 'image_num': '1'}}"
"{'name': '星国会', 'location': {'lat': 34.264852, 'lng': 108.936611}, 'address': '莲湖区西大街218号唐人街B座6楼', 'street_id': '934d9ec52c0de12bae045708', 'detail': 1, 'uid': '934d9ec52c0de12bae045708', 'detail_info': {'tag': '休闲娱乐;ktv', 'type': 'life', 'detail_url': 'http://api.map.baidu.com/place/detail?uid=934d9ec52c0de12bae045708&output=html&source=placeapi_v2', 'image_num': '1'}}"
小天地母婴会所,108.93840182466934,34.2592536166475,1ceb59a1d83fec63d3ff2345,"{'name': '小天地母婴会所', 'location': {'lat': 34.263873, 'lng': 108.949497}, 'address': '西大街48号中环商务大厦b座3-4层', 'street_id': '1ceb59a1d83fec63d3ff2345', 'detail': 0, 'uid': '1ceb59a1d83fec63d3ff2345', 'detail_info': {'tag': '休闲娱乐', 'navi_location': {'lng': 108.94949645858, 'lat': 34.263816243933}}}"
"{'name': '小天地母婴会所', 'location': {'lat': 34.263873, 'lng': 108.949497}, 'address': '西大街48号中环商务大厦b座3-4层', 'street_id': '1ceb59a1d83fec63d3ff2345', 'detail': 0, 'uid': '1ceb59a1d83fec63d3ff2345', 'detail_info': {'tag': '休闲娱乐', 'navi_location': {'lng': 108.94949645858, 'lat': 34.263816243933}}}"
十悦oct bar,108.94092712130288,34.251812877898764,25faddafff7286316fa3cc10,"{'name': '十悦oct bar', 'location': {'lat': 34.256468, 'lng': 108.952026}, 'address': '碑林区南门外松园负1层16', 'street_id': '25faddafff7286316fa3cc10', 'detail': 1, 'uid': '25faddafff7286316fa3cc10', 'detail_info': {'tag': '休闲娱乐', 'type': 'life', 'detail_url': 'http://api.map.baidu.com/place/detail?uid=25faddafff7286316fa3cc10&output=html&source=placeapi_v2', 'image_num': '1'}}"
"{'name': '十悦oct bar', 'location': {'lat': 34.256468, 'lng': 108.952026}, 'address': '碑林区南门外松园负1层16', 'street_id': '25faddafff7286316fa3cc10', 'detail': 1, 'uid': '25faddafff7286316fa3cc10', 'detail_info': {'tag': '休闲娱乐', 'type': 'life', 'detail_url': 'http://api.map.baidu.com/place/detail?uid=25faddafff7286316fa3cc10&output=html&source=placeapi_v2', 'image_num': '1'}}"
喜地花生咖啡馆,108.9222091650666,34.25374220118148,13734e6829f871a94afc8dd5,"{'name': '喜地花生咖啡馆', 'location': {'lat': 34.258078, 'lng': 108.933352}, 'address': '西安莲湖区南马道巷5号', 'street_id': '13734e6829f871a94afc8dd5', 'telephone': '(029)87628918', 'detail': 1, 'uid': '13734e6829f871a94afc8dd5', 'detail_info': {'tag': '美食;咖啡厅', 'type': 'cater', 'detail_url': 'http://api.map.baidu.com/place/detail?uid=13734e6829f871a94afc8dd5&output=html&source=placeapi_v2', 'price': '49.0', 'overall_rating': '4.6', 'comment_num': '0', 'di_review_keyword': []}}"
"{'name': '喜地花生咖啡馆', 'location': {'lat': 34.258078, 'lng': 108.933352}, 'address': '西安莲湖区南马道巷5号', 'street_id': '13734e6829f871a94afc8dd5', 'telephone': '(029)87628918', 'detail': 1, 'uid': '13734e6829f871a94afc8dd5', 'detail_info': {'tag': '美食;咖啡厅', 'type': 'cater', 'detail_url': 'http://api.map.baidu.com/place/detail?uid=13734e6829f871a94afc8dd5&output=html&source=placeapi_v2', 'price': '49.0', 'overall_rating': '4.6', 'comment_num': '0', 'di_review_keyword': []}}"
xp网咖,108.91727050484945,34.26008511212018,1de6f6ddc97b4f92a8059dbf,"{'name': 'xp网咖', 'location': {'lat': 34.264336, 'lng': 108.928424}, 'address': '陕西省西安市莲湖区西关正街94号', 'street_id': '1de6f6ddc97b4f92a8059dbf', 'detail': 1, 'uid': '1de6f6ddc97b4f92a8059dbf', 'detail_info': {'tag': '休闲娱乐;网吧', 'type': 'life', 'detail_url': 'http://api.map.baidu.com/place/detail?uid=1de6f6ddc97b4f92a8059dbf&output=html&source=placeapi_v2', 'image_num': '1'}}"
"{'name': 'xp网咖', 'location': {'lat': 34.264336, 'lng': 108.928424}, 'address': '陕西省西安市莲湖区西关正街94号', 'street_id': '1de6f6ddc97b4f92a8059dbf', 'detail': 1, 'uid': '1de6f6ddc97b4f92a8059dbf', 'detail_info': {'tag': '休闲娱乐;网吧', 'type': 'life', 'detail_url': 'http://api.map.baidu.com/place/detail?uid=1de6f6ddc97b4f92a8059dbf&output=html&source=placeapi_v2', 'image_num': '1'}}"
纤古情足浴养生会所,108.91673234918031,34.260692864844394,af2246b6d25958deab175ab8,"{'name': '纤古情足浴养生会所', 'location': {'lat': 34.264935, 'lng': 108.927887}, 'address': '西安市莲湖区西关正街54号', 'street_id': 'af2246b6d25958deab175ab8', 'detail': 1, 'uid': 'af2246b6d25958deab175ab8', 'detail_info': {'tag': '休闲娱乐;洗浴按摩', 'type': 'life', 'detail_url': 'http://api.map.baidu.com/place/detail?uid=af2246b6d25958deab175ab8&output=html&source=placeapi_v2', 'image_num': '1'}}"
"{'name': '纤古情足浴养生会所', 'location': {'lat': 34.264935, 'lng': 108.927887}, 'address': '西安市莲湖区西关正街54号', 'street_id': 'af2246b6d25958deab175ab8', 'detail': 1, 'uid': 'af2246b6d25958deab175ab8', 'detail_info': {'tag': '休闲娱乐;洗浴按摩', 'type': 'life', 'detail_url': 'http://api.map.baidu.com/place/detail?uid=af2246b6d25958deab175ab8&output=html&source=placeapi_v2', 'image_num': '1'}}"
JG咖啡茶语,108.9427791706719,34.26320872976491,87248d9619d7aab32806ce15,"{'name': 'JG咖啡茶语', 'location': {'lat': 34.267889, 'lng': 108.953867}, 'address': '北大街2号金钟大厦A座5楼(钟楼邮局往北80米)', 'street_id': '87248d9619d7aab32806ce15', 'telephone': '029-87260908', 'detail': 1, 'uid': '87248d9619d7aab32806ce15', 'detail_info': {'tag': '美食;咖啡厅', 'navi_location': {'lng': 108.95383690731, 'lat': 34.268072926693}, 'type': 'cater', 'detail_url': 'http://api.map.baidu.com/place/detail?uid=87248d9619d7aab32806ce15&output=html&source=placeapi_v2', 'overall_rating': '4.6', 'groupon_num': '1', 'comment_num': '31', 'di_review_keyword': []}}"
"{'name': 'JG咖啡茶语', 'location': {'lat': 34.267889, 'lng': 108.953867}, 'address': '北大街2号金钟大厦A座5楼(钟楼邮局往北80米)', 'street_id': '87248d9619d7aab32806ce15', 'telephone': '029-87260908', 'detail': 1, 'uid': '87248d9619d7aab32806ce15', 'detail_info': {'tag': '美食;咖啡厅', 'navi_location': {'lng': 108.95383690731, 'lat': 34.268072926693}, 'type': 'cater', 'detail_url': 'http://api.map.baidu.com/place/detail?uid=87248d9619d7aab32806ce15&output=html&source=placeapi_v2', 'overall_rating': '4.6', 'groupon_num': '1', 'comment_num': '31', 'di_review_keyword': []}}"
知更Cafe,108.93341657386543,34.25373892839698,54f08f579a111810f02d834a,"{'name': '知更Cafe', 'location': {'lat': 34.258277, 'lng': 108.944526}, 'address': '顺城南路西段太阳庙门东区B座202号铺', 'street_id': '54f08f579a111810f02d834a', 'telephone': '(029)87618962', 'detail': 1, 'uid': '54f08f579a111810f02d834a', 'detail_info': {'tag': '美食;茶座', 'type': 'cater', 'detail_url': 'http://api.map.baidu.com/place/detail?uid=54f08f579a111810f02d834a&output=html&source=placeapi_v2', 'price': '40.0', 'overall_rating': '4.6', 'comment_num': '66', 'di_review_keyword': []}}"
"{'name': '知更Cafe', 'location': {'lat': 34.258277, 'lng': 108.944526}, 'address': '顺城南路西段太阳庙门东区B座202号铺', 'street_id': '54f08f579a111810f02d834a', 'telephone': '(029)87618962', 'detail': 1, 'uid': '54f08f579a111810f02d834a', 'detail_info': {'tag': '美食;茶座', 'type': 'cater', 'detail_url': 'http://api.map.baidu.com/place/detail?uid=54f08f579a111810f02d834a&output=html&source=placeapi_v2', 'price': '40.0', 'overall_rating': '4.6', 'comment_num': '66', 'di_review_keyword': []}}"
盛世年华足浴养生会所,108.91640315979527,34.260524194780054,01872b37abeb6db440d63e61,"{'name': '盛世年华足浴养生会所', 'location': {'lat': 34.264761, 'lng': 108.927559}, 'address': '陕西省西安市莲湖区西关正街54号天樾明泰酒店3层', 'street_id': '01872b37abeb6db440d63e61', 'detail': 1, 'uid': '01872b37abeb6db440d63e61', 'detail_info': {'tag': '休闲娱乐;洗浴按摩', 'type': 'life', 'detail_url': 'http://api.map.baidu.com/place/detail?uid=01872b37abeb6db440d63e61&output=html&source=placeapi_v2', 'overall_rating': '2', 'image_num': '47', 'comment_num': '3'}}"
"{'name': '盛世年华足浴养生会所', 'location': {'lat': 34.264761, 'lng': 108.927559}, 'address': '陕西省西安市莲湖区西关正街54号天樾明泰酒店3层', 'street_id': '01872b37abeb6db440d63e61', 'detail': 1, 'uid': '01872b37abeb6db440d63e61', 'detail_info': {'tag': '休闲娱乐;洗浴按摩', 'type': 'life', 'detail_url': 'http://api.map.baidu.com/place/detail?uid=01872b37abeb6db440d63e61&output=html&source=placeapi_v2', 'overall_rating': '2', 'image_num': '47', 'comment_num': '3'}}"
美丽豪酒店-贵妃桑拿中心,108.93596841386902,34.262072591580065,0609c2e47f0984c203294ff8,"{'name': '美丽豪酒店-贵妃桑拿中心', 'location': {'lat': 34.266654, 'lng': 108.947065}, 'address': '西大街79号美丽豪酒店2层', 'street_id': '544e6d5da5d41182e507380e', 'detail': 1, 'uid': '0609c2e47f0984c203294ff8', 'detail_info': {'tag': '休闲娱乐;洗浴按摩', 'navi_location': {'lng': 108.94732705885, 'lat': 34.266668193892}, 'type': 'life', 'detail_url': 'http://api.map.baidu.com/place/detail?uid=0609c2e47f0984c203294ff8&output=html&source=placeapi_v2', 'image_num': '1'}}"
"{'name': '美丽豪酒店-贵妃桑拿中心', 'location': {'lat': 34.266654, 'lng': 108.947065}, 'address': '西大街79号美丽豪酒店2层', 'street_id': '544e6d5da5d41182e507380e', 'detail': 1, 'uid': '0609c2e47f0984c203294ff8', 'detail_info': {'tag': '休闲娱乐;洗浴按摩', 'navi_location': {'lng': 108.94732705885, 'lat': 34.266668193892}, 'type': 'life', 'detail_url': 'http://api.map.baidu.com/place/detail?uid=0609c2e47f0984c203294ff8&output=html&source=placeapi_v2', 'image_num': '1'}}"
东尚网咖,108.9183845439681,34.259477578781805,4ed6ce3a8b9334da9122e078,"{'name': '东尚网咖', 'location': {'lat': 34.263747, 'lng': 108.929535}, 'address': '陕西省西安市莲湖区环城西路72号', 'detail': 0, 'uid': '4ed6ce3a8b9334da9122e078', 'detail_info': {'tag': '休闲娱乐;网吧'}}"
"{'name': '东尚网咖', 'location': {'lat': 34.263747, 'lng': 108.929535}, 'address': '陕西省西安市莲湖区环城西路72号', 'detail': 0, 'uid': '4ed6ce3a8b9334da9122e078', 'detail_info': {'tag': '休闲娱乐;网吧'}}"
等一个人咖啡馆,108.93856073744713,34.260018170845534,de7957fce4df5778cc06a43a,"{'name': '等一个人咖啡馆', 'location': {'lat': 34.26464, 'lng': 108.949655}, 'address': '西大街马坊门钟楼小区西门正对面', 'street_id': 'de7957fce4df5778cc06a43a', 'telephone': '(029)87265525', 'detail': 1, 'uid': 'de7957fce4df5778cc06a43a', 'detail_info': {'tag': '美食;咖啡厅', 'type': 'cater', 'detail_url': 'http://api.map.baidu.com/place/detail?uid=de7957fce4df5778cc06a43a&output=html&source=placeapi_v2', 'price': '30.0', 'overall_rating': '4.7', 'groupon_num': '1', 'comment_num': '53', 'di_review_keyword': []}}"
"{'name': '等一个人咖啡馆', 'location': {'lat': 34.26464, 'lng': 108.949655},